{"region": {"center": {"latitude": 40.8900026682, "longitude": -73.8616438366}}, "total": 402, "businesses": [{"rating": 2.5, "review_count": 2, "name": "Cullen's Tavern", "transactions": [], "url": "https://www.yelp.com/biz/cullens-tavern-bronx?adjust_creative=yhLoLzsNXKw40xZ5RCWPpA&utm_campaign=yelp_api_v3&utm_medium=api_v3_business_search&utm_source=yhLoLzsNXKw40xZ5RCWPpA", "distance": 910.6951891170585, "coordinates": {"latitude": 40.8966214, "longitude": -73.8553522}, "alias": "cullens-tavern-bronx", "image_url": "", "categories": [{"alias": "bars", "title": "Bars"}], "display_phone": "(718) 655-8955", "phone": "+17186558955", "id": "r6omCw2kEMeKdLbESyKnOQ", "is_closed": false, "location": {"city": "Bronx", "display_address": ["4340 White Plains Rd", "Bronx, NY 10466"], "country": "US", "address2": "", "address3": "", "state": "NY", "address1": "4340 White Plains Rd", "zip_code": "10466"}}, {"rating": 3.0, "review_count": 5, "name": "Fireside Pub", "transactions": [], "url": "https://www.yelp.com/biz/fireside-pub-bronx?adjust_creative=yhLoLzsNXKw40xZ5RCWPpA&utm_campaign=yelp_api_v3&utm_medium=api_v3_business_search&utm_source=yhLoLzsNXKw40xZ5RCWPpA", "price": "$", "distance": 975.9907015349374, "coordinates": {"latitude": 40.8978313, "longitude": -73.8670453}, "alias": "fireside-pub-bronx", "image_url": "https://s3-media2.fl.yelpcdn.com/bphoto/K_fA4MkWxbroEQjj6Lpgwg/o.jpg", "categories": [{"alias": "divebars", "title": "Dive Bars"}], "display_phone": "", "phone": "", "id": "ihYpptm9cEIA_omFUIimgg", "is_closed": false, "location": {"city": "Bronx", "display_address": ["4272 Katonah Ave", "Bronx, NY 10470"], "country": "US", "address2": "", "address3": "", "state": "NY", "address1": "4272 Katonah Ave", "zip_code": "10470"}}, {"rating": 4.5, "review_count": 2, "name": "Just One Tavern", "transactions": [], "url": "https://www.yelp.com/biz/just-one-tavern-east-bronx?adjust_creative=yhLoLzsNXKw40xZ5RCWPpA&utm_campaign=yelp_api_v3&utm_medium=api_v3_business_search&utm_source=yhLoLzsNXKw40xZ5RCWPpA", "distance": 1006.4424060389605, "coordinates": {"latitude": 40.8979124258749, "longitude": -73.8674644344155}, "alias": "just-one-tavern-east-bronx", "image_url": "", "categories": [{"alias": "sportsbars", "title": "Sports Bars"}], "display_phone": "(718) 231-2981", "phone": "+17182312981", "id": "BOZDgPfcKw7OFuMV-FzYRQ", "is_closed": false, "location": {"city": "East Bronx", "display_address": ["4279 Katonah Ave", "Woodlawn", "East Bronx, NY 10470"], "country": "US", "address2": "", "address3": "Woodlawn", "state": "NY", "address1": "4279 Katonah Ave", "zip_code": "10470"}}, {"rating": 3.5, "review_count": 135, "name": "Rambling House", "transactions": [], "url": "https://www.yelp.com/biz/rambling-house-bronx?adjust_creative=yhLoLzsNXKw40xZ5RCWPpA&utm_campaign=yelp_api_v3&utm_medium=api_v3_business_search&utm_source=yhLoLzsNXKw40xZ5RCWPpA", "price": "$$", "distance": 1049.5767547297492, "coordinates": {"latitude": 40.8983612, "longitude": -73.8671608}, "alias": "rambling-house-bronx", "image_url": "https://s3-media4.fl.yelpcdn.com/bphoto/MbbiNypBvVawhjsCqTSW5g/o.jpg", "categories": [{"alias": "pubs", "title": "Pubs"}, {"alias": "irish", "title": "Irish"}], "display_phone": "(718) 798-4510", "phone": "+17187984510", "id": "dDl8JcDS10GsR4-jiKS80Q", "is_closed": false, "location": {"city": "Bronx", "display_address": ["4292 Katonah Ave", "Bronx, NY 10470"], "country": "US", "address2": "", "address3": "", "state": "NY", "address1": "4292 Katonah Ave", "zip_code": "10470"}}, {"rating": 4.0, "review_count": 1, "name": "The Hideout Tavern", "transactions": [], "url": "https://www.yelp.com/biz/the-hideout-tavern-new-york?adjust_creative=yhLoLzsNXKw40xZ5RCWPpA&utm_campaign=yelp_api_v3&utm_medium=api_v3_business_search&utm_source=yhLoLzsNXKw40xZ5RCWPpA", "price": "$", "distance": 1062.1742396608508, "coordinates": {"latitude": 40.8966323, "longitude": -73.8707415}, "alias": "the-hideout-tavern-new-york", "image_url": "https://s3-media3.fl.yelpcdn.com/bphoto/_0XPkDtD1UAAHPzd2F7CaA/o.jpg", "categories": [{"alias": "pubs", "title": "Pubs"}], "display_phone": "", "phone": "", "id": "ASgDEXrRN8nm5a5ZAbqNyg", "is_closed": false, "location": {"city": "New York", "display_address": ["143 E 233rd St", "Apt 5D", "New York, NY 10470"], "country": "US", "address2": "Apt 5D", "address3": "", "state": "NY", "address1": "143 E 233rd St", "zip_code": "10470"}}, {"rating": 3.0, "review_count": 8, "name": "Behan's Pub", "transactions": [], "url": "https://www.yelp.com/biz/behans-pub-bronx?adjust_creative=yhLoLzsNXKw40xZ5RCWPpA&utm_campaign=yelp_api_v3&utm_medium=api_v3_business_search&utm_source=yhLoLzsNXKw40xZ5RCWPpA", "price": "$$", "distance": 1063.7170220139992, "coordinates": {"latitude": 40.8984499, "longitude": -73.8676}, "alias": "behans-pub-bronx", "image_url": "https://s3-media3.fl.yelpcdn.com/bphoto/5eL1bdXYE91RU2gMSTJ4QA/o.jpg", "categories": [{"alias": "pubs", "title": "Pubs"}], "display_phone": "(718) 652-9153", "phone": "+17186529153", "id": "GPI75p99Bjt5FvmD92YifA", "is_closed": false, "location": {"city": "Bronx", "display_address": ["4299 Katonah Ave", "Bronx, NY 10470"], "country": "US", "address2": "", "address3": "", "state": "NY", "address1": "4299 Katonah Ave", "zip_code": "10470"}}, {"rating": 4.5, "review_count": 7, "name": "Keane's Bar and Restaurant", "transactions": ["delivery", "pickup"], "url": "https://www.yelp.com/biz/keanes-bar-and-restaurant-bronx?adjust_creative=yhLoLzsNXKw40xZ5RCWPpA&utm_campaign=yelp_api_v3&utm_medium=api_v3_business_search&utm_source=yhLoLzsNXKw40xZ5RCWPpA", "price": "$", "distance": 1217.6433539049856, "coordinates": {"latitude": 40.9000331784387, "longitude": -73.8674560921758}, "alias": "keanes-bar-and-restaurant-bronx", "image_url": "https://s3-media2.fl.yelpcdn.com/bphoto/Oh9LylpOFhBzJO07Molc1Q/o.jpg", "categories": [{"alias": "burgers", "title": "Burgers"}, {"alias": "irish_pubs", "title": "Irish Pub"}], "display_phone": "(929) 237-7958", "phone": "+19292377958", "id": "yNskoCbSxcQpRlUJ2ORMQQ", "is_closed": false, "location": {"city": "Bronx", "display_address": ["4342 Katonah Ave", "Bronx, NY 10470"], "country": "US", "address2": "", "address3": null, "state": "NY", "address1": "4342 Katonah Ave", "zip_code": "10470"}}, {"rating": 4.5, "review_count": 2, "name": "Kelly's Pub", "transactions": [], "url": "https://www.yelp.com/biz/kellys-pub-bronx?adjust_creative=yhLoLzsNXKw40xZ5RCWPpA&utm_campaign=yelp_api_v3&utm_medium=api_v3_business_search&utm_source=yhLoLzsNXKw40xZ5RCWPpA", "price": "$", "distance": 1371.4080107784714, "coordinates": {"latitude": 40.89582, "longitude": -73.87605}, "alias": "kellys-pub-bronx", "image_url": "https://s3-media1.fl.yelpcdn.com/bphoto/dayyRuhb1SPUVh8_9_DOlg/o.jpg", "categories": [{"alias": "pubs", "title": "Pubs"}], "display_phone": "(718) 325-5253", "phone": "+17183255253", "id": "pntXFEpJ1DVOwVr7mrK3Sw", "is_closed": false, "location": {"city": "Bronx", "display_address": ["23 E 233rd St", "Bronx, NY 10470"], "country": "US", "address2": "", "address3": "", "state": "NY", "address1": "23 E 233rd St", "zip_code": "10470"}}, {"rating": 3.5, "review_count": 16, "name": "McKeon's Bar and Restaurant", "transactions": [], "url": "https://www.yelp.com/biz/mckeons-bar-and-restaurant-yonkers-2?adjust_creative=yhLoLzsNXKw40xZ5RCWPpA&utm_campaign=yelp_api_v3&utm_medium=api_v3_business_search&utm_source=yhLoLzsNXKw40xZ5RCWPpA", "price": "$$", "distance": 1454.3303139646973, "coordinates": {"latitude": 40.902972, "longitude": -73.864453}, "alias": "mckeons-bar-and-restaurant-yonkers-2", "image_url": "https://s3-media2.fl.yelpcdn.com/bphoto/L-m4_R1atyclajGEioc2Vw/o.jpg", "categories": [{"alias": "bars", "title": "Bars"}, {"alias": "irish", "title": "Irish"}, {"alias": "tradamerican", "title": "American (Traditional)"}], "display_phone": "(914) 530-2386", "phone": "+19145302386", "id": "n5k_d-y1g_JEpzreoUCJrw", "is_closed": false, "location": {"city": "Yonkers", "display_address": ["996 McLean Ave", "Yonkers, NY 10704"], "country": "US", "address2": null, "address3": null, "state": "NY", "address1": "996 McLean Ave", "zip_code": "10704"}}, {"rating": 3.5, "review_count": 10, "name": "Moriarty's Bar & Restaurant", "transactions": [], "url": "https://www.yelp.com/biz/moriartys-bar-and-restaurant-yonkers?adjust_creative=yhLoLzsNXKw40xZ5RCWPpA&utm_campaign=yelp_api_v3&utm_medium=api_v3_business_search&utm_source=yhLoLzsNXKw40xZ5RCWPpA", "price": "$$", "distance": 1483.8463061435693, "coordinates": {"latitude": 40.903118, "longitude": -73.864902}, "alias": "moriartys-bar-and-restaurant-yonkers", "image_url": "https://s3-media2.fl.yelpcdn.com/bphoto/X3vDOJibSWm2MIqZxnSOZg/o.jpg", "categories": [{"alias": "irish", "title": "Irish"}, {"alias": "bars", "title": "Bars"}], "display_phone": "(914) 237-9840", "phone": "+19142379840", "id": "mgMSeDt46skvH5J3Szkn9Q", "is_closed": false, "location": {"city": "Yonkers", "display_address": ["986 McLean Ave", "Yonkers, NY 10704"], "country": "US", "address2": "", "address3": "", "state": "NY", "address1": "986 McLean Ave", "zip_code": "10704"}}, {"rating": 4.0, "review_count": 70, "name": "Heritage Bar & Restaurant", "transactions": ["delivery", "pickup"], "url": "https://www.yelp.com/biz/heritage-bar-and-restaurant-yonkers?adjust_creative=yhLoLzsNXKw40xZ5RCWPpA&utm_campaign=yelp_api_v3&utm_medium=api_v3_business_search&utm_source=yhLoLzsNXKw40xZ5RCWPpA", "price": "$$", "distance": 1515.8688232964764, "coordinates": {"latitude": 40.903261526, "longitude": -73.8658376068544}, "alias": "heritage-bar-and-restaurant-yonkers", "image_url": "https://s3-media2.fl.yelpcdn.com/bphoto/28W4fi7HwDDycQRSzm80XQ/o.jpg", "categories": [{"alias": "bars", "title": "Bars"}, {"alias": "newamerican", "title": "American (New)"}], "display_phone": "(914) 776-7532", "phone": "+19147767532", "id": "OrUIvcAekhUaHMXCin1eqg", "is_closed": false, "location": {"city": "Yonkers", "display_address": ["960 McLean Ave", "Yonkers, NY 10704"], "country": "US", "address2": "", "address3": "", "state": "NY", "address1": "960 McLean Ave", "zip_code": "10704"}}, {"rating": 4.0, "review_count": 6, "name": "J P Clarkes Saloon", "transactions": [], "url": "https://www.yelp.com/biz/j-p-clarkes-saloon-yonkers?adjust_creative=yhLoLzsNXKw40xZ5RCWPpA&utm_campaign=yelp_api_v3&utm_medium=api_v3_business_search&utm_source=yhLoLzsNXKw40xZ5RCWPpA", "distance": 1541.843125024436, "coordinates": {"latitude": 40.903336, "longitude": -73.866624}, "alias": "j-p-clarkes-saloon-yonkers", "image_url": "https://s3-media2.fl.yelpcdn.com/bphoto/ypk5Fv3pXwvUuiNYcZNGkQ/o.jpg", "categories": [{"alias": "nightlife", "title": "Nightlife"}], "display_phone": "(914) 237-0115", "phone": "+19142370115", "id": "VarVsDAIl1RY77rYkernhw", "is_closed": false, "location": {"city": "Yonkers", "display_address": ["947 McLean Ave", "Yonkers, NY 10704"], "country": "US", "address2": "", "address3": "", "state": "NY", "address1": "947 McLean Ave", "zip_code": "10704"}}, {"rating": 2.5, "review_count": 2, "name": "Fagan's Ale House", "transactions": [], "url": "https://www.yelp.com/biz/fagans-ale-house-yonkers?adjust_creative=yhLoLzsNXKw40xZ5RCWPpA&utm_campaign=yelp_api_v3&utm_medium=api_v3_business_search&utm_source=yhLoLzsNXKw40xZ5RCWPpA", "price": "$", "distance": 1565.5294914864894, "coordinates": {"latitude": 40.9036172, "longitude": -73.8665479}, "alias": "fagans-ale-house-yonkers", "image_url": "https://s3-media2.fl.yelpcdn.com/bphoto/cm7WZDDVRzpmzi960UbViA/o.jpg", "categories": [{"alias": "sportsbars", "title": "Sports Bars"}], "display_phone": "(914) 237-5743", "phone": "+19142375743", "id": "kViNYKZfD0eVrGwXBsQJYw", "is_closed": false, "location": {"city": "Yonkers", "display_address": ["942 McLean Ave", "Yonkers, NY 10704"], "country": "US", "address2": "", "address3": "", "state": "NY", "address1": "942 McLean Ave", "zip_code": "10704"}}, {"rating": 3.0, "review_count": 6, "name": "Club Valle Restaurant Caf\u00e8", "transactions": ["delivery", "pickup"], "url": "https://www.yelp.com/biz/club-valle-restaurant-caf%C3%A8-bronx?adjust_creative=yhLoLzsNXKw40xZ5RCWPpA&utm_campaign=yelp_api_v3&utm_medium=api_v3_business_search&utm_source=yhLoLzsNXKw40xZ5RCWPpA", "distance": 1574.9153721405694, "coordinates": {"latitude": 40.87862, "longitude": -73.87276}, "alias": "club-valle-restaurant-caf\u00e8-bronx", "image_url": "https://s3-media3.fl.yelpcdn.com/bphoto/9ynMRMQOL8r5pOTL-HfeIA/o.jpg", "categories": [{"alias": "cafes", "title": "Cafes"}, {"alias": "dominican", "title": "Dominican"}, {"alias": "bars", "title": "Bars"}], "display_phone": "(718) 798-3755", "phone": "+17187983755", "id": "__2TH8yKnk1GjcgL2MZEIw", "is_closed": false, "location": {"city": "Bronx", "display_address": ["352 E Gun Hill Rd", "Bronx, NY 10467"], "country": "US", "address2": "", "address3": null, "state": "NY", "address1": "352 E Gun Hill Rd", "zip_code": "10467"}}, {"rating": 3.0, "review_count": 4, "name": "Ned Devine's Saloon", "transactions": [], "url": "https://www.yelp.com/biz/ned-devines-saloon-yonkers?adjust_creative=yhLoLzsNXKw40xZ5RCWPpA&utm_campaign=yelp_api_v3&utm_medium=api_v3_business_search&utm_source=yhLoLzsNXKw40xZ5RCWPpA", "price": "$$", "distance": 1591.1820812414205, "coordinates": {"latitude": 40.9038, "longitude": -73.86666}, "alias": "ned-devines-saloon-yonkers", "image_url": "https://s3-media3.fl.yelpcdn.com/bphoto/Tx1LOHi9ZMcjsRXKOVygDQ/o.jpg", "categories": [{"alias": "bars", "title": "Bars"}], "display_phone": "(914) 776-2636", "phone": "+19147762636", "id": "PsoizA3NfKvMSqO9U5kYWg", "is_closed": false, "location": {"city": "Yonkers", "display_address": ["940 Mclean Ave", "Yonkers, NY 10704"], "country": "US", "address2": "", "address3": "", "state": "NY", "address1": "940 Mclean Ave", "zip_code": "10704"}}, {"rating": 3.0, "review_count": 15, "name": "Last Stop Bar & Grill", "transactions": [], "url": "https://www.yelp.com/biz/last-stop-bar-and-grill-bronx?adjust_creative=yhLoLzsNXKw40xZ5RCWPpA&utm_campaign=yelp_api_v3&utm_medium=api_v3_business_search&utm_source=yhLoLzsNXKw40xZ5RCWPpA", "price": "$$$", "distance": 1667.7722669288305, "coordinates": {"latitude": 40.9027582202687, "longitude": -73.8512055929634}, "alias": "last-stop-bar-and-grill-bronx", "image_url": "https://s3-media3.fl.yelpcdn.com/bphoto/3TCwH35c02Uo0cF7dhdaSg/o.jpg", "categories": [{"alias": "cocktailbars", "title": "Cocktail Bars"}, {"alias": "seafood", "title": "Seafood"}, {"alias": "caribbean", "title": "Caribbean"}], "display_phone": "(347) 427-4543", "phone": "+13474274543", "id": "dA6hxdyzJS0xqizoJ6XztA", "is_closed": false, "location": {"city": "Bronx", "display_address": ["4609 White Plains Rd", "Bronx, NY 10470"], "country": "US", "address2": "", "address3": null, "state": "NY", "address1": "4609 White Plains Rd", "zip_code": "10470"}}, {"rating": 4.0, "review_count": 193, "name": "Rory Dolan's Restaurant & Bar", "transactions": [], "url": "https://www.yelp.com/biz/rory-dolans-restaurant-and-bar-yonkers-2?adjust_creative=yhLoLzsNXKw40xZ5RCWPpA&utm_campaign=yelp_api_v3&utm_medium=api_v3_business_search&utm_source=yhLoLzsNXKw40xZ5RCWPpA", "price": "$$", "distance": 1778.766048297006, "coordinates": {"latitude": 40.9048109, "longitude": -73.868736}, "alias": "rory-dolans-restaurant-and-bar-yonkers-2", "image_url": "https://s3-media1.fl.yelpcdn.com/bphoto/o3e0XoeVQujs1dEirKqJzQ/o.jpg", "categories": [{"alias": "irish", "title": "Irish"}, {"alias": "bars", "title": "Bars"}, {"alias": "tradamerican", "title": "American (Traditional)"}], "display_phone": "(914) 776-2946", "phone": "+19147762946", "id": "vmnDYgMnCmnvA76yBaB9ig", "is_closed": false, "location": {"city": "Yonkers", "display_address": ["890 McLean Ave", "Yonkers, NY 10704"], "country": "US", "address2": "", "address3": "", "state": "NY", "address1": "890 McLean Ave", "zip_code": "10704"}}, {"rating": 3.0, "review_count": 3, "name": "Danny Macs", "transactions": [], "url": "https://www.yelp.com/biz/danny-macs-yonkers?adjust_creative=yhLoLzsNXKw40xZ5RCWPpA&utm_campaign=yelp_api_v3&utm_medium=api_v3_business_search&utm_source=yhLoLzsNXKw40xZ5RCWPpA", "distance": 1812.7997690999252, "coordinates": {"latitude": 40.90502, "longitude": -73.86996}, "alias": "danny-macs-yonkers", "image_url": "https://s3-media3.fl.yelpcdn.com/bphoto/h6-iZeQY1BpbhYBHoa5qiQ/o.jpg", "categories": [{"alias": "sportsbars", "title": "Sports Bars"}], "display_phone": "(914) 237-2320", "phone": "+19142372320", "id": "OxJND-gygo9L6fC9lzix4A", "is_closed": false, "location": {"city": "Yonkers", "display_address": ["869 McLean Ave", "Yonkers, NY 10704"], "country": "US", "address2": null, "address3": null, "state": "NY", "address1": "869 McLean Ave", "zip_code": "10704"}}, {"rating": 1.0, "review_count": 1, "name": "Tranquility Bar and Lounge", "transactions": [], "url": "https://www.yelp.com/biz/tranquility-bar-and-lounge-east-bronx?adjust_creative=yhLoLzsNXKw40xZ5RCWPpA&utm_campaign=yelp_api_v3&utm_medium=api_v3_business_search&utm_source=yhLoLzsNXKw40xZ5RCWPpA", "price": "$$", "distance": 1923.0406429917903, "coordinates": {"latitude": 40.8775, "longitude": -73.84583}, "alias": "tranquility-bar-and-lounge-east-bronx", "image_url": "https://s3-media2.fl.yelpcdn.com/bphoto/Tc7glhWzr2LWgbP2q__GdQ/o.jpg", "categories": [{"alias": "lounges", "title": "Lounges"}], "display_phone": "(914) 258-4444", "phone": "+19142584444", "id": "1TdhdXS0qgCnoD6YQYvpng", "is_closed": false, "location": {"city": "East Bronx", "display_address": ["3511 Boston Rd", "East Bronx, NY 10469"], "country": "US", "address2": null, "address3": "", "state": "NY", "address1": "3511 Boston Rd", "zip_code": "10469"}}, {"rating": 2.5, "review_count": 2, "name": "Africa's Last Stop", "transactions": [], "url": "https://www.yelp.com/biz/africas-last-stop-bronx?adjust_creative=yhLoLzsNXKw40xZ5RCWPpA&utm_campaign=yelp_api_v3&utm_medium=api_v3_business_search&utm_source=yhLoLzsNXKw40xZ5RCWPpA", "distance": 1994.8737710186049, "coordinates": {"latitude": 40.8787994, "longitude": -73.8431099}, "alias": "africas-last-stop-bronx", "image_url": "", "categories": [{"alias": "african", "title": "African"}, {"alias": "bars", "title": "Bars"}], "display_phone": "(718) 325-1200", "phone": "+17183251200", "id": "fp8uMVNy3QWZfc_QV_-54Q", "is_closed": false, "location": {"city": "Bronx", "display_address": ["1300 E 222nd St", "Bronx, NY 10469"], "country": "US", "address2": "", "address3": null, "state": "NY", "address1": "1300 E 222nd St", "zip_code": "10469"}}, {"rating": 5.0, "review_count": 1, "name": "Ireland's 32", "transactions": [], "url": "https://www.yelp.com/biz/irelands-32-yonkers-2?adjust_creative=yhLoLzsNXKw40xZ5RCWPpA&utm_campaign=yelp_api_v3&utm_medium=api_v3_business_search&utm_source=yhLoLzsNXKw40xZ5RCWPpA", "price": "$", "distance": 2018.74750615143, "coordinates": {"latitude": 40.9065572574743, "longitude": -73.8715043388129}, "alias": "irelands-32-yonkers-2", "image_url": "https://s3-media3.fl.yelpcdn.com/bphoto/ddXnloi5DJcDY7ewnuowZQ/o.jpg", "categories": [{"alias": "irish_pubs", "title": "Irish Pub"}], "display_phone": "(914) 200-5173", "phone": "+19142005173", "id": "nzogR_C-VmPgiuFfDlRCkQ", "is_closed": false, "location": {"city": "Yonkers", "display_address": ["817 McLean Ave", "Yonkers, NY 10704"], "country": "US", "address2": "", "address3": null, "state": "NY", "address1": "817 McLean Ave", "zip_code": "10704"}}, {"rating": 2.5, "review_count": 8, "name": "Mar Y Tierra Resturant & Lounge", "transactions": [], "url": "https://www.yelp.com/biz/mar-y-tierra-resturant-and-lounge-norwood?adjust_creative=yhLoLzsNXKw40xZ5RCWPpA&utm_campaign=yelp_api_v3&utm_medium=api_v3_business_search&utm_source=yhLoLzsNXKw40xZ5RCWPpA", "price": "$$", "distance": 2114.8548452450786, "coordinates": {"latitude": 40.87672, "longitude": -73.87953}, "alias": "mar-y-tierra-resturant-and-lounge-norwood", "image_url": "https://s3-media3.fl.yelpcdn.com/bphoto/fRIHos9viRuJXmiew2HiBw/o.jpg", "categories": [{"alias": "mexican", "title": "Mexican"}, {"alias": "lounges", "title": "Lounges"}], "display_phone": "(718) 655-7764", "phone": "+17186557764", "id": "j1JYnUp_DuNauLdBeOSwCA", "is_closed": false, "location": {"city": "Norwood", "display_address": ["3236 Bainbridge Ave", "Norwood, NY 10467"], "country": "US", "address2": "", "address3": "", "state": "NY", "address1": "3236 Bainbridge Ave", "zip_code": "10467"}}, {"rating": 4.5, "review_count": 22, "name": "Saints and Scholars", "transactions": [], "url": "https://www.yelp.com/biz/saints-and-scholars-yonkers?adjust_creative=yhLoLzsNXKw40xZ5RCWPpA&utm_campaign=yelp_api_v3&utm_medium=api_v3_business_search&utm_source=yhLoLzsNXKw40xZ5RCWPpA", "distance": 2149.8440274452914, "coordinates": {"latitude": 40.90772, "longitude": -73.87203}, "alias": "saints-and-scholars-yonkers", "image_url": "https://s3-media2.fl.yelpcdn.com/bphoto/jB7HtgPjOcR_ol5Jk8XwPw/o.jpg", "categories": [{"alias": "bars", "title": "Bars"}], "display_phone": "(914) 457-5550", "phone": "+19144575550", "id": "spJB9o-sXRndjLbpqXucHA", "is_closed": false, "location": {"city": "Yonkers", "display_address": ["790 McLean Ave", "Yonkers, NY 10704"], "country": "US", "address2": "", "address3": null, "state": "NY", "address1": "790 McLean Ave", "zip_code": "10704"}}, {"rating": 3.5, "review_count": 4, "name": "Klassique Bar and Lounge", "transactions": [], "url": "https://www.yelp.com/biz/klassique-bar-and-lounge-bronx?adjust_creative=yhLoLzsNXKw40xZ5RCWPpA&utm_campaign=yelp_api_v3&utm_medium=api_v3_business_search&utm_source=yhLoLzsNXKw40xZ5RCWPpA", "price": "$$", "distance": 2185.2508307993608, "coordinates": {"latitude": 40.88161, "longitude": -73.83831}, "alias": "klassique-bar-and-lounge-bronx", "image_url": "", "categories": [{"alias": "bars", "title": "Bars"}], "display_phone": "(718) 654-3222", "phone": "+17186543222", "id": "a4htVvpQwdm7nu3UrQ0pTA", "is_closed": false, "location": {"city": "Bronx", "display_address": ["3813 Boston Rd", "Bronx, NY 10466"], "country": "US", "address2": "", "address3": "", "state": "NY", "address1": "3813 Boston Rd", "zip_code": "10466"}}, {"rating": 1.0, "review_count": 1, "name": "Black Thorn Bar", "transactions": [], "url": "https://www.yelp.com/biz/black-thorn-bar-bronx?adjust_creative=yhLoLzsNXKw40xZ5RCWPpA&utm_campaign=yelp_api_v3&utm_medium=api_v3_business_search&utm_source=yhLoLzsNXKw40xZ5RCWPpA", "distance": 2314.2664224130617, "coordinates": {"latitude": 40.8740769, "longitude": -73.8794755}, "alias": "black-thorn-bar-bronx", "image_url": "", "categories": [{"alias": "nightlife", "title": "Nightlife"}], "display_phone": "(718) 231-1010", "phone": "+17182311010", "id": "tpfJUwUr4ISigPcKjxrpJw", "is_closed": false, "location": {"city": "Bronx", "display_address": ["3119 Bainbridge Ave", "Bronx, NY 10467"], "country": "US", "address2": "", "address3": "", "state": "NY", "address1": "3119 Bainbridge Ave", "zip_code": "10467"}}, {"rating": 3.5, "review_count": 24, "name": "Code Red Restaurant & Lounge", "transactions": [], "url": "https://www.yelp.com/biz/code-red-restaurant-and-lounge-bronx-2?adjust_creative=yhLoLzsNXKw40xZ5RCWPpA&utm_campaign=yelp_api_v3&utm_medium=api_v3_business_search&utm_source=yhLoLzsNXKw40xZ5RCWPpA", "price": "$$", "distance": 2378.5998492966537, "coordinates": {"latitude": 40.8712159053814, "longitude": -73.8481139653215}, "alias": "code-red-restaurant-and-lounge-bronx-2", "image_url": "https://s3-media2.fl.yelpcdn.com/bphoto/Ll1Bfhkv7WrZQtKDdgZRzQ/o.jpg", "categories": [{"alias": "caribbean", "title": "Caribbean"}, {"alias": "sportsbars", "title": "Sports Bars"}], "display_phone": "(718) 881-1808", "phone": "+17188811808", "id": "MfTOkwb0wfpKCN65OorMIw", "is_closed": false, "location": {"city": "Bronx", "display_address": ["1320 East Gun Hill Rd", "Bronx, NY 10469"], "country": "US", "address2": "", "address3": null, "state": "NY", "address1": "1320 East Gun Hill Rd", "zip_code": "10469"}}, {"rating": 2.5, "review_count": 3, "name": "McDwyer's Pub", "transactions": [], "url": "https://www.yelp.com/biz/mcdwyers-pub-bronx?adjust_creative=yhLoLzsNXKw40xZ5RCWPpA&utm_campaign=yelp_api_v3&utm_medium=api_v3_business_search&utm_source=yhLoLzsNXKw40xZ5RCWPpA", "price": "$", "distance": 2379.9355445251354, "coordinates": {"latitude": 40.8723845, "longitude": -73.8777909}, "alias": "mcdwyers-pub-bronx", "image_url": "", "categories": [{"alias": "nightlife", "title": "Nightlife"}], "display_phone": "(347) 427-0519", "phone": "+13474270519", "id": "2j4ENfk2XbzC5D2c4TZidg", "is_closed": false, "location": {"city": "Bronx", "display_address": ["331 E 204th St", "Bronx, NY 10467"], "country": "US", "address2": "", "address3": "", "state": "NY", "address1": "331 E 204th St", "zip_code": "10467"}}, {"rating": 4.0, "review_count": 109, "name": "Lexa Bar & Garden", "transactions": [], "url": "https://www.yelp.com/biz/lexa-bar-and-garden-norwood?adjust_creative=yhLoLzsNXKw40xZ5RCWPpA&utm_campaign=yelp_api_v3&utm_medium=api_v3_business_search&utm_source=yhLoLzsNXKw40xZ5RCWPpA", "price": "$$", "distance": 2391.8043047301167, "coordinates": {"latitude": 40.87212, "longitude": -73.87755}, "alias": "lexa-bar-and-garden-norwood", "image_url": "https://s3-media2.fl.yelpcdn.com/bphoto/fcsLTHvCvq1WCsp0mOU6JA/o.jpg", "categories": [{"alias": "burgers", "title": "Burgers"}, {"alias": "beerbar", "title": "Beer Bar"}, {"alias": "pizza", "title": "Pizza"}], "display_phone": "(929) 243-3300", "phone": "+19292433300", "id": "nxMJqEab557oh4G7D-5Ygg", "is_closed": false, "location": {"city": "Norwood", "display_address": ["357 E 204th St", "Norwood, NY 10467"], "country": "US", "address2": "", "address3": "", "state": "NY", "address1": "357 E 204th St", "zip_code": "10467"}}, {"rating": 5.0, "review_count": 2, "name": "Durty Nellys", "transactions": [], "url": "https://www.yelp.com/biz/durty-nellys-yonkers?adjust_creative=yhLoLzsNXKw40xZ5RCWPpA&utm_campaign=yelp_api_v3&utm_medium=api_v3_business_search&utm_source=yhLoLzsNXKw40xZ5RCWPpA", "distance": 2498.1571976926266, "coordinates": {"latitude": 40.90873135201, "longitude": -73.8780606910586}, "alias": "durty-nellys-yonkers", "image_url": "https://s3-media1.fl.yelpcdn.com/bphoto/x6aftylNi6-R1DO-txJWkQ/o.jpg", "categories": [{"alias": "pubs", "title": "Pubs"}, {"alias": "sportsbars", "title": "Sports Bars"}], "display_phone": "(914) 375-1433", "phone": "+19143751433", "id": "Eq8nh6NLto4DWIPQuAUGog", "is_closed": false, "location": {"city": "Yonkers", "display_address": ["655 McLean Ave", "Yonkers, NY 10705"], "country": "US", "address2": "", "address3": null, "state": "NY", "address1": "655 McLean Ave", "zip_code": "10705"}}, {"rating": 4.5, "review_count": 6, "name": "The Whistlin' Donkey", "transactions": ["delivery", "pickup"], "url": "https://www.yelp.com/biz/the-whistlin-donkey-yonkers?adjust_creative=yhLoLzsNXKw40xZ5RCWPpA&utm_campaign=yelp_api_v3&utm_medium=api_v3_business_search&utm_source=yhLoLzsNXKw40xZ5RCWPpA", "price": "$$", "distance": 2542.9050937579455, "coordinates": {"latitude": 40.9089379242266, "longitude": -73.8786093653317}, "alias": "the-whistlin-donkey-yonkers", "image_url": "https://s3-media2.fl.yelpcdn.com/bphoto/ltFIq3TaVZSb-1D-sAmsBQ/o.jpg", "categories": [{"alias": "irish_pubs", "title": "Irish Pub"}, {"alias": "sandwiches", "title": "Sandwiches"}, {"alias": "tradamerican", "title": "American (Traditional)"}], "display_phone": "(914) 423-4900", "phone": "+19144234900", "id": "ahfEAEnyr4fOiIxWDuN_XQ", "is_closed": false, "location": {"city": "Yonkers", "display_address": ["641 McLean Ave", "Yonkers, NY 10705"], "country": "US", "address2": "", "address3": null, "state": "NY", "address1": "641 McLean Ave", "zip_code": "10705"}}, {"rating": 3.0, "review_count": 22, "name": "Mingles", "transactions": [], "url": "https://www.yelp.com/biz/mingles-bronx?adjust_creative=yhLoLzsNXKw40xZ5RCWPpA&utm_campaign=yelp_api_v3&utm_medium=api_v3_business_search&utm_source=yhLoLzsNXKw40xZ5RCWPpA", "price": "$$", "distance": 2572.587331695626, "coordinates": {"latitude": 40.8846189, "longitude": -73.8318809}, "alias": "mingles-bronx", "image_url": "https://s3-media1.fl.yelpcdn.com/bphoto/4RQADnKQ4TA6OTNkssYdOA/o.jpg", "categories": [{"alias": "danceclubs", "title": "Dance Clubs"}, {"alias": "cafes", "title": "Cafes"}], "display_phone": "(718) 320-9505", "phone": "+17183209505", "id": "m10QaItxSHbJa1XjQFOOJA", "is_closed": false, "location": {"city": "Bronx", "display_address": ["4012 Boston Rd", "Bronx, NY 10475"], "country": "US", "address2": "", "address3": "", "state": "NY", "address1": "4012 Boston Rd", "zip_code": "10475"}}, {"rating": 3.5, "review_count": 4, "name": "Big Billy's Bar & Grill", "transactions": [], "url": "https://www.yelp.com/biz/big-billys-bar-and-grill-mount-vernon?adjust_creative=yhLoLzsNXKw40xZ5RCWPpA&utm_campaign=yelp_api_v3&utm_medium=api_v3_business_search&utm_source=yhLoLzsNXKw40xZ5RCWPpA", "price": "$$", "distance": 2746.5649204324154, "coordinates": {"latitude": 40.9127883911133, "longitude": -73.849235534668}, "alias": "big-billys-bar-and-grill-mount-vernon", "image_url": "https://s3-media1.fl.yelpcdn.com/bphoto/6nd0597vYIKSsUmbfhb5vA/o.jpg", "categories": [{"alias": "bars", "title": "Bars"}, {"alias": "tradamerican", "title": "American (Traditional)"}, {"alias": "burgers", "title": "Burgers"}], "display_phone": "(914) 664-9888", "phone": "+19146649888", "id": "wieU83bWj9wqIbGtO3rN6A", "is_closed": false, "location": {"city": "Mount Vernon", "display_address": ["138 Mount Vernon Ave", "Mount Vernon, NY 10550"], "country": "US", "address2": "", "address3": "", "state": "NY", "address1": "138 Mount Vernon Ave", "zip_code": "10550"}}, {"rating": 4.0, "review_count": 194, "name": "Fish N' Ting", "transactions": [], "url": "https://www.yelp.com/biz/fish-n-ting-bronx?adjust_creative=yhLoLzsNXKw40xZ5RCWPpA&utm_campaign=yelp_api_v3&utm_medium=api_v3_business_search&utm_source=yhLoLzsNXKw40xZ5RCWPpA", "price": "$$", "distance": 2778.8643355708937, "coordinates": {"latitude": 40.885723, "longitude": -73.829075}, "alias": "fish-n-ting-bronx", "image_url": "https://s3-media3.fl.yelpcdn.com/bphoto/RkEUiQcPKLa6DG6ovo3Q5g/o.jpg", "categories": [{"alias": "caribbean", "title": "Caribbean"}, {"alias": "seafood", "title": "Seafood"}, {"alias": "bars", "title": "Bars"}], "display_phone": "(718) 881-6116", "phone": "+17188816116", "id": "rkYATACY4qzaVFapJTWj4Q", "is_closed": false, "location": {"city": "Bronx", "display_address": ["4063 Boston Rd", "Bronx, NY 10466"], "country": "US", "address2": "", "address3": "", "state": "NY", "address1": "4063 Boston Rd", "zip_code": "10466"}}, {"rating": 3.5, "review_count": 16, "name": "Lehman Center for the Performing Arts", "transactions": [], "url": "https://www.yelp.com/biz/lehman-center-for-the-performing-arts-bronx?adjust_creative=yhLoLzsNXKw40xZ5RCWPpA&utm_campaign=yelp_api_v3&utm_medium=api_v3_business_search&utm_source=yhLoLzsNXKw40xZ5RCWPpA", "price": "$$$", "distance": 2790.8965318692353, "coordinates": {"latitude": 40.8782605723615, "longitude": -73.8909852497152}, "alias": "lehman-center-for-the-performing-arts-bronx", "image_url": "https://s3-media2.fl.yelpcdn.com/bphoto/cbwMTnBJ7EtRAeM3iKJrFw/o.jpg", "categories": [{"alias": "theater", "title": "Performing Arts"}, {"alias": "musicvenues", "title": "Music Venues"}, {"alias": "venues", "title": "Venues & Event Spaces"}], "display_phone": "(718) 960-8833", "phone": "+17189608833", "id": "mU1wjINGfNUmnze2NVDwxw", "is_closed": false, "location": {"city": "Bronx", "display_address": ["250 Bedford Park Blvd W", "Bronx, NY 10468"], "country": "US", "address2": "", "address3": "", "state": "NY", "address1": "250 Bedford Park Blvd W", "zip_code": "10468"}}, {"rating": 1.0, "review_count": 3, "name": "Kennedys", "transactions": [], "url": "https://www.yelp.com/biz/kennedys-yonkers?adjust_creative=yhLoLzsNXKw40xZ5RCWPpA&utm_campaign=yelp_api_v3&utm_medium=api_v3_business_search&utm_source=yhLoLzsNXKw40xZ5RCWPpA", "distance": 2855.647812896556, "coordinates": {"latitude": 40.9143653, "longitude": -73.8509414}, "alias": "kennedys-yonkers", "image_url": "https://s3-media3.fl.yelpcdn.com/bphoto/sRnATELufc1RfeiY756sEw/o.jpg", "categories": [{"alias": "divebars", "title": "Dive Bars"}], "display_phone": "(914) 237-9808", "phone": "+19142379808", "id": "K77QlVJENkrGB0UqBa8q4Q", "is_closed": false, "location": {"city": "Yonkers", "display_address": ["1234 Yonkers Ave", "Yonkers, NY 10704"], "country": "US", "address2": "", "address3": "", "state": "NY", "address1": "1234 Yonkers Ave", "zip_code": "10704"}}, {"rating": 2.0, "review_count": 7, "name": "Gasolina Lounge", "transactions": ["delivery", "pickup"], "url": "https://www.yelp.com/biz/gasolina-lounge-new-york?adjust_creative=yhLoLzsNXKw40xZ5RCWPpA&utm_campaign=yelp_api_v3&utm_medium=api_v3_business_search&utm_source=yhLoLzsNXKw40xZ5RCWPpA", "price": "$$", "distance": 2909.101345139106, "coordinates": {"latitude": 40.863955, "longitude": -73.864878}, "alias": "gasolina-lounge-new-york", "image_url": "https://s3-media3.fl.yelpcdn.com/bphoto/RIjR1BIgWj5wGkqWhmhxNw/o.jpg", "categories": [{"alias": "bars", "title": "Bars"}, {"alias": "venues", "title": "Venues & Event Spaces"}, {"alias": "tradamerican", "title": "American (Traditional)"}], "display_phone": "(718) 708-5018", "phone": "+17187085018", "id": "yW-efAydaQTP1Ag1rYo4NQ", "is_closed": false, "location": {"city": "New York", "display_address": ["2525 Boston Rd", "New York, NY 10467"], "country": "US", "address2": "", "address3": "", "state": "NY", "address1": "2525 Boston Rd", "zip_code": "10467"}}, {"rating": 5.0, "review_count": 1, "name": "Family's Pots & Grill", "transactions": ["delivery", "pickup"], "url": "https://www.yelp.com/biz/familys-pots-and-grill-mount-vernon-2?adjust_creative=yhLoLzsNXKw40xZ5RCWPpA&utm_campaign=yelp_api_v3&utm_medium=api_v3_business_search&utm_source=yhLoLzsNXKw40xZ5RCWPpA", "distance": 2931.2069198652453, "coordinates": {"latitude": 40.90669, "longitude": -73.83468}, "alias": "familys-pots-and-grill-mount-vernon-2", "image_url": "", "categories": [{"alias": "bars", "title": "Bars"}, {"alias": "tradamerican", "title": "American (Traditional)"}], "display_phone": "(914) 699-1690", "phone": "+19146991690", "id": "r3An064WMOVPQ2d1uATFtw", "is_closed": false, "location": {"city": "Mount Vernon", "display_address": ["10 E 3rd St", "Mount Vernon, NY 10550"], "country": "US", "address2": null, "address3": null, "state": "NY", "address1": "10 E 3rd St", "zip_code": "10550"}}, {"rating": 1.0, "review_count": 1, "name": "Dazzles Restaurant & Lounge", "transactions": [], "url": "https://www.yelp.com/biz/dazzles-restaurant-and-lounge-mount-vernon?adjust_creative=yhLoLzsNXKw40xZ5RCWPpA&utm_campaign=yelp_api_v3&utm_medium=api_v3_business_search&utm_source=yhLoLzsNXKw40xZ5RCWPpA", "distance": 2943.503312762401, "coordinates": {"latitude": 40.90798, "longitude": -73.836}, "alias": "dazzles-restaurant-and-lounge-mount-vernon", "image_url": "https://s3-media3.fl.yelpcdn.com/bphoto/3QPoyWvQ4SUzTZORCnWhkQ/o.jpg", "categories": [{"alias": "lounges", "title": "Lounges"}], "display_phone": "(914) 699-1908", "phone": "+19146991908", "id": "IYKV9eicLSoWNLBSI87IAw", "is_closed": false, "location": {"city": "Mount Vernon", "display_address": ["130 S 4th Ave", "Mount Vernon, NY 10550"], "country": "US", "address2": null, "address3": null, "state": "NY", "address1": "130 S 4th Ave", "zip_code": "10550"}}, {"rating": 4.0, "review_count": 4, "name": "Madden's Bedford Pub", "transactions": [], "url": "https://www.yelp.com/biz/maddens-bedford-pub-bronx?adjust_creative=yhLoLzsNXKw40xZ5RCWPpA&utm_campaign=yelp_api_v3&utm_medium=api_v3_business_search&utm_source=yhLoLzsNXKw40xZ5RCWPpA", "distance": 2946.1939219652527, "coordinates": {"latitude": 40.873013, "longitude": -73.8887362}, "alias": "maddens-bedford-pub-bronx", "image_url": "https://s3-media3.fl.yelpcdn.com/bphoto/zbaOjS26g5M8v5cC9RE-oA/o.jpg", "categories": [{"alias": "bars", "title": "Bars"}], "display_phone": "(718) 364-9877", "phone": "+17183649877", "id": "I7TMAxdCmjhrq_4SxB-sOw", "is_closed": false, "location": {"city": "Bronx", "display_address": ["27 Bedford Park Blvd E", "Bronx, NY 10468"], "country": "US", "address2": "", "address3": "", "state": "NY", "address1": "27 Bedford Park Blvd E", "zip_code": "10468"}}, {"rating": 3.5, "review_count": 41, "name": "Las Maravillas de Mexico Restaurant", "transactions": ["delivery", "pickup"], "url": "https://www.yelp.com/biz/las-maravillas-de-mexico-restaurant-bronx?adjust_creative=yhLoLzsNXKw40xZ5RCWPpA&utm_campaign=yelp_api_v3&utm_medium=api_v3_business_search&utm_source=yhLoLzsNXKw40xZ5RCWPpA", "price": "$$", "distance": 2949.1291352617, "coordinates": {"latitude": 40.87329, "longitude": -73.88896}, "alias": "las-maravillas-de-mexico-restaurant-bronx", "image_url": "https://s3-media1.fl.yelpcdn.com/bphoto/2WcL5G1tDnjGj7knI29FfA/o.jpg", "categories": [{"alias": "mexican", "title": "Mexican"}, {"alias": "beerbar", "title": "Beer Bar"}], "display_phone": "(718) 584-3455", "phone": "+17185843455", "id": "wVJHWi2QyewBOotVbwNGUg", "is_closed": false, "location": {"city": "Bronx", "display_address": ["11 Bedford Park Blvd E", "Bronx, NY 10468"], "country": "US", "address2": "", "address3": "", "state": "NY", "address1": "11 Bedford Park Blvd E", "zip_code": "10468"}}, {"rating": 4.5, "review_count": 11, "name": "Tortoise & Hare", "transactions": [], "url": "https://www.yelp.com/biz/tortoise-and-hare-bronx?adjust_creative=yhLoLzsNXKw40xZ5RCWPpA&utm_campaign=yelp_api_v3&utm_medium=api_v3_business_search&utm_source=yhLoLzsNXKw40xZ5RCWPpA", "distance": 2980.924233222603, "coordinates": {"latitude": 40.89415, "longitude": -73.89668}, "alias": "tortoise-and-hare-bronx", "image_url": "https://s3-media2.fl.yelpcdn.com/bphoto/dBPgEy35ctYxOpf9-534cQ/o.jpg", "categories": [{"alias": "bars", "title": "Bars"}, {"alias": "tradamerican", "title": "American (Traditional)"}, {"alias": "bbq", "title": "Barbeque"}], "display_phone": "(347) 843-7868", "phone": "+13478437868", "id": "u4bpvrR8_YL1MQgEThd8mA", "is_closed": false, "location": {"city": "Bronx", "display_address": ["6115 Broadway", "Bronx, NY 10471"], "country": "US", "address2": "", "address3": null, "state": "NY", "address1": "6115 Broadway", "zip_code": "10471"}}, {"rating": 5.0, "review_count": 1, "name": "The Garage", "transactions": [], "url": "https://www.yelp.com/biz/the-garage-east-bronx?adjust_creative=yhLoLzsNXKw40xZ5RCWPpA&utm_campaign=yelp_api_v3&utm_medium=api_v3_business_search&utm_source=yhLoLzsNXKw40xZ5RCWPpA", "distance": 2994.978336867874, "coordinates": {"latitude": 40.8822033522898, "longitude": -73.8275430778177}, "alias": "the-garage-east-bronx", "image_url": "https://s3-media3.fl.yelpcdn.com/bphoto/DGiungOqZn7xKVzhPPzaXQ/o.jpg", "categories": [{"alias": "clubcrawl", "title": "Club Crawl"}], "display_phone": "(718) 231-7091", "phone": "+17182317091", "id": "odydrN7tewTB2Q1FDBLMnA", "is_closed": false, "location": {"city": "East Bronx", "display_address": ["2260 Tillotson Ave", "East Bronx, NY 10475"], "country": "US", "address2": "", "address3": "", "state": "NY", "address1": "2260 Tillotson Ave", "zip_code": "10475"}}, {"rating": 2.0, "review_count": 38, "name": "El Sabor Latino", "transactions": ["delivery", "pickup"], "url": "https://www.yelp.com/biz/el-sabor-latino-bronx?adjust_creative=yhLoLzsNXKw40xZ5RCWPpA&utm_campaign=yelp_api_v3&utm_medium=api_v3_business_search&utm_source=yhLoLzsNXKw40xZ5RCWPpA", "price": "$$", "distance": 3005.399008711603, "coordinates": {"latitude": 40.87294, "longitude": -73.88936}, "alias": "el-sabor-latino-bronx", "image_url": "https://s3-media1.fl.yelpcdn.com/bphoto/ISdkOk01weCARLg5O9XdZA/o.jpg", "categories": [{"alias": "sportsbars", "title": "Sports Bars"}, {"alias": "mexican", "title": "Mexican"}], "display_phone": "(718) 484-4436", "phone": "+17184844436", "id": "UzTch43C4FXRIvI9bTRZrg", "is_closed": false, "location": {"city": "Bronx", "display_address": ["2968 Jerome Ave", "Bronx, NY 10468"], "country": "US", "address2": "", "address3": null, "state": "NY", "address1": "2968 Jerome Ave", "zip_code": "10468"}}, {"rating": 3.5, "review_count": 7, "name": "O'Shea's Emerald Bar", "transactions": [], "url": "https://www.yelp.com/biz/o-sheas-emerald-bar-bronx?adjust_creative=yhLoLzsNXKw40xZ5RCWPpA&utm_campaign=yelp_api_v3&utm_medium=api_v3_business_search&utm_source=yhLoLzsNXKw40xZ5RCWPpA", "price": "$", "distance": 3026.4955249786835, "coordinates": {"latitude": 40.87272, "longitude": -73.88946}, "alias": "o-sheas-emerald-bar-bronx", "image_url": "", "categories": [{"alias": "restaurants", "title": "Restaurants"}, {"alias": "bars", "title": "Bars"}], "display_phone": "(718) 364-9924", "phone": "+17183649924", "id": "EtwCZgiwvhEVckQWVhwj2g", "is_closed": false, "location": {"city": "Bronx", "display_address": ["2960 Jerome Ave", "Bronx, NY 10468"], "country": "US", "address2": "", "address3": "", "state": "NY", "address1": "2960 Jerome Ave", "zip_code": "10468"}}, {"rating": 3.5, "review_count": 78, "name": "Santa Fe Grill & Bar", "transactions": ["delivery", "pickup"], "url": "https://www.yelp.com/biz/santa-fe-grill-and-bar-bronx?adjust_creative=yhLoLzsNXKw40xZ5RCWPpA&utm_campaign=yelp_api_v3&utm_medium=api_v3_business_search&utm_source=yhLoLzsNXKw40xZ5RCWPpA", "price": "$$", "distance": 3039.791633474001, "coordinates": {"latitude": 40.891321, "longitude": -73.8977337}, "alias": "santa-fe-grill-and-bar-bronx", "image_url": "https://s3-media1.fl.yelpcdn.com/bphoto/xfDHZLL8GR1myIBsWrrlWQ/o.jpg", "categories": [{"alias": "mexican", "title": "Mexican"}, {"alias": "bars", "title": "Bars"}], "display_phone": "(718) 796-5095", "phone": "+17187965095", "id": "j1lE04LqafT-t42AxhC-MQ", "is_closed": false, "location": {"city": "Bronx", "display_address": ["6025 Broadway", "Bronx, NY 10471"], "country": "US", "address2": "", "address3": "", "state": "NY", "address1": "6025 Broadway", "zip_code": "10471"}}, {"rating": 5.0, "review_count": 1, "name": "Veterans of Foreign Wars Post 3083", "transactions": [], "url": "https://www.yelp.com/biz/veterans-of-foreign-wars-post-3083-yonkers?adjust_creative=yhLoLzsNXKw40xZ5RCWPpA&utm_campaign=yelp_api_v3&utm_medium=api_v3_business_search&utm_source=yhLoLzsNXKw40xZ5RCWPpA", "distance": 3040.104628756146, "coordinates": {"latitude": 40.9095239639282, "longitude": -73.8872817903757}, "alias": "veterans-of-foreign-wars-post-3083-yonkers", "image_url": "https://s3-media4.fl.yelpcdn.com/bphoto/riMv9eqHRqaMuUnNk9bvLw/o.jpg", "categories": [{"alias": "bars", "title": "Bars"}], "display_phone": "(914) 964-6993", "phone": "+19149646993", "id": "iU9UPlo1WrJqf1WYzyVZwQ", "is_closed": false, "location": {"city": "Yonkers", "display_address": ["363 McLean Ave", "Yonkers, NY 10705"], "country": "US", "address2": "", "address3": "", "state": "NY", "address1": "363 McLean Ave", "zip_code": "10705"}}, {"rating": 3.5, "review_count": 20, "name": "Rulay Lounge Bar & Restaurant", "transactions": ["delivery", "pickup", "restaurant_reservation"], "url": "https://www.yelp.com/biz/rulay-lounge-bar-and-restaurant-bronx-2?adjust_creative=yhLoLzsNXKw40xZ5RCWPpA&utm_campaign=yelp_api_v3&utm_medium=api_v3_business_search&utm_source=yhLoLzsNXKw40xZ5RCWPpA", "price": "$$", "distance": 3070.3564433496854, "coordinates": {"latitude": 40.86773, "longitude": -73.88317}, "alias": "rulay-lounge-bar-and-restaurant-bronx-2", "image_url": "https://s3-media4.fl.yelpcdn.com/bphoto/t-mZ9xDszALXd1bqmjrhrg/o.jpg", "categories": [{"alias": "lounges", "title": "Lounges"}], "display_phone": "(929) 265-9357", "phone": "+19292659357", "id": "Pbd16Ur3N0iBCmg2khZVZQ", "is_closed": false, "location": {"city": "Bronx", "display_address": ["2959 Webster Ave", "Bronx, NY 10458"], "country": "US", "address2": null, "address3": "", "state": "NY", "address1": "2959 Webster Ave", "zip_code": "10458"}}, {"rating": 4.5, "review_count": 6, "name": "Blvd Bar & Lounge", "transactions": [], "url": "https://www.yelp.com/biz/blvd-bar-and-lounge-mount-vernon?adjust_creative=yhLoLzsNXKw40xZ5RCWPpA&utm_campaign=yelp_api_v3&utm_medium=api_v3_business_search&utm_source=yhLoLzsNXKw40xZ5RCWPpA", "price": "$", "distance": 3095.6993643980545, "coordinates": {"latitude": 40.9006736535719, "longitude": -73.8276263114086}, "alias": "blvd-bar-and-lounge-mount-vernon", "image_url": "https://s3-media3.fl.yelpcdn.com/bphoto/mMtjwLBW419ShgLf2Qzm3Q/o.jpg", "categories": [{"alias": "lounges", "title": "Lounges"}, {"alias": "venues", "title": "Venues & Event Spaces"}], "display_phone": "(914) 863-0041", "phone": "+19148630041", "id": "eSfVT0dE6AGVYPQSPyiYQw", "is_closed": false, "location": {"city": "Mount Vernon", "display_address": ["472 Franklin Ave", "Mount Vernon, NY 10553"], "country": "US", "address2": "", "address3": null, "state": "NY", "address1": "472 Franklin Ave", "zip_code": "10553"}}, {"rating": 3.5, "review_count": 24, "name": "Jolly Tinker", "transactions": [], "url": "https://www.yelp.com/biz/jolly-tinker-bronx?adjust_creative=yhLoLzsNXKw40xZ5RCWPpA&utm_campaign=yelp_api_v3&utm_medium=api_v3_business_search&utm_source=yhLoLzsNXKw40xZ5RCWPpA", "price": "$", "distance": 3102.206977669829, "coordinates": {"latitude": 40.867552, "longitude": -73.883549}, "alias": "jolly-tinker-bronx", "image_url": "https://s3-media2.fl.yelpcdn.com/bphoto/rFKYnhvEpT7ezw95JwuPqg/o.jpg", "categories": [{"alias": "bars", "title": "Bars"}, {"alias": "poolhalls", "title": "Pool Halls"}, {"alias": "tradamerican", "title": "American (Traditional)"}], "display_phone": "(347) 726-5644", "phone": "+13477265644", "id": "gR2s7NF9o6LHAkVaEkEOnw", "is_closed": false, "location": {"city": "Bronx", "display_address": ["2875 Webster Ave", "Bronx, NY 10458"], "country": "US", "address2": "", "address3": "", "state": "NY", "address1": "2875 Webster Ave", "zip_code": "10458"}}, {"rating": 5.0, "review_count": 14, "name": "The Last Stop", "transactions": [], "url": "https://www.yelp.com/biz/the-last-stop-bronx?adjust_creative=yhLoLzsNXKw40xZ5RCWPpA&utm_campaign=yelp_api_v3&utm_medium=api_v3_business_search&utm_source=yhLoLzsNXKw40xZ5RCWPpA", "distance": 3107.9709152079304, "coordinates": {"latitude": 40.88976, "longitude": -73.89854}, "alias": "the-last-stop-bronx", "image_url": "https://s3-media2.fl.yelpcdn.com/bphoto/xOlrrDb013FsLjyfIPqzUw/o.jpg", "categories": [{"alias": "bars", "title": "Bars"}, {"alias": "tradamerican", "title": "American (Traditional)"}, {"alias": "indpak", "title": "Indian"}], "display_phone": "", "phone": "", "id": "RXGa5YeRxilvUQFmbFPopQ", "is_closed": false, "location": {"city": "Bronx", "display_address": ["5977 Broadway", "Bronx, NY 10471"], "country": "US", "address2": "", "address3": null, "state": "NY", "address1": "5977 Broadway", "zip_code": "10471"}}]}