{"region": {"center": {"latitude": 40.8509818202, "longitude": -73.8159189188}}, "total": 290, "businesses": [{"rating": 3.5, "review_count": 83, "name": "Illusions Hookah & Mixology Lounge", "transactions": [], "url": "https://www.yelp.com/biz/illusions-hookah-and-mixology-lounge-bronx?adjust_creative=yhLoLzsNXKw40xZ5RCWPpA&utm_campaign=yelp_api_v3&utm_medium=api_v3_business_search&utm_source=yhLoLzsNXKw40xZ5RCWPpA", "price": "$$", "distance": 1109.2885399039762, "coordinates": {"latitude": 40.8522129, "longitude": -73.8290069}, "alias": "illusions-hookah-and-mixology-lounge-bronx", "image_url": "https://s3-media1.fl.yelpcdn.com/bphoto/C4emY32GDusdMCybR6NmpQ/o.jpg", "categories": [{"alias": "hookah_bars", "title": "Hookah Bars"}, {"alias": "cocktailbars", "title": "Cocktail Bars"}], "display_phone": "(929) 855-0156", "phone": "+19298550156", "id": "QA0FUxP1US5LIyf2tG5KUw", "is_closed": false, "location": {"city": "Bronx", "display_address": ["3229 Westchester Ave", "Bronx, NY 10461"], "country": "US", "address2": null, "address3": null, "state": "NY", "address1": "3229 Westchester Ave", "zip_code": "10461"}}, {"rating": 3.5, "review_count": 7, "name": "Vivienne's", "transactions": [], "url": "https://www.yelp.com/biz/viviennes-bronx?adjust_creative=yhLoLzsNXKw40xZ5RCWPpA&utm_campaign=yelp_api_v3&utm_medium=api_v3_business_search&utm_source=yhLoLzsNXKw40xZ5RCWPpA", "distance": 1316.7099391224451, "coordinates": {"latitude": 40.84796, "longitude": -73.83104}, "alias": "viviennes-bronx", "image_url": "https://s3-media1.fl.yelpcdn.com/bphoto/T0avMD8N_ZB8eAiapACcHg/o.jpg", "categories": [{"alias": "bars", "title": "Bars"}], "display_phone": "(718) 829-0218", "phone": "+17188290218", "id": "M0PQzqbg_PR51Y9YpXyBnw", "is_closed": false, "location": {"city": "Bronx", "display_address": ["3044 Westchester Ave", "Bronx, NY 10461"], "country": "US", "address2": "", "address3": "", "state": "NY", "address1": "3044 Westchester Ave", "zip_code": "10461"}}, {"rating": 3.0, "review_count": 33, "name": "Jimmy Ryan's", "transactions": ["delivery", "pickup"], "url": "https://www.yelp.com/biz/jimmy-ryans-bronx?adjust_creative=yhLoLzsNXKw40xZ5RCWPpA&utm_campaign=yelp_api_v3&utm_medium=api_v3_business_search&utm_source=yhLoLzsNXKw40xZ5RCWPpA", "price": "$$", "distance": 1422.4847492648767, "coordinates": {"latitude": 40.84416, "longitude": -73.83023}, "alias": "jimmy-ryans-bronx", "image_url": "https://s3-media3.fl.yelpcdn.com/bphoto/kG4wVgqrZJ-2s1eOtJk6JQ/o.jpg", "categories": [{"alias": "pubs", "title": "Pubs"}, {"alias": "irish", "title": "Irish"}], "display_phone": "(718) 863-5687", "phone": "+17188635687", "id": "EQxD4-euHR7SZFDH5qDlUA", "is_closed": false, "location": {"city": "Bronx", "display_address": ["3005 Middletown Rd", "Bronx, NY 10461"], "country": "US", "address2": "", "address3": "", "state": "NY", "address1": "3005 Middletown Rd", "zip_code": "10461"}}, {"rating": 5.0, "review_count": 9, "name": "Bases Loaded", "transactions": [], "url": "https://www.yelp.com/biz/bases-loaded-bronx?adjust_creative=yhLoLzsNXKw40xZ5RCWPpA&utm_campaign=yelp_api_v3&utm_medium=api_v3_business_search&utm_source=yhLoLzsNXKw40xZ5RCWPpA", "price": "$$", "distance": 1441.9990813005136, "coordinates": {"latitude": 40.8471281308493, "longitude": -73.8322883325248}, "alias": "bases-loaded-bronx", "image_url": "https://s3-media3.fl.yelpcdn.com/bphoto/p8qjotPjT1w78dY5k1cykA/o.jpg", "categories": [{"alias": "sportsbars", "title": "Sports Bars"}], "display_phone": "(718) 828-8071", "phone": "+17188288071", "id": "1at1CAz-O171bJkmZ_1EaA", "is_closed": false, "location": {"city": "Bronx", "display_address": ["2997 Westchester Ave", "Bronx, NY 10461"], "country": "US", "address2": "", "address3": "", "state": "NY", "address1": "2997 Westchester Ave", "zip_code": "10461"}}, {"rating": 4.5, "review_count": 23, "name": "Shamrock Inn", "transactions": [], "url": "https://www.yelp.com/biz/shamrock-inn-bronx?adjust_creative=yhLoLzsNXKw40xZ5RCWPpA&utm_campaign=yelp_api_v3&utm_medium=api_v3_business_search&utm_source=yhLoLzsNXKw40xZ5RCWPpA", "price": "$$", "distance": 1455.4279456673398, "coordinates": {"latitude": 40.846061, "longitude": -73.83197}, "alias": "shamrock-inn-bronx", "image_url": "https://s3-media2.fl.yelpcdn.com/bphoto/g-7fNrwyeLDREish4rr3tg/o.jpg", "categories": [{"alias": "newamerican", "title": "American (New)"}, {"alias": "bars", "title": "Bars"}], "display_phone": "(718) 822-8889", "phone": "+17188228889", "id": "HDegrDsHGHqwkb8zg9joWQ", "is_closed": false, "location": {"city": "Bronx", "display_address": ["1729 Crosby Ave", "Bronx, NY 10461"], "country": "US", "address2": "", "address3": "", "state": "NY", "address1": "1729 Crosby Ave", "zip_code": "10461"}}, {"rating": 1.5, "review_count": 150, "name": "Applebee's Grill + Bar", "transactions": [], "url": "https://www.yelp.com/biz/applebees-grill-bar-bronx?adjust_creative=yhLoLzsNXKw40xZ5RCWPpA&utm_campaign=yelp_api_v3&utm_medium=api_v3_business_search&utm_source=yhLoLzsNXKw40xZ5RCWPpA", "price": "$$", "distance": 1902.8944097843982, "coordinates": {"latitude": 40.8661296288215, "longitude": -73.826447}, "alias": "applebees-grill-bar-bronx", "image_url": "https://s3-media2.fl.yelpcdn.com/bphoto/PMGOlDRIYu90N5n0NilgcA/o.jpg", "categories": [{"alias": "tradamerican", "title": "American (Traditional)"}, {"alias": "sportsbars", "title": "Sports Bars"}, {"alias": "burgers", "title": "Burgers"}], "display_phone": "(718) 320-4227", "phone": "+17183204227", "id": "1klTUZoUybdXasb5Ea0pPA", "is_closed": false, "location": {"city": "Bronx", "display_address": ["2276 Bartow Ave", "Bronx, NY 10475"], "country": "US", "address2": "", "address3": "", "state": "NY", "address1": "2276 Bartow Ave", "zip_code": "10475"}}, {"rating": 3.5, "review_count": 217, "name": "Made In Puerto Rico Latin Cuisine", "transactions": ["delivery", "pickup"], "url": "https://www.yelp.com/biz/made-in-pr-latin-cuisine-and-sports-bar-bronx?adjust_creative=yhLoLzsNXKw40xZ5RCWPpA&utm_campaign=yelp_api_v3&utm_medium=api_v3_business_search&utm_source=yhLoLzsNXKw40xZ5RCWPpA", "price": "$$", "distance": 2136.5684924178586, "coordinates": {"latitude": 40.83451, "longitude": -73.82907}, "alias": "made-in-pr-latin-cuisine-and-sports-bar-bronx", "image_url": "https://s3-media1.fl.yelpcdn.com/bphoto/9YIa28m-8dkDoLIQLhxWUQ/o.jpg", "categories": [{"alias": "sportsbars", "title": "Sports Bars"}, {"alias": "latin", "title": "Latin American"}, {"alias": "caribbean", "title": "Caribbean"}], "display_phone": "(718) 684-1309", "phone": "+17186841309", "id": "CKzqUwRmUMNJqaVu-zUB4A", "is_closed": false, "location": {"city": "Bronx", "display_address": ["3363 E Tremont Ave", "Bronx, NY 10461"], "country": "US", "address2": null, "address3": "", "state": "NY", "address1": "3363 E Tremont Ave", "zip_code": "10461"}}, {"rating": 2.5, "review_count": 265, "name": "Mamajuana Cafe The Bronx", "transactions": [], "url": "https://www.yelp.com/biz/mamajuana-cafe-the-bronx-bronx?adjust_creative=yhLoLzsNXKw40xZ5RCWPpA&utm_campaign=yelp_api_v3&utm_medium=api_v3_business_search&utm_source=yhLoLzsNXKw40xZ5RCWPpA", "price": "$$", "distance": 2202.3822321733483, "coordinates": {"latitude": 40.8357557, "longitude": -73.8329151}, "alias": "mamajuana-cafe-the-bronx-bronx", "image_url": "https://s3-media4.fl.yelpcdn.com/bphoto/uCciqpanAt4GuAQM7Hx_dA/o.jpg", "categories": [{"alias": "latin", "title": "Latin American"}, {"alias": "wine_bars", "title": "Wine Bars"}], "display_phone": "(718) 824-8400", "phone": "+17188248400", "id": "-5JwknVLIT36YTGhvkuBaw", "is_closed": false, "location": {"city": "Bronx", "display_address": ["3233 E Tremont Ave", "Bronx, NY 10461"], "country": "US", "address2": "", "address3": "", "state": "NY", "address1": "3233 E Tremont Ave", "zip_code": "10461"}}, {"rating": 3.5, "review_count": 27, "name": "P J Brady Tavern", "transactions": ["delivery", "pickup"], "url": "https://www.yelp.com/biz/p-j-brady-tavern-bronx?adjust_creative=yhLoLzsNXKw40xZ5RCWPpA&utm_campaign=yelp_api_v3&utm_medium=api_v3_business_search&utm_source=yhLoLzsNXKw40xZ5RCWPpA", "price": "$$", "distance": 2249.7872016249526, "coordinates": {"latitude": 40.830814, "longitude": -73.818092}, "alias": "p-j-brady-tavern-bronx", "image_url": "https://s3-media2.fl.yelpcdn.com/bphoto/_3hXR_qrFzk94yEKbeJ3Dg/o.jpg", "categories": [{"alias": "tradamerican", "title": "American (Traditional)"}, {"alias": "bars", "title": "Bars"}], "display_phone": "(718) 931-3250", "phone": "+17189313250", "id": "YQntgG4eTn3DBX2wq9nT5w", "is_closed": false, "location": {"city": "Bronx", "display_address": ["3201 Philip Ave", "Bronx, NY 10465"], "country": "US", "address2": "", "address3": "", "state": "NY", "address1": "3201 Philip Ave", "zip_code": "10465"}}, {"rating": 2.5, "review_count": 73, "name": "Applebee's Grill + Bar", "transactions": ["pickup"], "url": "https://www.yelp.com/biz/applebees-grill-bar-bronx-6?adjust_creative=yhLoLzsNXKw40xZ5RCWPpA&utm_campaign=yelp_api_v3&utm_medium=api_v3_business_search&utm_source=yhLoLzsNXKw40xZ5RCWPpA", "price": "$$", "distance": 2249.783988525425, "coordinates": {"latitude": 40.849594, "longitude": -73.842604}, "alias": "applebees-grill-bar-bronx-6", "image_url": "https://s3-media3.fl.yelpcdn.com/bphoto/XQRO30tlndhtRtqivlQ8-A/o.jpg", "categories": [{"alias": "sportsbars", "title": "Sports Bars"}, {"alias": "burgers", "title": "Burgers"}, {"alias": "tradamerican", "title": "American (Traditional)"}], "display_phone": "(718) 792-5000", "phone": "+17187925000", "id": "DRuMYb2eL4t8UPopUbUkXA", "is_closed": false, "location": {"city": "Bronx", "display_address": ["1776 Eastchester Rd", "Bronx, NY 10461"], "country": "US", "address2": "", "address3": "", "state": "NY", "address1": "1776 Eastchester Rd", "zip_code": "10461"}}, {"rating": 4.0, "review_count": 21, "name": "Skyline Bar", "transactions": [], "url": "https://www.yelp.com/biz/skyline-bar-new-york?adjust_creative=yhLoLzsNXKw40xZ5RCWPpA&utm_campaign=yelp_api_v3&utm_medium=api_v3_business_search&utm_source=yhLoLzsNXKw40xZ5RCWPpA", "price": "$$", "distance": 2252.777935720534, "coordinates": {"latitude": 40.85291, "longitude": -73.842569}, "alias": "skyline-bar-new-york", "image_url": "https://s3-media2.fl.yelpcdn.com/bphoto/LSR0baLHbSqeP9aCoYwkMA/o.jpg", "categories": [{"alias": "lounges", "title": "Lounges"}], "display_phone": "(718) 822-8208", "phone": "+17188228208", "id": "I1eOFHPwaCe69-5TevFb6g", "is_closed": false, "location": {"city": "New York", "display_address": ["1511 Wilkinson Ave", "New York, NY 10461"], "country": "US", "address2": "", "address3": "", "state": "NY", "address1": "1511 Wilkinson Ave", "zip_code": "10461"}}, {"rating": 4.5, "review_count": 11, "name": "Fella's", "transactions": [], "url": "https://www.yelp.com/biz/fellas-bronx?adjust_creative=yhLoLzsNXKw40xZ5RCWPpA&utm_campaign=yelp_api_v3&utm_medium=api_v3_business_search&utm_source=yhLoLzsNXKw40xZ5RCWPpA", "price": "$", "distance": 2256.043102270437, "coordinates": {"latitude": 40.85264, "longitude": -73.78917}, "alias": "fellas-bronx", "image_url": "https://s3-media2.fl.yelpcdn.com/bphoto/zNjRhQCFX4Nm52pA9LszlQ/o.jpg", "categories": [{"alias": "bars", "title": "Bars"}, {"alias": "tradamerican", "title": "American (Traditional)"}], "display_phone": "(718) 885-9898", "phone": "+17188859898", "id": "574PAXAD7qCHXqSAaz9wTg", "is_closed": false, "location": {"city": "Bronx", "display_address": ["522 City Island Ave", "Bronx, NY 10464"], "country": "US", "address2": "", "address3": "", "state": "NY", "address1": "522 City Island Ave", "zip_code": "10464"}}, {"rating": 3.5, "review_count": 116, "name": "Ohana", "transactions": [], "url": "https://www.yelp.com/biz/ohana-bronx?adjust_creative=yhLoLzsNXKw40xZ5RCWPpA&utm_campaign=yelp_api_v3&utm_medium=api_v3_business_search&utm_source=yhLoLzsNXKw40xZ5RCWPpA", "price": "$$", "distance": 2288.7756378311933, "coordinates": {"latitude": 40.85233, "longitude": -73.78896}, "alias": "ohana-bronx", "image_url": "https://s3-media2.fl.yelpcdn.com/bphoto/jRlQ9Ehkvy-HevJhBgQ73Q/o.jpg", "categories": [{"alias": "japanese", "title": "Japanese"}, {"alias": "wine_bars", "title": "Wine Bars"}], "display_phone": "(718) 885-0700", "phone": "+17188850700", "id": "YDcm61sM_BP_FKmFLgoPAw", "is_closed": false, "location": {"city": "Bronx", "display_address": ["500 City Island Ave", "Bronx, NY 10464"], "country": "US", "address2": "", "address3": "", "state": "NY", "address1": "500 City Island Ave", "zip_code": "10464"}}, {"rating": 4.0, "review_count": 14, "name": "Legendary Bar & Grill", "transactions": ["delivery", "pickup"], "url": "https://www.yelp.com/biz/legendary-bar-and-grill-bronx-2?adjust_creative=yhLoLzsNXKw40xZ5RCWPpA&utm_campaign=yelp_api_v3&utm_medium=api_v3_business_search&utm_source=yhLoLzsNXKw40xZ5RCWPpA", "price": "$$", "distance": 2386.516633920589, "coordinates": {"latitude": 40.83094, "longitude": -73.82621}, "alias": "legendary-bar-and-grill-bronx-2", "image_url": "https://s3-media1.fl.yelpcdn.com/bphoto/vLqGS3Al4Yw3Qv5sjRTs-g/o.jpg", "categories": [{"alias": "bars", "title": "Bars"}, {"alias": "italian", "title": "Italian"}, {"alias": "burgers", "title": "Burgers"}], "display_phone": "(718) 822-0100", "phone": "+17188220100", "id": "UreNbgX-UuIs_uzoC2-9BQ", "is_closed": false, "location": {"city": "Bronx", "display_address": ["3513 E Tremont Ave", "Bronx, NY 10465"], "country": "US", "address2": "", "address3": "", "state": "NY", "address1": "3513 E Tremont Ave", "zip_code": "10465"}}, {"rating": 3.0, "review_count": 362, "name": "Pine Bar & Grill", "transactions": [], "url": "https://www.yelp.com/biz/pine-bar-and-grill-bronx?adjust_creative=yhLoLzsNXKw40xZ5RCWPpA&utm_campaign=yelp_api_v3&utm_medium=api_v3_business_search&utm_source=yhLoLzsNXKw40xZ5RCWPpA", "price": "$$", "distance": 2524.931895067377, "coordinates": {"latitude": 40.845142364502, "longitude": -73.8448638916016}, "alias": "pine-bar-and-grill-bronx", "image_url": "https://s3-media1.fl.yelpcdn.com/bphoto/vLo153euG9qJaI9F78toPg/o.jpg", "categories": [{"alias": "newamerican", "title": "American (New)"}, {"alias": "bars", "title": "Bars"}, {"alias": "italian", "title": "Italian"}], "display_phone": "(718) 319-0900", "phone": "+17183190900", "id": "Km_hSBftgdYcGL1TzZnwlQ", "is_closed": false, "location": {"city": "Bronx", "display_address": ["1634 Eastchester Rd", "Bronx, NY 10461"], "country": "US", "address2": "", "address3": "", "state": "NY", "address1": "1634 Eastchester Rd", "zip_code": "10461"}}, {"rating": 4.0, "review_count": 27, "name": "The Snug", "transactions": [], "url": "https://www.yelp.com/biz/the-snug-city-island?adjust_creative=yhLoLzsNXKw40xZ5RCWPpA&utm_campaign=yelp_api_v3&utm_medium=api_v3_business_search&utm_source=yhLoLzsNXKw40xZ5RCWPpA", "price": "$$", "distance": 2537.1452888133686, "coordinates": {"latitude": 40.847187, "longitude": -73.78617}, "alias": "the-snug-city-island", "image_url": "https://s3-media3.fl.yelpcdn.com/bphoto/R_ZJakFyJL668y1ljetS1Q/o.jpg", "categories": [{"alias": "pubs", "title": "Pubs"}, {"alias": "tradamerican", "title": "American (Traditional)"}], "display_phone": "(718) 885-9559", "phone": "+17188859559", "id": "L1FHDJoEJq42x2NJNA3mng", "is_closed": false, "location": {"city": "City Island", "display_address": ["302 City Island Ave", "City Island, NY 10464"], "country": "US", "address2": "", "address3": "", "state": "NY", "address1": "302 City Island Ave", "zip_code": "10464"}}, {"rating": 3.5, "review_count": 5, "name": "Paddys On the Island", "transactions": [], "url": "https://www.yelp.com/biz/paddys-on-the-island-bronx?adjust_creative=yhLoLzsNXKw40xZ5RCWPpA&utm_campaign=yelp_api_v3&utm_medium=api_v3_business_search&utm_source=yhLoLzsNXKw40xZ5RCWPpA", "distance": 2541.4840481692054, "coordinates": {"latitude": 40.8468513383376, "longitude": -73.7862008829226}, "alias": "paddys-on-the-island-bronx", "image_url": "https://s3-media2.fl.yelpcdn.com/bphoto/ysEdQpi0KG5m2oqJAfuSvQ/o.jpg", "categories": [{"alias": "pubs", "title": "Pubs"}, {"alias": "tradamerican", "title": "American (Traditional)"}], "display_phone": "(718) 885-1813", "phone": "+17188851813", "id": "-61FruPHCxBgmRk6nx1h1Q", "is_closed": false, "location": {"city": "Bronx", "display_address": ["288 City Island Ave", "Bronx, NY 10464"], "country": "US", "address2": "", "address3": null, "state": "NY", "address1": "288 City Island Ave", "zip_code": "10464"}}, {"rating": 4.0, "review_count": 68, "name": "Casa Restaurant & Lounge", "transactions": [], "url": "https://www.yelp.com/biz/casa-restaurant-and-lounge-bronx?adjust_creative=yhLoLzsNXKw40xZ5RCWPpA&utm_campaign=yelp_api_v3&utm_medium=api_v3_business_search&utm_source=yhLoLzsNXKw40xZ5RCWPpA", "price": "$$", "distance": 2545.32770697934, "coordinates": {"latitude": 40.82904, "longitude": -73.82429}, "alias": "casa-restaurant-and-lounge-bronx", "image_url": "https://s3-media2.fl.yelpcdn.com/bphoto/OG8YtjgF6gVVO4uDBn3GOw/o.jpg", "categories": [{"alias": "lounges", "title": "Lounges"}, {"alias": "latin", "title": "Latin American"}, {"alias": "breakfast_brunch", "title": "Breakfast & Brunch"}], "display_phone": "(718) 792-2272", "phone": "+17187922272", "id": "52kgzsOIYvXo2NPAZ369qg", "is_closed": false, "location": {"city": "Bronx", "display_address": ["3607 E Tremont Ave", "Bronx, NY 10465"], "country": "US", "address2": null, "address3": "", "state": "NY", "address1": "3607 E Tremont Ave", "zip_code": "10465"}}, {"rating": 3.5, "review_count": 7, "name": "City Island Yacht Club", "transactions": [], "url": "https://www.yelp.com/biz/city-island-yacht-club-bronx?adjust_creative=yhLoLzsNXKw40xZ5RCWPpA&utm_campaign=yelp_api_v3&utm_medium=api_v3_business_search&utm_source=yhLoLzsNXKw40xZ5RCWPpA", "distance": 2673.4265701629142, "coordinates": {"latitude": 40.84055, "longitude": -73.78809}, "alias": "city-island-yacht-club-bronx", "image_url": "https://s3-media2.fl.yelpcdn.com/bphoto/kWbhplBTzuaVKNn6zvcNMw/o.jpg", "categories": [{"alias": "newamerican", "title": "American (New)"}, {"alias": "cocktailbars", "title": "Cocktail Bars"}, {"alias": "buffets", "title": "Buffets"}], "display_phone": "(718) 885-2487", "phone": "+17188852487", "id": "W4F3Am05ihYPc2OIDd71xA", "is_closed": false, "location": {"city": "Bronx", "display_address": ["63 Pilot St", "Bronx, NY 10464"], "country": "US", "address2": "", "address3": "", "state": "NY", "address1": "63 Pilot St", "zip_code": "10464"}}, {"rating": 4.0, "review_count": 33, "name": "McDermott's Pub", "transactions": [], "url": "https://www.yelp.com/biz/mcdermotts-pub-bronx?adjust_creative=yhLoLzsNXKw40xZ5RCWPpA&utm_campaign=yelp_api_v3&utm_medium=api_v3_business_search&utm_source=yhLoLzsNXKw40xZ5RCWPpA", "price": "$$", "distance": 2713.8906458316455, "coordinates": {"latitude": 40.84276, "longitude": -73.84622}, "alias": "mcdermotts-pub-bronx", "image_url": "https://s3-media4.fl.yelpcdn.com/bphoto/XqZNgDg81YHXRi6WxFsZRw/o.jpg", "categories": [{"alias": "pubs", "title": "Pubs"}, {"alias": "chicken_wings", "title": "Chicken Wings"}], "display_phone": "(718) 792-4490", "phone": "+17187924490", "id": "tKIegplIoWexMQWqLgbnLw", "is_closed": false, "location": {"city": "Bronx", "display_address": ["2634 E Tremont Ave", "Bronx, NY 10461"], "country": "US", "address2": "", "address3": "", "state": "NY", "address1": "2634 E Tremont Ave", "zip_code": "10461"}}, {"rating": 3.0, "review_count": 2, "name": "Fay's Tavern", "transactions": [], "url": "https://www.yelp.com/biz/fays-tavern-bronx?adjust_creative=yhLoLzsNXKw40xZ5RCWPpA&utm_campaign=yelp_api_v3&utm_medium=api_v3_business_search&utm_source=yhLoLzsNXKw40xZ5RCWPpA", "distance": 2740.9135707114337, "coordinates": {"latitude": 40.84632, "longitude": -73.84798}, "alias": "fays-tavern-bronx", "image_url": "", "categories": [{"alias": "bars", "title": "Bars"}], "display_phone": "(718) 822-8430", "phone": "+17188228430", "id": "-WSlYxq9_v8Qqkifk59sFQ", "is_closed": false, "location": {"city": "Bronx", "display_address": ["1556 Williamsbridge Rd", "Bronx, NY 10461"], "country": "US", "address2": "", "address3": "", "state": "NY", "address1": "1556 Williamsbridge Rd", "zip_code": "10461"}}, {"rating": 3.5, "review_count": 61, "name": "Brewski's", "transactions": [], "url": "https://www.yelp.com/biz/brewskis-bronx?adjust_creative=yhLoLzsNXKw40xZ5RCWPpA&utm_campaign=yelp_api_v3&utm_medium=api_v3_business_search&utm_source=yhLoLzsNXKw40xZ5RCWPpA", "price": "$$", "distance": 2770.562071999094, "coordinates": {"latitude": 40.8265599, "longitude": -73.8224469}, "alias": "brewskis-bronx", "image_url": "https://s3-media1.fl.yelpcdn.com/bphoto/PtSP94td154VZNUXDGtn8A/o.jpg", "categories": [{"alias": "bars", "title": "Bars"}, {"alias": "newamerican", "title": "American (New)"}], "display_phone": "(718) 684-2900", "phone": "+17186842900", "id": "DmOxYVMsPfAhA3iXS15mJA", "is_closed": false, "location": {"city": "Bronx", "display_address": ["3718 E Tremont Ave", "Bronx, NY 10465"], "country": "US", "address2": "", "address3": "", "state": "NY", "address1": "3718 E Tremont Ave", "zip_code": "10465"}}, {"rating": 3.0, "review_count": 50, "name": "Vapor Lounge", "transactions": [], "url": "https://www.yelp.com/biz/vapor-lounge-bronx?adjust_creative=yhLoLzsNXKw40xZ5RCWPpA&utm_campaign=yelp_api_v3&utm_medium=api_v3_business_search&utm_source=yhLoLzsNXKw40xZ5RCWPpA", "price": "$$", "distance": 2810.7167915679747, "coordinates": {"latitude": 40.826004, "longitude": -73.8210477}, "alias": "vapor-lounge-bronx", "image_url": "https://s3-media1.fl.yelpcdn.com/bphoto/r0Sa3qNUbgc-1MsasXOsng/o.jpg", "categories": [{"alias": "hookah_bars", "title": "Hookah Bars"}, {"alias": "lounges", "title": "Lounges"}], "display_phone": "(347) 281-5995", "phone": "+13472815995", "id": "WlDM13mYhFX4xPV7e_z42Q", "is_closed": false, "location": {"city": "Bronx", "display_address": ["3758 E Tremont Ave", "Bronx, NY 10465"], "country": "US", "address2": null, "address3": "", "state": "NY", "address1": "3758 E Tremont Ave", "zip_code": "10465"}}, {"rating": 3.5, "review_count": 319, "name": "Cabo", "transactions": ["delivery", "pickup"], "url": "https://www.yelp.com/biz/cabo-bronx?adjust_creative=yhLoLzsNXKw40xZ5RCWPpA&utm_campaign=yelp_api_v3&utm_medium=api_v3_business_search&utm_source=yhLoLzsNXKw40xZ5RCWPpA", "price": "$$", "distance": 2847.0994479735905, "coordinates": {"latitude": 40.8257522583008, "longitude": -73.8216018676758}, "alias": "cabo-bronx", "image_url": "https://s3-media1.fl.yelpcdn.com/bphoto/4aFufUeXhlU2-lM4B2zxzw/o.jpg", "categories": [{"alias": "mexican", "title": "Mexican"}, {"alias": "lounges", "title": "Lounges"}], "display_phone": "(718) 863-0099", "phone": "+17188630099", "id": "9yTnfgbCENMZUUAlY1ym9g", "is_closed": false, "location": {"city": "Bronx", "display_address": ["3764 E Tremont Ave", "Bronx, NY 10465"], "country": "US", "address2": "", "address3": "", "state": "NY", "address1": "3764 E Tremont Ave", "zip_code": "10465"}}, {"rating": 2.5, "review_count": 51, "name": "Latin Kitchen", "transactions": [], "url": "https://www.yelp.com/biz/latin-kitchen-bronx?adjust_creative=yhLoLzsNXKw40xZ5RCWPpA&utm_campaign=yelp_api_v3&utm_medium=api_v3_business_search&utm_source=yhLoLzsNXKw40xZ5RCWPpA", "price": "$$", "distance": 2988.022913808992, "coordinates": {"latitude": 40.8244131, "longitude": -73.8200524}, "alias": "latin-kitchen-bronx", "image_url": "https://s3-media1.fl.yelpcdn.com/bphoto/-J2YuYzeR_HNPcrSAFep3w/o.jpg", "categories": [{"alias": "latin", "title": "Latin American"}, {"alias": "bars", "title": "Bars"}, {"alias": "puertorican", "title": "Puerto Rican"}], "display_phone": "(718) 892-5000", "phone": "+17188925000", "id": "iWqtZqPRdXicaqS9ViyXSQ", "is_closed": false, "location": {"city": "Bronx", "display_address": ["3841 E Tremont Ave", "Bronx, NY 10465"], "country": "US", "address2": "", "address3": "", "state": "NY", "address1": "3841 E Tremont Ave", "zip_code": "10465"}}, {"rating": 4.0, "review_count": 5, "name": "Alfie's Place", "transactions": [], "url": "https://www.yelp.com/biz/alfies-place-bronx-3?adjust_creative=yhLoLzsNXKw40xZ5RCWPpA&utm_campaign=yelp_api_v3&utm_medium=api_v3_business_search&utm_source=yhLoLzsNXKw40xZ5RCWPpA", "price": "$$", "distance": 3152.479302730942, "coordinates": {"latitude": 40.8227242, "longitude": -73.8187519}, "alias": "alfies-place-bronx-3", "image_url": "https://s3-media3.fl.yelpcdn.com/bphoto/MzfLIQ3XqyNBCBQHcjX3SQ/o.jpg", "categories": [{"alias": "divebars", "title": "Dive Bars"}, {"alias": "sportsbars", "title": "Sports Bars"}, {"alias": "musicvenues", "title": "Music Venues"}], "display_phone": "(718) 822-8672", "phone": "+17188228672", "id": "rzpkCcvGGQqDu3iUzl_IGQ", "is_closed": false, "location": {"city": "Bronx", "display_address": ["3037 Cross Bronx Expy", "Bronx, NY 10465"], "country": "US", "address2": null, "address3": null, "state": "NY", "address1": "3037 Cross Bronx Expy", "zip_code": "10465"}}, {"rating": 3.0, "review_count": 1, "name": "Parq Sports Bar & Grill", "transactions": ["delivery", "pickup"], "url": "https://www.yelp.com/biz/parq-sports-bar-and-grill-bronx?adjust_creative=yhLoLzsNXKw40xZ5RCWPpA&utm_campaign=yelp_api_v3&utm_medium=api_v3_business_search&utm_source=yhLoLzsNXKw40xZ5RCWPpA", "distance": 3398.948985007108, "coordinates": {"latitude": 40.8204451370688, "longitude": -73.8177331256238}, "alias": "parq-sports-bar-and-grill-bronx", "image_url": "https://s3-media1.fl.yelpcdn.com/bphoto/hOfdTELd0qf8xIxw1cM5Sw/o.jpg", "categories": [{"alias": "tradamerican", "title": "American (Traditional)"}, {"alias": "sportsbars", "title": "Sports Bars"}], "display_phone": "(718) 684-6053", "phone": "+17186846053", "id": "1mtektAKnXiiAMMovvd-iA", "is_closed": false, "location": {"city": "Bronx", "display_address": ["4001 E Tremont Ave", "Bronx, NY 10465"], "country": "US", "address2": "", "address3": null, "state": "NY", "address1": "4001 E Tremont Ave", "zip_code": "10465"}}, {"rating": 1.0, "review_count": 1, "name": "Cas Bar", "transactions": [], "url": "https://www.yelp.com/biz/cas-bar-bronx?adjust_creative=yhLoLzsNXKw40xZ5RCWPpA&utm_campaign=yelp_api_v3&utm_medium=api_v3_business_search&utm_source=yhLoLzsNXKw40xZ5RCWPpA", "distance": 3480.159813445112, "coordinates": {"latitude": 40.83541, "longitude": -73.85183}, "alias": "cas-bar-bronx", "image_url": "", "categories": [{"alias": "bars", "title": "Bars"}], "display_phone": "(718) 822-9596", "phone": "+17188229596", "id": "ICmTs3bEoeeVfohpSiqiAw", "is_closed": false, "location": {"city": "Bronx", "display_address": ["1362 Castle Hill Ave", "Bronx, NY 10462"], "country": "US", "address2": "", "address3": "", "state": "NY", "address1": "1362 Castle Hill Ave", "zip_code": "10462"}}, {"rating": 4.0, "review_count": 79, "name": "The Wicked Wolf", "transactions": [], "url": "https://www.yelp.com/biz/the-wicked-wolf-bronx?adjust_creative=yhLoLzsNXKw40xZ5RCWPpA&utm_campaign=yelp_api_v3&utm_medium=api_v3_business_search&utm_source=yhLoLzsNXKw40xZ5RCWPpA", "price": "$$", "distance": 3481.968351682918, "coordinates": {"latitude": 40.81967, "longitude": -73.81739}, "alias": "the-wicked-wolf-bronx", "image_url": "https://s3-media1.fl.yelpcdn.com/bphoto/MiO7YlE-xMwTKhZoaNh3mQ/o.jpg", "categories": [{"alias": "steak", "title": "Steakhouses"}, {"alias": "italian", "title": "Italian"}, {"alias": "irish_pubs", "title": "Irish Pub"}], "display_phone": "(718) 829-4400", "phone": "+17188294400", "id": "EkQAH2HOwl7NAW0YJD2bHQ", "is_closed": false, "location": {"city": "Bronx", "display_address": ["4029 E Tremont Ave", "Bronx, NY 10465"], "country": "US", "address2": "", "address3": "", "state": "NY", "address1": "4029 E Tremont Ave", "zip_code": "10465"}}, {"rating": 3.5, "review_count": 24, "name": "Code Red Restaurant & Lounge", "transactions": [], "url": "https://www.yelp.com/biz/code-red-restaurant-and-lounge-bronx-2?adjust_creative=yhLoLzsNXKw40xZ5RCWPpA&utm_campaign=yelp_api_v3&utm_medium=api_v3_business_search&utm_source=yhLoLzsNXKw40xZ5RCWPpA", "price": "$$", "distance": 3520.319501331144, "coordinates": {"latitude": 40.8712159053814, "longitude": -73.8481139653215}, "alias": "code-red-restaurant-and-lounge-bronx-2", "image_url": "https://s3-media2.fl.yelpcdn.com/bphoto/Ll1Bfhkv7WrZQtKDdgZRzQ/o.jpg", "categories": [{"alias": "caribbean", "title": "Caribbean"}, {"alias": "sportsbars", "title": "Sports Bars"}], "display_phone": "(718) 881-1808", "phone": "+17188811808", "id": "MfTOkwb0wfpKCN65OorMIw", "is_closed": false, "location": {"city": "Bronx", "display_address": ["1320 East Gun Hill Rd", "Bronx, NY 10469"], "country": "US", "address2": "", "address3": null, "state": "NY", "address1": "1320 East Gun Hill Rd", "zip_code": "10469"}}, {"rating": 1.5, "review_count": 3, "name": "Tosca Rooftop Garden Bar", "transactions": [], "url": "https://www.yelp.com/biz/tosca-rooftop-garden-bar-bronx?adjust_creative=yhLoLzsNXKw40xZ5RCWPpA&utm_campaign=yelp_api_v3&utm_medium=api_v3_business_search&utm_source=yhLoLzsNXKw40xZ5RCWPpA", "price": "$$", "distance": 3535.650753698083, "coordinates": {"latitude": 40.8192027, "longitude": -73.8173244}, "alias": "tosca-rooftop-garden-bar-bronx", "image_url": "https://s3-media4.fl.yelpcdn.com/bphoto/o_CXWVdVQIpLkRzlD1Rx9A/o.jpg", "categories": [{"alias": "italian", "title": "Italian"}, {"alias": "bars", "title": "Bars"}, {"alias": "tradamerican", "title": "American (Traditional)"}], "display_phone": "(718) 792-2233", "phone": "+17187922233", "id": "ge9G89uAuTvT4d8DbspJqQ", "is_closed": false, "location": {"city": "Bronx", "display_address": ["4036 E Tremont Ave", "Bronx, NY 10465"], "country": "US", "address2": null, "address3": "", "state": "NY", "address1": "4036 E Tremont Ave", "zip_code": "10465"}}, {"rating": 3.0, "review_count": 86, "name": "Applebee's Grill + Bar", "transactions": [], "url": "https://www.yelp.com/biz/applebees-grill-bar-bronx-5?adjust_creative=yhLoLzsNXKw40xZ5RCWPpA&utm_campaign=yelp_api_v3&utm_medium=api_v3_business_search&utm_source=yhLoLzsNXKw40xZ5RCWPpA", "price": "$$", "distance": 3540.404504224058, "coordinates": {"latitude": 40.82355, "longitude": -73.83742}, "alias": "applebees-grill-bar-bronx-5", "image_url": "https://s3-media3.fl.yelpcdn.com/bphoto/yL8cVxmec8NDjZGWxbQGEA/o.jpg", "categories": [{"alias": "tradamerican", "title": "American (Traditional)"}, {"alias": "sportsbars", "title": "Sports Bars"}, {"alias": "burgers", "title": "Burgers"}], "display_phone": "(718) 828-5379", "phone": "+17188285379", "id": "tnM37Gdwr5RaFkDRXBHavg", "is_closed": false, "location": {"city": "Bronx", "display_address": ["815 Hutchinson River Pkwy", "Bronx, NY 10465"], "country": "US", "address2": "", "address3": "", "state": "NY", "address1": "815 Hutchinson River Pkwy", "zip_code": "10465"}}, {"rating": 3.5, "review_count": 35, "name": "Melanie's Roti & Grill Restaurant", "transactions": ["delivery", "pickup"], "url": "https://www.yelp.com/biz/melanies-roti-and-grill-restaurant-bronx?adjust_creative=yhLoLzsNXKw40xZ5RCWPpA&utm_campaign=yelp_api_v3&utm_medium=api_v3_business_search&utm_source=yhLoLzsNXKw40xZ5RCWPpA", "price": "$$", "distance": 3552.085755379294, "coordinates": {"latitude": 40.8333, "longitude": -73.851045}, "alias": "melanies-roti-and-grill-restaurant-bronx", "image_url": "https://s3-media2.fl.yelpcdn.com/bphoto/R3FIxMjNjNtcTjDVV_WbRg/o.jpg", "categories": [{"alias": "bars", "title": "Bars"}, {"alias": "caribbean", "title": "Caribbean"}, {"alias": "indpak", "title": "Indian"}], "display_phone": "(718) 409-1088", "phone": "+17184091088", "id": "b_RZL-wE1PpH0nX9cv7twg", "is_closed": false, "location": {"city": "Bronx", "display_address": ["1248 Castle Hill Ave", "Bronx, NY 10462"], "country": "US", "address2": null, "address3": null, "state": "NY", "address1": "1248 Castle Hill Ave", "zip_code": "10462"}}, {"rating": 3.5, "review_count": 6, "name": "Bridges Bar", "transactions": [], "url": "https://www.yelp.com/biz/bridges-bar-bronx?adjust_creative=yhLoLzsNXKw40xZ5RCWPpA&utm_campaign=yelp_api_v3&utm_medium=api_v3_business_search&utm_source=yhLoLzsNXKw40xZ5RCWPpA", "price": "$$", "distance": 3582.155129088954, "coordinates": {"latitude": 40.81872, "longitude": -73.81728}, "alias": "bridges-bar-bronx", "image_url": "https://s3-media2.fl.yelpcdn.com/bphoto/fegXU9dilSrbvWjAkKQ1Mw/o.jpg", "categories": [{"alias": "bars", "title": "Bars"}], "display_phone": "(347) 398-9144", "phone": "+13473989144", "id": "7SQPQo4pF1ZHfdAr29FvGA", "is_closed": false, "location": {"city": "Bronx", "display_address": ["4100 E Tremont Ave", "Bronx, NY 10465"], "country": "US", "address2": null, "address3": null, "state": "NY", "address1": "4100 E Tremont Ave", "zip_code": "10465"}}, {"rating": 3.0, "review_count": 5, "name": "Blue Mist Hookah Lounge", "transactions": [], "url": "https://www.yelp.com/biz/blue-mist-hookah-lounge-bronx?adjust_creative=yhLoLzsNXKw40xZ5RCWPpA&utm_campaign=yelp_api_v3&utm_medium=api_v3_business_search&utm_source=yhLoLzsNXKw40xZ5RCWPpA", "distance": 3591.817411651252, "coordinates": {"latitude": 40.8340345677682, "longitude": -73.8522691298467}, "alias": "blue-mist-hookah-lounge-bronx", "image_url": "https://s3-media4.fl.yelpcdn.com/bphoto/6FotKeNNhWf1poim-jVKUA/o.jpg", "categories": [{"alias": "hookah_bars", "title": "Hookah Bars"}, {"alias": "mediterranean", "title": "Mediterranean"}, {"alias": "breakfast_brunch", "title": "Breakfast & Brunch"}], "display_phone": "", "phone": "", "id": "fu4_G-GaYQRjLYUYWT-13A", "is_closed": false, "location": {"city": "Bronx", "display_address": ["2166 Westchester Ave", "Bronx, NY 10462"], "country": "US", "address2": "", "address3": null, "state": "NY", "address1": "2166 Westchester Ave", "zip_code": "10462"}}, {"rating": 5.0, "review_count": 1, "name": "The Garage", "transactions": [], "url": "https://www.yelp.com/biz/the-garage-east-bronx?adjust_creative=yhLoLzsNXKw40xZ5RCWPpA&utm_campaign=yelp_api_v3&utm_medium=api_v3_business_search&utm_source=yhLoLzsNXKw40xZ5RCWPpA", "distance": 3606.6538940330806, "coordinates": {"latitude": 40.8822033522898, "longitude": -73.8275430778177}, "alias": "the-garage-east-bronx", "image_url": "https://s3-media3.fl.yelpcdn.com/bphoto/DGiungOqZn7xKVzhPPzaXQ/o.jpg", "categories": [{"alias": "clubcrawl", "title": "Club Crawl"}], "display_phone": "(718) 231-7091", "phone": "+17182317091", "id": "odydrN7tewTB2Q1FDBLMnA", "is_closed": false, "location": {"city": "East Bronx", "display_address": ["2260 Tillotson Ave", "East Bronx, NY 10475"], "country": "US", "address2": "", "address3": "", "state": "NY", "address1": "2260 Tillotson Ave", "zip_code": "10475"}}, {"rating": 3.0, "review_count": 52, "name": "Evo Cocktail Lounge & Restaurant", "transactions": ["delivery", "pickup"], "url": "https://www.yelp.com/biz/evo-cocktail-lounge-and-restaurant-bronx?adjust_creative=yhLoLzsNXKw40xZ5RCWPpA&utm_campaign=yelp_api_v3&utm_medium=api_v3_business_search&utm_source=yhLoLzsNXKw40xZ5RCWPpA", "price": "$$", "distance": 3664.6896309014423, "coordinates": {"latitude": 40.8342779, "longitude": -73.8534709}, "alias": "evo-cocktail-lounge-and-restaurant-bronx", "image_url": "https://s3-media3.fl.yelpcdn.com/bphoto/1x9NhlbSo_tsB4MGxI_UMg/o.jpg", "categories": [{"alias": "cocktailbars", "title": "Cocktail Bars"}, {"alias": "tradamerican", "title": "American (Traditional)"}, {"alias": "latin", "title": "Latin American"}], "display_phone": "(718) 822-9274", "phone": "+17188229274", "id": "arlnuwapCMwE0lYIv7ZdBg", "is_closed": false, "location": {"city": "Bronx", "display_address": ["1306 Unionport Rd", "Bronx, NY 10462"], "country": "US", "address2": "", "address3": "", "state": "NY", "address1": "1306 Unionport Rd", "zip_code": "10462"}}, {"rating": 3.5, "review_count": 10, "name": "Lorraine's Bar & Grill", "transactions": [], "url": "https://www.yelp.com/biz/lorraines-bar-and-grill-bronx?adjust_creative=yhLoLzsNXKw40xZ5RCWPpA&utm_campaign=yelp_api_v3&utm_medium=api_v3_business_search&utm_source=yhLoLzsNXKw40xZ5RCWPpA", "price": "$$", "distance": 3685.932586992739, "coordinates": {"latitude": 40.8349, "longitude": -73.8543}, "alias": "lorraines-bar-and-grill-bronx", "image_url": "https://s3-media2.fl.yelpcdn.com/bphoto/BmIDRki4D43PMP5mcEgpmA/o.jpg", "categories": [{"alias": "bars", "title": "Bars"}, {"alias": "latin", "title": "Latin American"}], "display_phone": "(646) 568-0787", "phone": "+16465680787", "id": "dnJojc43xGKi37mkcm4xEg", "is_closed": false, "location": {"city": "Bronx", "display_address": ["1410 Unionport Rd", "Bronx, NY 10462"], "country": "US", "address2": "", "address3": "", "state": "NY", "address1": "1410 Unionport Rd", "zip_code": "10462"}}, {"rating": 5.0, "review_count": 1, "name": "King's Billiards", "transactions": [], "url": "https://www.yelp.com/biz/kings-billiards-bronx?adjust_creative=yhLoLzsNXKw40xZ5RCWPpA&utm_campaign=yelp_api_v3&utm_medium=api_v3_business_search&utm_source=yhLoLzsNXKw40xZ5RCWPpA", "price": "$", "distance": 3762.6449539899945, "coordinates": {"latitude": 40.83547, "longitude": -73.85558}, "alias": "kings-billiards-bronx", "image_url": "https://s3-media4.fl.yelpcdn.com/bphoto/si9WSzvNzcpv5tRCORRx1A/o.jpg", "categories": [{"alias": "poolbilliards", "title": "Pool & Billiards"}, {"alias": "poolhalls", "title": "Pool Halls"}], "display_phone": "(929) 777-9659", "phone": "+19297779659", "id": "KIyrR_-e4wDKdE_EpLwNgQ", "is_closed": false, "location": {"city": "Bronx", "display_address": ["1455 Unionport Rd", "Bronx, NY 10462"], "country": "US", "address2": null, "address3": "", "state": "NY", "address1": "1455 Unionport Rd", "zip_code": "10462"}}, {"rating": 2.5, "review_count": 2, "name": "Africa's Last Stop", "transactions": [], "url": "https://www.yelp.com/biz/africas-last-stop-bronx?adjust_creative=yhLoLzsNXKw40xZ5RCWPpA&utm_campaign=yelp_api_v3&utm_medium=api_v3_business_search&utm_source=yhLoLzsNXKw40xZ5RCWPpA", "distance": 3846.5481558872557, "coordinates": {"latitude": 40.8787994, "longitude": -73.8431099}, "alias": "africas-last-stop-bronx", "image_url": "", "categories": [{"alias": "african", "title": "African"}, {"alias": "bars", "title": "Bars"}], "display_phone": "(718) 325-1200", "phone": "+17183251200", "id": "fp8uMVNy3QWZfc_QV_-54Q", "is_closed": false, "location": {"city": "Bronx", "display_address": ["1300 E 222nd St", "Bronx, NY 10469"], "country": "US", "address2": "", "address3": null, "state": "NY", "address1": "1300 E 222nd St", "zip_code": "10469"}}, {"rating": 4.5, "review_count": 2, "name": "El Sazon De Olga", "transactions": ["delivery", "pickup"], "url": "https://www.yelp.com/biz/el-sazon-de-olga-bronx?adjust_creative=yhLoLzsNXKw40xZ5RCWPpA&utm_campaign=yelp_api_v3&utm_medium=api_v3_business_search&utm_source=yhLoLzsNXKw40xZ5RCWPpA", "distance": 3856.433847181127, "coordinates": {"latitude": 40.828172, "longitude": -73.850533}, "alias": "el-sazon-de-olga-bronx", "image_url": "https://s3-media1.fl.yelpcdn.com/bphoto/Ydwc4qOeBs9eujo4OhUq1w/o.jpg", "categories": [{"alias": "spanish", "title": "Spanish"}, {"alias": "bars", "title": "Bars"}, {"alias": "breakfast_brunch", "title": "Breakfast & Brunch"}], "display_phone": "(347) 657-0955", "phone": "+13476570955", "id": "i1ueG-jyd-qGhy7lsGV-kg", "is_closed": false, "location": {"city": "Bronx", "display_address": ["1017 Castle Hill Ave", "Bronx, NY 10472"], "country": "US", "address2": null, "address3": null, "state": "NY", "address1": "1017 Castle Hill Ave", "zip_code": "10472"}}, {"rating": 3.5, "review_count": 4, "name": "Klassique Bar and Lounge", "transactions": [], "url": "https://www.yelp.com/biz/klassique-bar-and-lounge-bronx?adjust_creative=yhLoLzsNXKw40xZ5RCWPpA&utm_campaign=yelp_api_v3&utm_medium=api_v3_business_search&utm_source=yhLoLzsNXKw40xZ5RCWPpA", "price": "$$", "distance": 3872.812454136331, "coordinates": {"latitude": 40.88161, "longitude": -73.83831}, "alias": "klassique-bar-and-lounge-bronx", "image_url": "", "categories": [{"alias": "bars", "title": "Bars"}], "display_phone": "(718) 654-3222", "phone": "+17186543222", "id": "a4htVvpQwdm7nu3UrQ0pTA", "is_closed": false, "location": {"city": "Bronx", "display_address": ["3813 Boston Rd", "Bronx, NY 10466"], "country": "US", "address2": "", "address3": "", "state": "NY", "address1": "3813 Boston Rd", "zip_code": "10466"}}, {"rating": 1.0, "review_count": 1, "name": "Tranquility Bar and Lounge", "transactions": [], "url": "https://www.yelp.com/biz/tranquility-bar-and-lounge-east-bronx?adjust_creative=yhLoLzsNXKw40xZ5RCWPpA&utm_campaign=yelp_api_v3&utm_medium=api_v3_business_search&utm_source=yhLoLzsNXKw40xZ5RCWPpA", "price": "$$", "distance": 3876.3042148921445, "coordinates": {"latitude": 40.8775, "longitude": -73.84583}, "alias": "tranquility-bar-and-lounge-east-bronx", "image_url": "https://s3-media2.fl.yelpcdn.com/bphoto/Tc7glhWzr2LWgbP2q__GdQ/o.jpg", "categories": [{"alias": "lounges", "title": "Lounges"}], "display_phone": "(914) 258-4444", "phone": "+19142584444", "id": "1TdhdXS0qgCnoD6YQYvpng", "is_closed": false, "location": {"city": "East Bronx", "display_address": ["3511 Boston Rd", "East Bronx, NY 10469"], "country": "US", "address2": null, "address3": "", "state": "NY", "address1": "3511 Boston Rd", "zip_code": "10469"}}, {"rating": 3.5, "review_count": 460, "name": "F & J Pine Restaurant", "transactions": [], "url": "https://www.yelp.com/biz/f-and-j-pine-restaurant-bronx?adjust_creative=yhLoLzsNXKw40xZ5RCWPpA&utm_campaign=yelp_api_v3&utm_medium=api_v3_business_search&utm_source=yhLoLzsNXKw40xZ5RCWPpA", "price": "$$", "distance": 3905.781729676623, "coordinates": {"latitude": 40.848685, "longitude": -73.862069}, "alias": "f-and-j-pine-restaurant-bronx", "image_url": "https://s3-media3.fl.yelpcdn.com/bphoto/5yr2WnfKGqj2muCu7QbP_g/o.jpg", "categories": [{"alias": "italian", "title": "Italian"}, {"alias": "wine_bars", "title": "Wine Bars"}], "display_phone": "(718) 792-5956", "phone": "+17187925956", "id": "oexDsgqmXc9Qe3fy3uYx7g", "is_closed": false, "location": {"city": "Bronx", "display_address": ["1913 Bronxdale Ave", "Bronx, NY 10462"], "country": "US", "address2": "", "address3": "", "state": "NY", "address1": "1913 Bronxdale Ave", "zip_code": "10462"}}, {"rating": 3.0, "review_count": 22, "name": "Mingles", "transactions": [], "url": "https://www.yelp.com/biz/mingles-bronx?adjust_creative=yhLoLzsNXKw40xZ5RCWPpA&utm_campaign=yelp_api_v3&utm_medium=api_v3_business_search&utm_source=yhLoLzsNXKw40xZ5RCWPpA", "price": "$$", "distance": 3973.8059190975473, "coordinates": {"latitude": 40.8846189, "longitude": -73.8318809}, "alias": "mingles-bronx", "image_url": "https://s3-media1.fl.yelpcdn.com/bphoto/4RQADnKQ4TA6OTNkssYdOA/o.jpg", "categories": [{"alias": "danceclubs", "title": "Dance Clubs"}, {"alias": "cafes", "title": "Cafes"}], "display_phone": "(718) 320-9505", "phone": "+17183209505", "id": "m10QaItxSHbJa1XjQFOOJA", "is_closed": false, "location": {"city": "Bronx", "display_address": ["4012 Boston Rd", "Bronx, NY 10475"], "country": "US", "address2": "", "address3": "", "state": "NY", "address1": "4012 Boston Rd", "zip_code": "10475"}}, {"rating": 4.0, "review_count": 194, "name": "Fish N' Ting", "transactions": [], "url": "https://www.yelp.com/biz/fish-n-ting-bronx?adjust_creative=yhLoLzsNXKw40xZ5RCWPpA&utm_campaign=yelp_api_v3&utm_medium=api_v3_business_search&utm_source=yhLoLzsNXKw40xZ5RCWPpA", "price": "$$", "distance": 4018.3172761023698, "coordinates": {"latitude": 40.885723, "longitude": -73.829075}, "alias": "fish-n-ting-bronx", "image_url": "https://s3-media3.fl.yelpcdn.com/bphoto/RkEUiQcPKLa6DG6ovo3Q5g/o.jpg", "categories": [{"alias": "caribbean", "title": "Caribbean"}, {"alias": "seafood", "title": "Seafood"}, {"alias": "bars", "title": "Bars"}], "display_phone": "(718) 881-6116", "phone": "+17188816116", "id": "rkYATACY4qzaVFapJTWj4Q", "is_closed": false, "location": {"city": "Bronx", "display_address": ["4063 Boston Rd", "Bronx, NY 10466"], "country": "US", "address2": "", "address3": "", "state": "NY", "address1": "4063 Boston Rd", "zip_code": "10466"}}, {"rating": 2.0, "review_count": 127, "name": "Applebee's Grill + Bar", "transactions": ["pickup"], "url": "https://www.yelp.com/biz/applebees-grill-bar-bronx-7?adjust_creative=yhLoLzsNXKw40xZ5RCWPpA&utm_campaign=yelp_api_v3&utm_medium=api_v3_business_search&utm_source=yhLoLzsNXKw40xZ5RCWPpA", "price": "$$", "distance": 4049.4926311534723, "coordinates": {"latitude": 40.83822, "longitude": -73.86072}, "alias": "applebees-grill-bar-bronx-7", "image_url": "https://s3-media4.fl.yelpcdn.com/bphoto/cacYSeeI0oUpvG59XXgORw/o.jpg", "categories": [{"alias": "tradamerican", "title": "American (Traditional)"}, {"alias": "sportsbars", "title": "Sports Bars"}, {"alias": "burgers", "title": "Burgers"}], "display_phone": "(347) 802-4202", "phone": "+13478024202", "id": "vPEIHwl9cZYYpOiNojDPyw", "is_closed": false, "location": {"city": "Bronx", "display_address": ["65 Metropolitan Oval", "Bronx, NY 10462"], "country": "US", "address2": "", "address3": "", "state": "NY", "address1": "65 Metropolitan Oval", "zip_code": "10462"}}, {"rating": 4.5, "review_count": 9, "name": "Lotus Lounge", "transactions": [], "url": "https://www.yelp.com/biz/lotus-lounge-bronx?adjust_creative=yhLoLzsNXKw40xZ5RCWPpA&utm_campaign=yelp_api_v3&utm_medium=api_v3_business_search&utm_source=yhLoLzsNXKw40xZ5RCWPpA", "price": "$$", "distance": 4241.328041929313, "coordinates": {"latitude": 40.84546, "longitude": -73.866}, "alias": "lotus-lounge-bronx", "image_url": "https://s3-media3.fl.yelpcdn.com/bphoto/JtyDMoo31TiESkxeK8Y3BA/o.jpg", "categories": [{"alias": "hookah_bars", "title": "Hookah Bars"}], "display_phone": "(347) 972-9840", "phone": "+13479729840", "id": "GvMkdNIYB8K5UOjJiKm8ew", "is_closed": false, "location": {"city": "Bronx", "display_address": ["1800 White Plains Rd", "Bronx, NY 10462"], "country": "US", "address2": "", "address3": null, "state": "NY", "address1": "1800 White Plains Rd", "zip_code": "10462"}}, {"rating": 3.5, "review_count": 103, "name": "Step In Restaurant", "transactions": [], "url": "https://www.yelp.com/biz/step-in-restaurant-bronx?adjust_creative=yhLoLzsNXKw40xZ5RCWPpA&utm_campaign=yelp_api_v3&utm_medium=api_v3_business_search&utm_source=yhLoLzsNXKw40xZ5RCWPpA", "price": "$$", "distance": 4248.326696649897, "coordinates": {"latitude": 40.833886, "longitude": -73.861084}, "alias": "step-in-restaurant-bronx", "image_url": "https://s3-media4.fl.yelpcdn.com/bphoto/NRUDTYCfPrVzHnGuen0x9w/o.jpg", "categories": [{"alias": "lounges", "title": "Lounges"}, {"alias": "tradamerican", "title": "American (Traditional)"}], "display_phone": "(718) 822-0562", "phone": "+17188220562", "id": "Obr6rLjib-n2S6IdJqasuQ", "is_closed": false, "location": {"city": "Bronx", "display_address": ["1309 Metropolitan Ave", "Bronx, NY 10462"], "country": "US", "address2": "", "address3": "", "state": "NY", "address1": "1309 Metropolitan Ave", "zip_code": "10462"}}, {"rating": 4.5, "review_count": 14, "name": "Kirvens", "transactions": [], "url": "https://www.yelp.com/biz/kirvens-bronx?adjust_creative=yhLoLzsNXKw40xZ5RCWPpA&utm_campaign=yelp_api_v3&utm_medium=api_v3_business_search&utm_source=yhLoLzsNXKw40xZ5RCWPpA", "distance": 4261.832408126729, "coordinates": {"latitude": 40.85439, "longitude": -73.8663897}, "alias": "kirvens-bronx", "image_url": "https://s3-media3.fl.yelpcdn.com/bphoto/t4OHNVi3HyD3x13K0L4fPQ/o.jpg", "categories": [{"alias": "pubs", "title": "Pubs"}], "display_phone": "(718) 829-0200", "phone": "+17188290200", "id": "mZV4nRj9XfNIAJc4RPLOzg", "is_closed": false, "location": {"city": "Bronx", "display_address": ["736 Lydig Ave", "Bronx, NY 10462"], "country": "US", "address2": "", "address3": null, "state": "NY", "address1": "736 Lydig Ave", "zip_code": "10462"}}]}