{"region": {"center": {"latitude": 40.856177276, "longitude": -73.852543613}}, "total": 503, "businesses": [{"rating": 4.0, "review_count": 21, "name": "Skyline Bar", "transactions": [], "url": "https://www.yelp.com/biz/skyline-bar-new-york?adjust_creative=yhLoLzsNXKw40xZ5RCWPpA&utm_campaign=yelp_api_v3&utm_medium=api_v3_business_search&utm_source=yhLoLzsNXKw40xZ5RCWPpA", "price": "$$", "distance": 913.3636640825684, "coordinates": {"latitude": 40.85291, "longitude": -73.842569}, "alias": "skyline-bar-new-york", "image_url": "https://s3-media2.fl.yelpcdn.com/bphoto/LSR0baLHbSqeP9aCoYwkMA/o.jpg", "categories": [{"alias": "lounges", "title": "Lounges"}], "display_phone": "(718) 822-8208", "phone": "+17188228208", "id": "I1eOFHPwaCe69-5TevFb6g", "is_closed": false, "location": {"city": "New York", "display_address": ["1511 Wilkinson Ave", "New York, NY 10461"], "country": "US", "address2": "", "address3": "", "state": "NY", "address1": "1511 Wilkinson Ave", "zip_code": "10461"}}, {"rating": 2.5, "review_count": 73, "name": "Applebee's Grill + Bar", "transactions": ["pickup"], "url": "https://www.yelp.com/biz/applebees-grill-bar-bronx-6?adjust_creative=yhLoLzsNXKw40xZ5RCWPpA&utm_campaign=yelp_api_v3&utm_medium=api_v3_business_search&utm_source=yhLoLzsNXKw40xZ5RCWPpA", "price": "$$", "distance": 1111.188608759024, "coordinates": {"latitude": 40.849594, "longitude": -73.842604}, "alias": "applebees-grill-bar-bronx-6", "image_url": "https://s3-media3.fl.yelpcdn.com/bphoto/XQRO30tlndhtRtqivlQ8-A/o.jpg", "categories": [{"alias": "sportsbars", "title": "Sports Bars"}, {"alias": "burgers", "title": "Burgers"}, {"alias": "tradamerican", "title": "American (Traditional)"}], "display_phone": "(718) 792-5000", "phone": "+17187925000", "id": "DRuMYb2eL4t8UPopUbUkXA", "is_closed": false, "location": {"city": "Bronx", "display_address": ["1776 Eastchester Rd", "Bronx, NY 10461"], "country": "US", "address2": "", "address3": "", "state": "NY", "address1": "1776 Eastchester Rd", "zip_code": "10461"}}, {"rating": 3.0, "review_count": 2, "name": "Fay's Tavern", "transactions": [], "url": "https://www.yelp.com/biz/fays-tavern-bronx?adjust_creative=yhLoLzsNXKw40xZ5RCWPpA&utm_campaign=yelp_api_v3&utm_medium=api_v3_business_search&utm_source=yhLoLzsNXKw40xZ5RCWPpA", "distance": 1162.9873643684202, "coordinates": {"latitude": 40.84632, "longitude": -73.84798}, "alias": "fays-tavern-bronx", "image_url": "", "categories": [{"alias": "bars", "title": "Bars"}], "display_phone": "(718) 822-8430", "phone": "+17188228430", "id": "-WSlYxq9_v8Qqkifk59sFQ", "is_closed": false, "location": {"city": "Bronx", "display_address": ["1556 Williamsbridge Rd", "Bronx, NY 10461"], "country": "US", "address2": "", "address3": "", "state": "NY", "address1": "1556 Williamsbridge Rd", "zip_code": "10461"}}, {"rating": 3.5, "review_count": 460, "name": "F & J Pine Restaurant", "transactions": [], "url": "https://www.yelp.com/biz/f-and-j-pine-restaurant-bronx?adjust_creative=yhLoLzsNXKw40xZ5RCWPpA&utm_campaign=yelp_api_v3&utm_medium=api_v3_business_search&utm_source=yhLoLzsNXKw40xZ5RCWPpA", "price": "$$", "distance": 1163.4411234609254, "coordinates": {"latitude": 40.848685, "longitude": -73.862069}, "alias": "f-and-j-pine-restaurant-bronx", "image_url": "https://s3-media3.fl.yelpcdn.com/bphoto/5yr2WnfKGqj2muCu7QbP_g/o.jpg", "categories": [{"alias": "italian", "title": "Italian"}, {"alias": "wine_bars", "title": "Wine Bars"}], "display_phone": "(718) 792-5956", "phone": "+17187925956", "id": "oexDsgqmXc9Qe3fy3uYx7g", "is_closed": false, "location": {"city": "Bronx", "display_address": ["1913 Bronxdale Ave", "Bronx, NY 10462"], "country": "US", "address2": "", "address3": "", "state": "NY", "address1": "1913 Bronxdale Ave", "zip_code": "10462"}}, {"rating": 4.5, "review_count": 14, "name": "Kirvens", "transactions": [], "url": "https://www.yelp.com/biz/kirvens-bronx?adjust_creative=yhLoLzsNXKw40xZ5RCWPpA&utm_campaign=yelp_api_v3&utm_medium=api_v3_business_search&utm_source=yhLoLzsNXKw40xZ5RCWPpA", "distance": 1181.3446267205163, "coordinates": {"latitude": 40.85439, "longitude": -73.8663897}, "alias": "kirvens-bronx", "image_url": "https://s3-media3.fl.yelpcdn.com/bphoto/t4OHNVi3HyD3x13K0L4fPQ/o.jpg", "categories": [{"alias": "pubs", "title": "Pubs"}], "display_phone": "(718) 829-0200", "phone": "+17188290200", "id": "mZV4nRj9XfNIAJc4RPLOzg", "is_closed": false, "location": {"city": "Bronx", "display_address": ["736 Lydig Ave", "Bronx, NY 10462"], "country": "US", "address2": "", "address3": null, "state": "NY", "address1": "736 Lydig Ave", "zip_code": "10462"}}, {"rating": 2.5, "review_count": 104, "name": "Cafe Colonial Restaurant", "transactions": ["pickup", "delivery"], "url": "https://www.yelp.com/biz/cafe-colonial-restaurant-bronx-2?adjust_creative=yhLoLzsNXKw40xZ5RCWPpA&utm_campaign=yelp_api_v3&utm_medium=api_v3_business_search&utm_source=yhLoLzsNXKw40xZ5RCWPpA", "price": "$$", "distance": 1307.655762159268, "coordinates": {"latitude": 40.85265, "longitude": -73.86757}, "alias": "cafe-colonial-restaurant-bronx-2", "image_url": "https://s3-media3.fl.yelpcdn.com/bphoto/KPIpru_uxb0pFSQQOnKquw/o.jpg", "categories": [{"alias": "spanish", "title": "Spanish"}, {"alias": "bars", "title": "Bars"}, {"alias": "latin", "title": "Latin American"}], "display_phone": "(718) 824-1933", "phone": "+17188241933", "id": "N32lcUnshizWWKrGklsf9g", "is_closed": false, "location": {"city": "Bronx", "display_address": ["2072 White Plains Rd", "Bronx, NY 10462"], "country": "US", "address2": "", "address3": "", "state": "NY", "address1": "2072 White Plains Rd", "zip_code": "10462"}}, {"rating": 2.0, "review_count": 7, "name": "Gasolina Lounge", "transactions": ["pickup", "delivery"], "url": "https://www.yelp.com/biz/gasolina-lounge-new-york?adjust_creative=yhLoLzsNXKw40xZ5RCWPpA&utm_campaign=yelp_api_v3&utm_medium=api_v3_business_search&utm_source=yhLoLzsNXKw40xZ5RCWPpA", "price": "$$", "distance": 1350.529708114155, "coordinates": {"latitude": 40.863955, "longitude": -73.864878}, "alias": "gasolina-lounge-new-york", "image_url": "https://s3-media3.fl.yelpcdn.com/bphoto/RIjR1BIgWj5wGkqWhmhxNw/o.jpg", "categories": [{"alias": "bars", "title": "Bars"}, {"alias": "venues", "title": "Venues & Event Spaces"}, {"alias": "tradamerican", "title": "American (Traditional)"}], "display_phone": "(718) 708-5018", "phone": "+17187085018", "id": "yW-efAydaQTP1Ag1rYo4NQ", "is_closed": false, "location": {"city": "New York", "display_address": ["2525 Boston Rd", "New York, NY 10467"], "country": "US", "address2": "", "address3": "", "state": "NY", "address1": "2525 Boston Rd", "zip_code": "10467"}}, {"rating": 3.0, "review_count": 362, "name": "Pine Bar & Grill", "transactions": [], "url": "https://www.yelp.com/biz/pine-bar-and-grill-bronx?adjust_creative=yhLoLzsNXKw40xZ5RCWPpA&utm_campaign=yelp_api_v3&utm_medium=api_v3_business_search&utm_source=yhLoLzsNXKw40xZ5RCWPpA", "price": "$$", "distance": 1391.7833346539053, "coordinates": {"latitude": 40.845142364502, "longitude": -73.8448638916016}, "alias": "pine-bar-and-grill-bronx", "image_url": "https://s3-media1.fl.yelpcdn.com/bphoto/vLo153euG9qJaI9F78toPg/o.jpg", "categories": [{"alias": "newamerican", "title": "American (New)"}, {"alias": "bars", "title": "Bars"}, {"alias": "italian", "title": "Italian"}], "display_phone": "(718) 319-0900", "phone": "+17183190900", "id": "Km_hSBftgdYcGL1TzZnwlQ", "is_closed": false, "location": {"city": "Bronx", "display_address": ["1634 Eastchester Rd", "Bronx, NY 10461"], "country": "US", "address2": "", "address3": "", "state": "NY", "address1": "1634 Eastchester Rd", "zip_code": "10461"}}, {"rating": 3.5, "review_count": 45, "name": "Park Billiards & Cafe", "transactions": [], "url": "https://www.yelp.com/biz/park-billiards-and-cafe-bronx-2?adjust_creative=yhLoLzsNXKw40xZ5RCWPpA&utm_campaign=yelp_api_v3&utm_medium=api_v3_business_search&utm_source=yhLoLzsNXKw40xZ5RCWPpA", "price": "$$", "distance": 1393.0921506968402, "coordinates": {"latitude": 40.850772, "longitude": -73.867485}, "alias": "park-billiards-and-cafe-bronx-2", "image_url": "https://s3-media2.fl.yelpcdn.com/bphoto/ZEhg8UVEJsaubT_1beLXSQ/o.jpg", "categories": [{"alias": "poolhalls", "title": "Pool Halls"}, {"alias": "sportsbars", "title": "Sports Bars"}], "display_phone": "(718) 829-3051", "phone": "+17188293051", "id": "u26k3wz5cm5LzzfzHlRdQw", "is_closed": false, "location": {"city": "Bronx", "display_address": ["2020 White Plains Rd", "Bronx, NY 10462"], "country": "US", "address2": "", "address3": "", "state": "NY", "address1": "2020 White Plains Rd", "zip_code": "10462"}}, {"rating": 1.0, "review_count": 2, "name": "Oasis Hookah Lounge", "transactions": [], "url": "https://www.yelp.com/biz/oasis-hookah-lounge-east-bronx?adjust_creative=yhLoLzsNXKw40xZ5RCWPpA&utm_campaign=yelp_api_v3&utm_medium=api_v3_business_search&utm_source=yhLoLzsNXKw40xZ5RCWPpA", "price": "$$", "distance": 1576.961957636484, "coordinates": {"latitude": 40.8477034909822, "longitude": -73.8675779973095}, "alias": "oasis-hookah-lounge-east-bronx", "image_url": "https://s3-media2.fl.yelpcdn.com/bphoto/W2tyMxNBtvp5JgafxTLtaQ/o.jpg", "categories": [{"alias": "hookah_bars", "title": "Hookah Bars"}], "display_phone": "(347) 867-9384", "phone": "+13478679384", "id": "Lzj1qOHUlHI5PvL9wLT3pw", "is_closed": false, "location": {"city": "East Bronx", "display_address": ["1907 White Plains Rd", "East Bronx, NY 10462"], "country": "US", "address2": "", "address3": "", "state": "NY", "address1": "1907 White Plains Rd", "zip_code": "10462"}}, {"rating": 4.0, "review_count": 40, "name": "Istanbul Cafe", "transactions": [], "url": "https://www.yelp.com/biz/istanbul-cafe-bronx?adjust_creative=yhLoLzsNXKw40xZ5RCWPpA&utm_campaign=yelp_api_v3&utm_medium=api_v3_business_search&utm_source=yhLoLzsNXKw40xZ5RCWPpA", "price": "$$", "distance": 1588.0995761152244, "coordinates": {"latitude": 40.84773, "longitude": -73.86734}, "alias": "istanbul-cafe-bronx", "image_url": "https://s3-media2.fl.yelpcdn.com/bphoto/OCBbzi2MGn3cTCSt2CPISQ/o.jpg", "categories": [{"alias": "hookah_bars", "title": "Hookah Bars"}], "display_phone": "(347) 281-9600", "phone": "+13472819600", "id": "MFMSxL7cUlZpQlOVmRoh9g", "is_closed": false, "location": {"city": "Bronx", "display_address": ["1905 White Plains Rd", "Fl 2", "Bronx, NY 10462"], "country": "US", "address2": "Fl 2", "address3": "", "state": "NY", "address1": "1905 White Plains Rd", "zip_code": "10462"}}, {"rating": 4.0, "review_count": 33, "name": "McDermott's Pub", "transactions": [], "url": "https://www.yelp.com/biz/mcdermotts-pub-bronx?adjust_creative=yhLoLzsNXKw40xZ5RCWPpA&utm_campaign=yelp_api_v3&utm_medium=api_v3_business_search&utm_source=yhLoLzsNXKw40xZ5RCWPpA", "price": "$$", "distance": 1594.4516466196633, "coordinates": {"latitude": 40.84276, "longitude": -73.84622}, "alias": "mcdermotts-pub-bronx", "image_url": "https://s3-media4.fl.yelpcdn.com/bphoto/XqZNgDg81YHXRi6WxFsZRw/o.jpg", "categories": [{"alias": "pubs", "title": "Pubs"}, {"alias": "chicken_wings", "title": "Chicken Wings"}], "display_phone": "(718) 792-4490", "phone": "+17187924490", "id": "tKIegplIoWexMQWqLgbnLw", "is_closed": false, "location": {"city": "Bronx", "display_address": ["2634 E Tremont Ave", "Bronx, NY 10461"], "country": "US", "address2": "", "address3": "", "state": "NY", "address1": "2634 E Tremont Ave", "zip_code": "10461"}}, {"rating": 4.5, "review_count": 9, "name": "Lotus Lounge", "transactions": [], "url": "https://www.yelp.com/biz/lotus-lounge-bronx?adjust_creative=yhLoLzsNXKw40xZ5RCWPpA&utm_campaign=yelp_api_v3&utm_medium=api_v3_business_search&utm_source=yhLoLzsNXKw40xZ5RCWPpA", "price": "$$", "distance": 1621.3649651725677, "coordinates": {"latitude": 40.84546, "longitude": -73.866}, "alias": "lotus-lounge-bronx", "image_url": "https://s3-media3.fl.yelpcdn.com/bphoto/JtyDMoo31TiESkxeK8Y3BA/o.jpg", "categories": [{"alias": "hookah_bars", "title": "Hookah Bars"}], "display_phone": "(347) 972-9840", "phone": "+13479729840", "id": "GvMkdNIYB8K5UOjJiKm8ew", "is_closed": false, "location": {"city": "Bronx", "display_address": ["1800 White Plains Rd", "Bronx, NY 10462"], "country": "US", "address2": "", "address3": null, "state": "NY", "address1": "1800 White Plains Rd", "zip_code": "10462"}}, {"rating": 3.5, "review_count": 24, "name": "Code Red Restaurant & Lounge", "transactions": [], "url": "https://www.yelp.com/biz/code-red-restaurant-and-lounge-bronx-2?adjust_creative=yhLoLzsNXKw40xZ5RCWPpA&utm_campaign=yelp_api_v3&utm_medium=api_v3_business_search&utm_source=yhLoLzsNXKw40xZ5RCWPpA", "price": "$$", "distance": 1713.2044419291174, "coordinates": {"latitude": 40.8712159053814, "longitude": -73.8481139653215}, "alias": "code-red-restaurant-and-lounge-bronx-2", "image_url": "https://s3-media2.fl.yelpcdn.com/bphoto/Ll1Bfhkv7WrZQtKDdgZRzQ/o.jpg", "categories": [{"alias": "caribbean", "title": "Caribbean"}, {"alias": "sportsbars", "title": "Sports Bars"}], "display_phone": "(718) 881-1808", "phone": "+17188811808", "id": "MfTOkwb0wfpKCN65OorMIw", "is_closed": false, "location": {"city": "Bronx", "display_address": ["1320 East Gun Hill Rd", "Bronx, NY 10469"], "country": "US", "address2": "", "address3": null, "state": "NY", "address1": "1320 East Gun Hill Rd", "zip_code": "10469"}}, {"rating": 5.0, "review_count": 9, "name": "Bases Loaded", "transactions": [], "url": "https://www.yelp.com/biz/bases-loaded-bronx?adjust_creative=yhLoLzsNXKw40xZ5RCWPpA&utm_campaign=yelp_api_v3&utm_medium=api_v3_business_search&utm_source=yhLoLzsNXKw40xZ5RCWPpA", "price": "$$", "distance": 1978.6004634557721, "coordinates": {"latitude": 40.8471281308493, "longitude": -73.8322883325248}, "alias": "bases-loaded-bronx", "image_url": "https://s3-media3.fl.yelpcdn.com/bphoto/p8qjotPjT1w78dY5k1cykA/o.jpg", "categories": [{"alias": "sportsbars", "title": "Sports Bars"}], "display_phone": "(718) 828-8071", "phone": "+17188288071", "id": "1at1CAz-O171bJkmZ_1EaA", "is_closed": false, "location": {"city": "Bronx", "display_address": ["2997 Westchester Ave", "Bronx, NY 10461"], "country": "US", "address2": "", "address3": "", "state": "NY", "address1": "2997 Westchester Ave", "zip_code": "10461"}}, {"rating": 3.5, "review_count": 83, "name": "Illusions Hookah & Mixology Lounge", "transactions": [], "url": "https://www.yelp.com/biz/illusions-hookah-and-mixology-lounge-bronx?adjust_creative=yhLoLzsNXKw40xZ5RCWPpA&utm_campaign=yelp_api_v3&utm_medium=api_v3_business_search&utm_source=yhLoLzsNXKw40xZ5RCWPpA", "price": "$$", "distance": 2028.0467911517699, "coordinates": {"latitude": 40.8522129, "longitude": -73.8290069}, "alias": "illusions-hookah-and-mixology-lounge-bronx", "image_url": "https://s3-media1.fl.yelpcdn.com/bphoto/C4emY32GDusdMCybR6NmpQ/o.jpg", "categories": [{"alias": "hookah_bars", "title": "Hookah Bars"}, {"alias": "cocktailbars", "title": "Cocktail Bars"}], "display_phone": "(929) 855-0156", "phone": "+19298550156", "id": "QA0FUxP1US5LIyf2tG5KUw", "is_closed": false, "location": {"city": "Bronx", "display_address": ["3229 Westchester Ave", "Bronx, NY 10461"], "country": "US", "address2": null, "address3": null, "state": "NY", "address1": "3229 Westchester Ave", "zip_code": "10461"}}, {"rating": 3.5, "review_count": 7, "name": "Vivienne's", "transactions": [], "url": "https://www.yelp.com/biz/viviennes-bronx?adjust_creative=yhLoLzsNXKw40xZ5RCWPpA&utm_campaign=yelp_api_v3&utm_medium=api_v3_business_search&utm_source=yhLoLzsNXKw40xZ5RCWPpA", "distance": 2033.2660714775366, "coordinates": {"latitude": 40.84796, "longitude": -73.83104}, "alias": "viviennes-bronx", "image_url": "https://s3-media1.fl.yelpcdn.com/bphoto/T0avMD8N_ZB8eAiapACcHg/o.jpg", "categories": [{"alias": "bars", "title": "Bars"}], "display_phone": "(718) 829-0218", "phone": "+17188290218", "id": "M0PQzqbg_PR51Y9YpXyBnw", "is_closed": false, "location": {"city": "Bronx", "display_address": ["3044 Westchester Ave", "Bronx, NY 10461"], "country": "US", "address2": "", "address3": "", "state": "NY", "address1": "3044 Westchester Ave", "zip_code": "10461"}}, {"rating": 4.5, "review_count": 23, "name": "Shamrock Inn", "transactions": [], "url": "https://www.yelp.com/biz/shamrock-inn-bronx?adjust_creative=yhLoLzsNXKw40xZ5RCWPpA&utm_campaign=yelp_api_v3&utm_medium=api_v3_business_search&utm_source=yhLoLzsNXKw40xZ5RCWPpA", "price": "$$", "distance": 2064.0534712451745, "coordinates": {"latitude": 40.846061, "longitude": -73.83197}, "alias": "shamrock-inn-bronx", "image_url": "https://s3-media2.fl.yelpcdn.com/bphoto/g-7fNrwyeLDREish4rr3tg/o.jpg", "categories": [{"alias": "newamerican", "title": "American (New)"}, {"alias": "bars", "title": "Bars"}], "display_phone": "(718) 822-8889", "phone": "+17188228889", "id": "HDegrDsHGHqwkb8zg9joWQ", "is_closed": false, "location": {"city": "Bronx", "display_address": ["1729 Crosby Ave", "Bronx, NY 10461"], "country": "US", "address2": "", "address3": "", "state": "NY", "address1": "1729 Crosby Ave", "zip_code": "10461"}}, {"rating": 2.0, "review_count": 127, "name": "Applebee's Grill + Bar", "transactions": ["pickup"], "url": "https://www.yelp.com/biz/applebees-grill-bar-bronx-7?adjust_creative=yhLoLzsNXKw40xZ5RCWPpA&utm_campaign=yelp_api_v3&utm_medium=api_v3_business_search&utm_source=yhLoLzsNXKw40xZ5RCWPpA", "price": "$$", "distance": 2163.5281675187634, "coordinates": {"latitude": 40.83822, "longitude": -73.86072}, "alias": "applebees-grill-bar-bronx-7", "image_url": "https://s3-media4.fl.yelpcdn.com/bphoto/cacYSeeI0oUpvG59XXgORw/o.jpg", "categories": [{"alias": "tradamerican", "title": "American (Traditional)"}, {"alias": "sportsbars", "title": "Sports Bars"}, {"alias": "burgers", "title": "Burgers"}], "display_phone": "(347) 802-4202", "phone": "+13478024202", "id": "vPEIHwl9cZYYpOiNojDPyw", "is_closed": false, "location": {"city": "Bronx", "display_address": ["65 Metropolitan Oval", "Bronx, NY 10462"], "country": "US", "address2": "", "address3": "", "state": "NY", "address1": "65 Metropolitan Oval", "zip_code": "10462"}}, {"rating": 3.0, "review_count": 33, "name": "Jimmy Ryan's", "transactions": ["pickup", "delivery"], "url": "https://www.yelp.com/biz/jimmy-ryans-bronx?adjust_creative=yhLoLzsNXKw40xZ5RCWPpA&utm_campaign=yelp_api_v3&utm_medium=api_v3_business_search&utm_source=yhLoLzsNXKw40xZ5RCWPpA", "price": "$$", "distance": 2311.3799851920417, "coordinates": {"latitude": 40.84416, "longitude": -73.83023}, "alias": "jimmy-ryans-bronx", "image_url": "https://s3-media3.fl.yelpcdn.com/bphoto/kG4wVgqrZJ-2s1eOtJk6JQ/o.jpg", "categories": [{"alias": "pubs", "title": "Pubs"}, {"alias": "irish", "title": "Irish"}], "display_phone": "(718) 863-5687", "phone": "+17188635687", "id": "EQxD4-euHR7SZFDH5qDlUA", "is_closed": false, "location": {"city": "Bronx", "display_address": ["3005 Middletown Rd", "Bronx, NY 10461"], "country": "US", "address2": "", "address3": "", "state": "NY", "address1": "3005 Middletown Rd", "zip_code": "10461"}}, {"rating": 1.0, "review_count": 1, "name": "Cas Bar", "transactions": [], "url": "https://www.yelp.com/biz/cas-bar-bronx?adjust_creative=yhLoLzsNXKw40xZ5RCWPpA&utm_campaign=yelp_api_v3&utm_medium=api_v3_business_search&utm_source=yhLoLzsNXKw40xZ5RCWPpA", "distance": 2323.2965114351246, "coordinates": {"latitude": 40.83541, "longitude": -73.85183}, "alias": "cas-bar-bronx", "image_url": "", "categories": [{"alias": "bars", "title": "Bars"}], "display_phone": "(718) 822-9596", "phone": "+17188229596", "id": "ICmTs3bEoeeVfohpSiqiAw", "is_closed": false, "location": {"city": "Bronx", "display_address": ["1362 Castle Hill Ave", "Bronx, NY 10462"], "country": "US", "address2": "", "address3": "", "state": "NY", "address1": "1362 Castle Hill Ave", "zip_code": "10462"}}, {"rating": 5.0, "review_count": 1, "name": "King's Billiards", "transactions": [], "url": "https://www.yelp.com/biz/kings-billiards-bronx?adjust_creative=yhLoLzsNXKw40xZ5RCWPpA&utm_campaign=yelp_api_v3&utm_medium=api_v3_business_search&utm_source=yhLoLzsNXKw40xZ5RCWPpA", "price": "$", "distance": 2325.3441424576768, "coordinates": {"latitude": 40.83547, "longitude": -73.85558}, "alias": "kings-billiards-bronx", "image_url": "https://s3-media4.fl.yelpcdn.com/bphoto/si9WSzvNzcpv5tRCORRx1A/o.jpg", "categories": [{"alias": "poolbilliards", "title": "Pool & Billiards"}, {"alias": "poolhalls", "title": "Pool Halls"}], "display_phone": "(929) 777-9659", "phone": "+19297779659", "id": "KIyrR_-e4wDKdE_EpLwNgQ", "is_closed": false, "location": {"city": "Bronx", "display_address": ["1455 Unionport Rd", "Bronx, NY 10462"], "country": "US", "address2": null, "address3": "", "state": "NY", "address1": "1455 Unionport Rd", "zip_code": "10462"}}, {"rating": 3.5, "review_count": 10, "name": "Lorraine's Bar & Grill", "transactions": [], "url": "https://www.yelp.com/biz/lorraines-bar-and-grill-bronx?adjust_creative=yhLoLzsNXKw40xZ5RCWPpA&utm_campaign=yelp_api_v3&utm_medium=api_v3_business_search&utm_source=yhLoLzsNXKw40xZ5RCWPpA", "price": "$$", "distance": 2375.4219196978875, "coordinates": {"latitude": 40.8349, "longitude": -73.8543}, "alias": "lorraines-bar-and-grill-bronx", "image_url": "https://s3-media2.fl.yelpcdn.com/bphoto/BmIDRki4D43PMP5mcEgpmA/o.jpg", "categories": [{"alias": "bars", "title": "Bars"}, {"alias": "latin", "title": "Latin American"}], "display_phone": "(646) 568-0787", "phone": "+16465680787", "id": "dnJojc43xGKi37mkcm4xEg", "is_closed": false, "location": {"city": "Bronx", "display_address": ["1410 Unionport Rd", "Bronx, NY 10462"], "country": "US", "address2": "", "address3": "", "state": "NY", "address1": "1410 Unionport Rd", "zip_code": "10462"}}, {"rating": 3.0, "review_count": 52, "name": "Evo Cocktail Lounge & Restaurant", "transactions": ["pickup", "delivery"], "url": "https://www.yelp.com/biz/evo-cocktail-lounge-and-restaurant-bronx?adjust_creative=yhLoLzsNXKw40xZ5RCWPpA&utm_campaign=yelp_api_v3&utm_medium=api_v3_business_search&utm_source=yhLoLzsNXKw40xZ5RCWPpA", "price": "$$", "distance": 2415.4188848395825, "coordinates": {"latitude": 40.8342779, "longitude": -73.8534709}, "alias": "evo-cocktail-lounge-and-restaurant-bronx", "image_url": "https://s3-media3.fl.yelpcdn.com/bphoto/1x9NhlbSo_tsB4MGxI_UMg/o.jpg", "categories": [{"alias": "cocktailbars", "title": "Cocktail Bars"}, {"alias": "tradamerican", "title": "American (Traditional)"}, {"alias": "latin", "title": "Latin American"}], "display_phone": "(718) 822-9274", "phone": "+17188229274", "id": "arlnuwapCMwE0lYIv7ZdBg", "is_closed": false, "location": {"city": "Bronx", "display_address": ["1306 Unionport Rd", "Bronx, NY 10462"], "country": "US", "address2": "", "address3": "", "state": "NY", "address1": "1306 Unionport Rd", "zip_code": "10462"}}, {"rating": 1.0, "review_count": 1, "name": "Tranquility Bar and Lounge", "transactions": [], "url": "https://www.yelp.com/biz/tranquility-bar-and-lounge-east-bronx?adjust_creative=yhLoLzsNXKw40xZ5RCWPpA&utm_campaign=yelp_api_v3&utm_medium=api_v3_business_search&utm_source=yhLoLzsNXKw40xZ5RCWPpA", "price": "$$", "distance": 2437.8784608465, "coordinates": {"latitude": 40.8775, "longitude": -73.84583}, "alias": "tranquility-bar-and-lounge-east-bronx", "image_url": "https://s3-media2.fl.yelpcdn.com/bphoto/Tc7glhWzr2LWgbP2q__GdQ/o.jpg", "categories": [{"alias": "lounges", "title": "Lounges"}], "display_phone": "(914) 258-4444", "phone": "+19142584444", "id": "1TdhdXS0qgCnoD6YQYvpng", "is_closed": false, "location": {"city": "East Bronx", "display_address": ["3511 Boston Rd", "East Bronx, NY 10469"], "country": "US", "address2": null, "address3": "", "state": "NY", "address1": "3511 Boston Rd", "zip_code": "10469"}}, {"rating": 1.5, "review_count": 150, "name": "Applebee's Grill + Bar", "transactions": [], "url": "https://www.yelp.com/biz/applebees-grill-bar-bronx?adjust_creative=yhLoLzsNXKw40xZ5RCWPpA&utm_campaign=yelp_api_v3&utm_medium=api_v3_business_search&utm_source=yhLoLzsNXKw40xZ5RCWPpA", "price": "$$", "distance": 2457.859000174847, "coordinates": {"latitude": 40.8661296288215, "longitude": -73.826447}, "alias": "applebees-grill-bar-bronx", "image_url": "https://s3-media2.fl.yelpcdn.com/bphoto/PMGOlDRIYu90N5n0NilgcA/o.jpg", "categories": [{"alias": "tradamerican", "title": "American (Traditional)"}, {"alias": "sportsbars", "title": "Sports Bars"}, {"alias": "burgers", "title": "Burgers"}], "display_phone": "(718) 320-4227", "phone": "+17183204227", "id": "1klTUZoUybdXasb5Ea0pPA", "is_closed": false, "location": {"city": "Bronx", "display_address": ["2276 Bartow Ave", "Bronx, NY 10475"], "country": "US", "address2": "", "address3": "", "state": "NY", "address1": "2276 Bartow Ave", "zip_code": "10475"}}, {"rating": 3.0, "review_count": 5, "name": "Blue Mist Hookah Lounge", "transactions": [], "url": "https://www.yelp.com/biz/blue-mist-hookah-lounge-bronx?adjust_creative=yhLoLzsNXKw40xZ5RCWPpA&utm_campaign=yelp_api_v3&utm_medium=api_v3_business_search&utm_source=yhLoLzsNXKw40xZ5RCWPpA", "distance": 2462.262340022015, "coordinates": {"latitude": 40.8340345677682, "longitude": -73.8522691298467}, "alias": "blue-mist-hookah-lounge-bronx", "image_url": "https://s3-media4.fl.yelpcdn.com/bphoto/6FotKeNNhWf1poim-jVKUA/o.jpg", "categories": [{"alias": "hookah_bars", "title": "Hookah Bars"}, {"alias": "mediterranean", "title": "Mediterranean"}, {"alias": "breakfast_brunch", "title": "Breakfast & Brunch"}], "display_phone": "", "phone": "", "id": "fu4_G-GaYQRjLYUYWT-13A", "is_closed": false, "location": {"city": "Bronx", "display_address": ["2166 Westchester Ave", "Bronx, NY 10462"], "country": "US", "address2": "", "address3": null, "state": "NY", "address1": "2166 Westchester Ave", "zip_code": "10462"}}, {"rating": 3.5, "review_count": 35, "name": "Melanie's Roti & Grill Restaurant", "transactions": ["pickup", "delivery"], "url": "https://www.yelp.com/biz/melanies-roti-and-grill-restaurant-bronx?adjust_creative=yhLoLzsNXKw40xZ5RCWPpA&utm_campaign=yelp_api_v3&utm_medium=api_v3_business_search&utm_source=yhLoLzsNXKw40xZ5RCWPpA", "price": "$$", "distance": 2549.0778418827545, "coordinates": {"latitude": 40.8333, "longitude": -73.851045}, "alias": "melanies-roti-and-grill-restaurant-bronx", "image_url": "https://s3-media2.fl.yelpcdn.com/bphoto/R3FIxMjNjNtcTjDVV_WbRg/o.jpg", "categories": [{"alias": "bars", "title": "Bars"}, {"alias": "caribbean", "title": "Caribbean"}, {"alias": "indpak", "title": "Indian"}], "display_phone": "(718) 409-1088", "phone": "+17184091088", "id": "b_RZL-wE1PpH0nX9cv7twg", "is_closed": false, "location": {"city": "Bronx", "display_address": ["1248 Castle Hill Ave", "Bronx, NY 10462"], "country": "US", "address2": null, "address3": null, "state": "NY", "address1": "1248 Castle Hill Ave", "zip_code": "10462"}}, {"rating": 3.5, "review_count": 103, "name": "Step In Restaurant", "transactions": [], "url": "https://www.yelp.com/biz/step-in-restaurant-bronx?adjust_creative=yhLoLzsNXKw40xZ5RCWPpA&utm_campaign=yelp_api_v3&utm_medium=api_v3_business_search&utm_source=yhLoLzsNXKw40xZ5RCWPpA", "price": "$$", "distance": 2580.679964345395, "coordinates": {"latitude": 40.833886, "longitude": -73.861084}, "alias": "step-in-restaurant-bronx", "image_url": "https://s3-media4.fl.yelpcdn.com/bphoto/NRUDTYCfPrVzHnGuen0x9w/o.jpg", "categories": [{"alias": "lounges", "title": "Lounges"}, {"alias": "tradamerican", "title": "American (Traditional)"}], "display_phone": "(718) 822-0562", "phone": "+17188220562", "id": "Obr6rLjib-n2S6IdJqasuQ", "is_closed": false, "location": {"city": "Bronx", "display_address": ["1309 Metropolitan Ave", "Bronx, NY 10462"], "country": "US", "address2": "", "address3": "", "state": "NY", "address1": "1309 Metropolitan Ave", "zip_code": "10462"}}, {"rating": 2.5, "review_count": 2, "name": "Africa's Last Stop", "transactions": [], "url": "https://www.yelp.com/biz/africas-last-stop-bronx?adjust_creative=yhLoLzsNXKw40xZ5RCWPpA&utm_campaign=yelp_api_v3&utm_medium=api_v3_business_search&utm_source=yhLoLzsNXKw40xZ5RCWPpA", "distance": 2637.578630282658, "coordinates": {"latitude": 40.8787994, "longitude": -73.8431099}, "alias": "africas-last-stop-bronx", "image_url": "", "categories": [{"alias": "african", "title": "African"}, {"alias": "bars", "title": "Bars"}], "display_phone": "(718) 325-1200", "phone": "+17183251200", "id": "fp8uMVNy3QWZfc_QV_-54Q", "is_closed": false, "location": {"city": "Bronx", "display_address": ["1300 E 222nd St", "Bronx, NY 10469"], "country": "US", "address2": "", "address3": null, "state": "NY", "address1": "1300 E 222nd St", "zip_code": "10469"}}, {"rating": 2.0, "review_count": 1, "name": "Candy Lounge", "transactions": [], "url": "https://www.yelp.com/biz/candy-lounge-bronx?adjust_creative=yhLoLzsNXKw40xZ5RCWPpA&utm_campaign=yelp_api_v3&utm_medium=api_v3_business_search&utm_source=yhLoLzsNXKw40xZ5RCWPpA", "distance": 2725.018934751752, "coordinates": {"latitude": 40.8579978942871, "longitude": -73.8848037719727}, "alias": "candy-lounge-bronx", "image_url": "", "categories": [{"alias": "lounges", "title": "Lounges"}], "display_phone": "(347) 577-6015", "phone": "+13475776015", "id": "R6ZGrqUZ6byL-ReUHQHahg", "is_closed": false, "location": {"city": "Bronx", "display_address": ["608 E Fordham Rd", "Bronx, NY 10458"], "country": "US", "address2": "", "address3": "", "state": "NY", "address1": "608 E Fordham Rd", "zip_code": "10458"}}, {"rating": 4.0, "review_count": 109, "name": "Lexa Bar & Garden", "transactions": [], "url": "https://www.yelp.com/biz/lexa-bar-and-garden-norwood?adjust_creative=yhLoLzsNXKw40xZ5RCWPpA&utm_campaign=yelp_api_v3&utm_medium=api_v3_business_search&utm_source=yhLoLzsNXKw40xZ5RCWPpA", "price": "$$", "distance": 2745.1243005777324, "coordinates": {"latitude": 40.87212, "longitude": -73.87755}, "alias": "lexa-bar-and-garden-norwood", "image_url": "https://s3-media2.fl.yelpcdn.com/bphoto/fcsLTHvCvq1WCsp0mOU6JA/o.jpg", "categories": [{"alias": "burgers", "title": "Burgers"}, {"alias": "beerbar", "title": "Beer Bar"}, {"alias": "pizza", "title": "Pizza"}], "display_phone": "(929) 243-3300", "phone": "+19292433300", "id": "nxMJqEab557oh4G7D-5Ygg", "is_closed": false, "location": {"city": "Norwood", "display_address": ["357 E 204th St", "Norwood, NY 10467"], "country": "US", "address2": "", "address3": "", "state": "NY", "address1": "357 E 204th St", "zip_code": "10467"}}, {"rating": 3.5, "review_count": 3, "name": "IslaCafeBx", "transactions": [], "url": "https://www.yelp.com/biz/islacafebx-bronx?adjust_creative=yhLoLzsNXKw40xZ5RCWPpA&utm_campaign=yelp_api_v3&utm_medium=api_v3_business_search&utm_source=yhLoLzsNXKw40xZ5RCWPpA", "distance": 2773.1637790805457, "coordinates": {"latitude": 40.8327766723333, "longitude": -73.8639456945018}, "alias": "islacafebx-bronx", "image_url": "https://s3-media1.fl.yelpcdn.com/bphoto/TsS7tIkfd4h-La_e6BIkyw/o.jpg", "categories": [{"alias": "latin", "title": "Latin American"}, {"alias": "cocktailbars", "title": "Cocktail Bars"}], "display_phone": "(718) 828-3800", "phone": "+17188283800", "id": "q-_O0eVBE_VjcGeF9fB73Q", "is_closed": false, "location": {"city": "Bronx", "display_address": ["1859 Westchester Ave", "Bronx, NY 10472"], "country": "US", "address2": null, "address3": "", "state": "NY", "address1": "1859 Westchester Ave", "zip_code": "10472"}}, {"rating": 4.0, "review_count": 112, "name": "Clinton Hall", "transactions": ["pickup", "delivery"], "url": "https://www.yelp.com/biz/clinton-hall-bronx-4?adjust_creative=yhLoLzsNXKw40xZ5RCWPpA&utm_campaign=yelp_api_v3&utm_medium=api_v3_business_search&utm_source=yhLoLzsNXKw40xZ5RCWPpA", "price": "$$", "distance": 2791.2938677459438, "coordinates": {"latitude": 40.85735, "longitude": -73.88574}, "alias": "clinton-hall-bronx-4", "image_url": "https://s3-media2.fl.yelpcdn.com/bphoto/-NQBAB969R87Vy3Xnr6teQ/o.jpg", "categories": [{"alias": "beergardens", "title": "Beer Gardens"}, {"alias": "newamerican", "title": "American (New)"}, {"alias": "bars", "title": "Bars"}], "display_phone": "(718) 220-6400", "phone": "+17182206400", "id": "2O5w-15_AVnnVJEtlWWE_A", "is_closed": false, "location": {"city": "Bronx", "display_address": ["601 E 189th St", "Bronx, NY 10458"], "country": "US", "address2": null, "address3": "", "state": "NY", "address1": "601 E 189th St", "zip_code": "10458"}}, {"rating": 2.5, "review_count": 3, "name": "McDwyer's Pub", "transactions": [], "url": "https://www.yelp.com/biz/mcdwyers-pub-bronx?adjust_creative=yhLoLzsNXKw40xZ5RCWPpA&utm_campaign=yelp_api_v3&utm_medium=api_v3_business_search&utm_source=yhLoLzsNXKw40xZ5RCWPpA", "price": "$", "distance": 2795.755768961522, "coordinates": {"latitude": 40.8723845, "longitude": -73.8777909}, "alias": "mcdwyers-pub-bronx", "image_url": "", "categories": [{"alias": "nightlife", "title": "Nightlife"}], "display_phone": "(347) 427-0519", "phone": "+13474270519", "id": "2j4ENfk2XbzC5D2c4TZidg", "is_closed": false, "location": {"city": "Bronx", "display_address": ["331 E 204th St", "Bronx, NY 10467"], "country": "US", "address2": "", "address3": "", "state": "NY", "address1": "331 E 204th St", "zip_code": "10467"}}, {"rating": 3.5, "review_count": 11, "name": "Olivia's Restaurant Lounge", "transactions": [], "url": "https://www.yelp.com/biz/olivias-restaurant-lounge-east-bronx?adjust_creative=yhLoLzsNXKw40xZ5RCWPpA&utm_campaign=yelp_api_v3&utm_medium=api_v3_business_search&utm_source=yhLoLzsNXKw40xZ5RCWPpA", "price": "$$$$", "distance": 2801.7081159274085, "coordinates": {"latitude": 40.8325579767452, "longitude": -73.8641422286413}, "alias": "olivias-restaurant-lounge-east-bronx", "image_url": "https://s3-media3.fl.yelpcdn.com/bphoto/YSKuruySWewFeB5AWpNU2g/o.jpg", "categories": [{"alias": "lounges", "title": "Lounges"}, {"alias": "tradamerican", "title": "American (Traditional)"}], "display_phone": "(347) 281-9588", "phone": "+13472819588", "id": "OtVWNLpkeXwUMFLEmZ2utg", "is_closed": false, "location": {"city": "East Bronx", "display_address": ["1854 Westchester Ave", "East Bronx, NY 10472"], "country": "US", "address2": "", "address3": "", "state": "NY", "address1": "1854 Westchester Ave", "zip_code": "10472"}}, {"rating": 3.0, "review_count": 9, "name": "Mugzs Sports Bar", "transactions": [], "url": "https://www.yelp.com/biz/mugzs-sports-bar-bronx?adjust_creative=yhLoLzsNXKw40xZ5RCWPpA&utm_campaign=yelp_api_v3&utm_medium=api_v3_business_search&utm_source=yhLoLzsNXKw40xZ5RCWPpA", "price": "$", "distance": 2805.903547031026, "coordinates": {"latitude": 40.857139, "longitude": -73.885864}, "alias": "mugzs-sports-bar-bronx", "image_url": "https://s3-media3.fl.yelpcdn.com/bphoto/IOF_xYnXOM9b9t3QziBt7A/o.jpg", "categories": [{"alias": "divebars", "title": "Dive Bars"}], "display_phone": "(917) 299-5546", "phone": "+19172995546", "id": "TEKZ4441F1_qOpVbTiEFJQ", "is_closed": false, "location": {"city": "Bronx", "display_address": ["2476 Arthur Ave", "Bronx, NY 10458"], "country": "US", "address2": "", "address3": "", "state": "NY", "address1": "2476 Arthur Ave", "zip_code": "10458"}}, {"rating": 2.5, "review_count": 265, "name": "Mamajuana Cafe The Bronx", "transactions": [], "url": "https://www.yelp.com/biz/mamajuana-cafe-the-bronx-bronx?adjust_creative=yhLoLzsNXKw40xZ5RCWPpA&utm_campaign=yelp_api_v3&utm_medium=api_v3_business_search&utm_source=yhLoLzsNXKw40xZ5RCWPpA", "price": "$$", "distance": 2826.5963960694926, "coordinates": {"latitude": 40.8357557, "longitude": -73.8329151}, "alias": "mamajuana-cafe-the-bronx-bronx", "image_url": "https://s3-media4.fl.yelpcdn.com/bphoto/uCciqpanAt4GuAQM7Hx_dA/o.jpg", "categories": [{"alias": "latin", "title": "Latin American"}, {"alias": "wine_bars", "title": "Wine Bars"}], "display_phone": "(718) 824-8400", "phone": "+17188248400", "id": "-5JwknVLIT36YTGhvkuBaw", "is_closed": false, "location": {"city": "Bronx", "display_address": ["3233 E Tremont Ave", "Bronx, NY 10461"], "country": "US", "address2": "", "address3": "", "state": "NY", "address1": "3233 E Tremont Ave", "zip_code": "10461"}}, {"rating": 3.0, "review_count": 53, "name": "Howl at the Moon", "transactions": ["pickup", "delivery"], "url": "https://www.yelp.com/biz/howl-at-the-moon-bronx?adjust_creative=yhLoLzsNXKw40xZ5RCWPpA&utm_campaign=yelp_api_v3&utm_medium=api_v3_business_search&utm_source=yhLoLzsNXKw40xZ5RCWPpA", "price": "$", "distance": 2838.514603548763, "coordinates": {"latitude": 40.85764, "longitude": -73.88629}, "alias": "howl-at-the-moon-bronx", "image_url": "https://s3-media1.fl.yelpcdn.com/bphoto/k2aEbVC7n4FNlgwXMT4hrA/o.jpg", "categories": [{"alias": "sportsbars", "title": "Sports Bars"}, {"alias": "newamerican", "title": "American (New)"}], "display_phone": "(718) 561-7694", "phone": "+17185617694", "id": "UrUg6YdHU7JZcmO7W7Upqg", "is_closed": false, "location": {"city": "Bronx", "display_address": ["585 E 189th St", "Bronx, NY 10458"], "country": "US", "address2": "", "address3": "", "state": "NY", "address1": "585 E 189th St", "zip_code": "10458"}}, {"rating": 3.5, "review_count": 167, "name": "Michaelangelo's Little Italy", "transactions": ["pickup", "delivery"], "url": "https://www.yelp.com/biz/michaelangelos-little-italy-bronx-3?adjust_creative=yhLoLzsNXKw40xZ5RCWPpA&utm_campaign=yelp_api_v3&utm_medium=api_v3_business_search&utm_source=yhLoLzsNXKw40xZ5RCWPpA", "price": "$$", "distance": 2838.7789506583654, "coordinates": {"latitude": 40.8573321267268, "longitude": -73.8862630999689}, "alias": "michaelangelos-little-italy-bronx-3", "image_url": "https://s3-media3.fl.yelpcdn.com/bphoto/qU_x7WfJkMElZuuT8fthDw/o.jpg", "categories": [{"alias": "lounges", "title": "Lounges"}, {"alias": "italian", "title": "Italian"}, {"alias": "wine_bars", "title": "Wine Bars"}], "display_phone": "(718) 220-8355", "phone": "+17182208355", "id": "3xd4L_TdfdhuCjAzJecs6A", "is_closed": false, "location": {"city": "Bronx", "display_address": ["2477 Arthur Ave", "Bronx, NY 10458"], "country": "US", "address2": null, "address3": null, "state": "NY", "address1": "2477 Arthur Ave", "zip_code": "10458"}}, {"rating": 4.5, "review_count": 3, "name": "University of the Streets", "transactions": [], "url": "https://www.yelp.com/biz/university-of-the-streets-bronx?adjust_creative=yhLoLzsNXKw40xZ5RCWPpA&utm_campaign=yelp_api_v3&utm_medium=api_v3_business_search&utm_source=yhLoLzsNXKw40xZ5RCWPpA", "price": "$", "distance": 2875.6447691444196, "coordinates": {"latitude": 40.8545641, "longitude": -73.8866687}, "alias": "university-of-the-streets-bronx", "image_url": "https://s3-media2.fl.yelpcdn.com/bphoto/--M-4RD3gILkmj6u3gacKw/o.jpg", "categories": [{"alias": "theater", "title": "Performing Arts"}, {"alias": "musicvenues", "title": "Music Venues"}], "display_phone": "(212) 254-9300", "phone": "+12122549300", "id": "WIX1zcTRWtYALH6qMUp0ew", "is_closed": false, "location": {"city": "Bronx", "display_address": ["2381 Belmont Ave", "Bronx, NY 10458"], "country": "US", "address2": "", "address3": "", "state": "NY", "address1": "2381 Belmont Ave", "zip_code": "10458"}}, {"rating": 3.5, "review_count": 20, "name": "Rulay Lounge Bar & Restaurant", "transactions": ["restaurant_reservation", "pickup", "delivery"], "url": "https://www.yelp.com/biz/rulay-lounge-bar-and-restaurant-bronx-2?adjust_creative=yhLoLzsNXKw40xZ5RCWPpA&utm_campaign=yelp_api_v3&utm_medium=api_v3_business_search&utm_source=yhLoLzsNXKw40xZ5RCWPpA", "price": "$$", "distance": 2880.685117603363, "coordinates": {"latitude": 40.86773, "longitude": -73.88317}, "alias": "rulay-lounge-bar-and-restaurant-bronx-2", "image_url": "https://s3-media4.fl.yelpcdn.com/bphoto/t-mZ9xDszALXd1bqmjrhrg/o.jpg", "categories": [{"alias": "lounges", "title": "Lounges"}], "display_phone": "(929) 265-9357", "phone": "+19292659357", "id": "Pbd16Ur3N0iBCmg2khZVZQ", "is_closed": false, "location": {"city": "Bronx", "display_address": ["2959 Webster Ave", "Bronx, NY 10458"], "country": "US", "address2": null, "address3": "", "state": "NY", "address1": "2959 Webster Ave", "zip_code": "10458"}}, {"rating": 3.5, "review_count": 24, "name": "Jolly Tinker", "transactions": [], "url": "https://www.yelp.com/biz/jolly-tinker-bronx?adjust_creative=yhLoLzsNXKw40xZ5RCWPpA&utm_campaign=yelp_api_v3&utm_medium=api_v3_business_search&utm_source=yhLoLzsNXKw40xZ5RCWPpA", "price": "$", "distance": 2897.9883491601554, "coordinates": {"latitude": 40.867552, "longitude": -73.883549}, "alias": "jolly-tinker-bronx", "image_url": "https://s3-media2.fl.yelpcdn.com/bphoto/rFKYnhvEpT7ezw95JwuPqg/o.jpg", "categories": [{"alias": "bars", "title": "Bars"}, {"alias": "poolhalls", "title": "Pool Halls"}, {"alias": "tradamerican", "title": "American (Traditional)"}], "display_phone": "(347) 726-5644", "phone": "+13477265644", "id": "gR2s7NF9o6LHAkVaEkEOnw", "is_closed": false, "location": {"city": "Bronx", "display_address": ["2875 Webster Ave", "Bronx, NY 10458"], "country": "US", "address2": "", "address3": "", "state": "NY", "address1": "2875 Webster Ave", "zip_code": "10458"}}, {"rating": 3.5, "review_count": 7, "name": "Las Camelias", "transactions": [], "url": "https://www.yelp.com/biz/las-camelias-bronx?adjust_creative=yhLoLzsNXKw40xZ5RCWPpA&utm_campaign=yelp_api_v3&utm_medium=api_v3_business_search&utm_source=yhLoLzsNXKw40xZ5RCWPpA", "price": "$$", "distance": 2932.3249847505626, "coordinates": {"latitude": 40.8318906305213, "longitude": -73.8661270680281}, "alias": "las-camelias-bronx", "image_url": "https://s3-media2.fl.yelpcdn.com/bphoto/ImC_Gl4UxhhmB4H9mRa-Kw/o.jpg", "categories": [{"alias": "bars", "title": "Bars"}, {"alias": "colombian", "title": "Colombian"}], "display_phone": "(718) 794-1827", "phone": "+17187941827", "id": "jd2h5UljWa-Zot_M_Qo2Rw", "is_closed": false, "location": {"city": "Bronx", "display_address": ["1802 Westchester Ave", "Bronx, NY 10472"], "country": "US", "address2": "", "address3": "", "state": "NY", "address1": "1802 Westchester Ave", "zip_code": "10472"}}, {"rating": 5.0, "review_count": 5, "name": "Lehman Cigars", "transactions": [], "url": "https://www.yelp.com/biz/lehman-cigars-jerome-park?adjust_creative=yhLoLzsNXKw40xZ5RCWPpA&utm_campaign=yelp_api_v3&utm_medium=api_v3_business_search&utm_source=yhLoLzsNXKw40xZ5RCWPpA", "price": "$$", "distance": 2950.5737574878153, "coordinates": {"latitude": 40.86763, "longitude": -73.88416}, "alias": "lehman-cigars-jerome-park", "image_url": "https://s3-media1.fl.yelpcdn.com/bphoto/Yy1d6C1VSL0lvq1G2v0NZA/o.jpg", "categories": [{"alias": "cigarbars", "title": "Cigar Bars"}], "display_phone": "(929) 263-1730", "phone": "+19292631730", "id": "YLM4Y9CcV2_jLrFrcEJ_2A", "is_closed": false, "location": {"city": "Jerome Park", "display_address": ["388A Bedford Park Blvd", "Jerome Park, NY 10458"], "country": "US", "address2": "", "address3": "", "state": "NY", "address1": "388A Bedford Park Blvd", "zip_code": "10458"}}, {"rating": 1.0, "review_count": 1, "name": "Madison Square Boys'& Girls'club", "transactions": [], "url": "https://www.yelp.com/biz/madison-square-boys-and-girlsclub-bronx?adjust_creative=yhLoLzsNXKw40xZ5RCWPpA&utm_campaign=yelp_api_v3&utm_medium=api_v3_business_search&utm_source=yhLoLzsNXKw40xZ5RCWPpA", "distance": 2974.749947957809, "coordinates": {"latitude": 40.85843, "longitude": -73.88779}, "alias": "madison-square-boys-and-girlsclub-bronx", "image_url": "", "categories": [{"alias": "danceclubs", "title": "Dance Clubs"}], "display_phone": "(718) 733-5500", "phone": "+17187335500", "id": "fSqruffqYl0Kj1-kOU2zpw", "is_closed": false, "location": {"city": "Bronx", "display_address": ["543 E 189th St", "Bronx, NY 10458"], "country": "US", "address2": "", "address3": "", "state": "NY", "address1": "543 E 189th St", "zip_code": "10458"}}, {"rating": 5.0, "review_count": 1, "name": "Legend's Restaurant & Bar", "transactions": ["pickup", "delivery"], "url": "https://www.yelp.com/biz/legends-restaurant-and-bar-bronx?adjust_creative=yhLoLzsNXKw40xZ5RCWPpA&utm_campaign=yelp_api_v3&utm_medium=api_v3_business_search&utm_source=yhLoLzsNXKw40xZ5RCWPpA", "distance": 2989.9403734472794, "coordinates": {"latitude": 40.8326002761876, "longitude": -73.8696341961622}, "alias": "legends-restaurant-and-bar-bronx", "image_url": "https://s3-media1.fl.yelpcdn.com/bphoto/en7ZtIAHOWnN8zQHCDg9JQ/o.jpg", "categories": [{"alias": "latin", "title": "Latin American"}, {"alias": "bars", "title": "Bars"}, {"alias": "dominican", "title": "Dominican"}], "display_phone": "(347) 269-8008", "phone": "+13472698008", "id": "Xl3_Yl-tWwLY-nfIpQmybA", "is_closed": false, "location": {"city": "Bronx", "display_address": ["1735 E 172nd St", "Bronx, NY 10472"], "country": "US", "address2": "", "address3": null, "state": "NY", "address1": "1735 E 172nd St", "zip_code": "10472"}}, {"rating": 3.5, "review_count": 134, "name": "The Bronx Beer Hall", "transactions": [], "url": "https://www.yelp.com/biz/the-bronx-beer-hall-bronx?adjust_creative=yhLoLzsNXKw40xZ5RCWPpA&utm_campaign=yelp_api_v3&utm_medium=api_v3_business_search&utm_source=yhLoLzsNXKw40xZ5RCWPpA", "price": "$$", "distance": 3006.6788791038693, "coordinates": {"latitude": 40.854118, "longitude": -73.888175}, "alias": "the-bronx-beer-hall-bronx", "image_url": "https://s3-media2.fl.yelpcdn.com/bphoto/ZmMbuf1YTCi93GgFErwL-w/o.jpg", "categories": [{"alias": "newamerican", "title": "American (New)"}, {"alias": "pubs", "title": "Pubs"}, {"alias": "beer_and_wine", "title": "Beer, Wine & Spirits"}], "display_phone": "(347) 396-0555", "phone": "+13473960555", "id": "zEHzdRjEa23tcH585_SqHw", "is_closed": false, "location": {"city": "Bronx", "display_address": ["2344 Arthur Ave", "Bronx, NY 10458"], "country": "US", "address2": "", "address3": "", "state": "NY", "address1": "2344 Arthur Ave", "zip_code": "10458"}}, {"rating": 3.0, "review_count": 6, "name": "Club Valle Restaurant Caf\u00e8", "transactions": ["pickup", "delivery"], "url": "https://www.yelp.com/biz/club-valle-restaurant-caf%C3%A8-bronx?adjust_creative=yhLoLzsNXKw40xZ5RCWPpA&utm_campaign=yelp_api_v3&utm_medium=api_v3_business_search&utm_source=yhLoLzsNXKw40xZ5RCWPpA", "distance": 3018.2008803096346, "coordinates": {"latitude": 40.87862, "longitude": -73.87276}, "alias": "club-valle-restaurant-caf\u00e8-bronx", "image_url": "https://s3-media3.fl.yelpcdn.com/bphoto/9ynMRMQOL8r5pOTL-HfeIA/o.jpg", "categories": [{"alias": "cafes", "title": "Cafes"}, {"alias": "dominican", "title": "Dominican"}, {"alias": "bars", "title": "Bars"}], "display_phone": "(718) 798-3755", "phone": "+17187983755", "id": "__2TH8yKnk1GjcgL2MZEIw", "is_closed": false, "location": {"city": "Bronx", "display_address": ["352 E Gun Hill Rd", "Bronx, NY 10467"], "country": "US", "address2": "", "address3": null, "state": "NY", "address1": "352 E Gun Hill Rd", "zip_code": "10467"}}, {"rating": 1.0, "review_count": 1, "name": "Black Thorn Bar", "transactions": [], "url": "https://www.yelp.com/biz/black-thorn-bar-bronx?adjust_creative=yhLoLzsNXKw40xZ5RCWPpA&utm_campaign=yelp_api_v3&utm_medium=api_v3_business_search&utm_source=yhLoLzsNXKw40xZ5RCWPpA", "distance": 3032.817887579774, "coordinates": {"latitude": 40.8740769, "longitude": -73.8794755}, "alias": "black-thorn-bar-bronx", "image_url": "", "categories": [{"alias": "nightlife", "title": "Nightlife"}], "display_phone": "(718) 231-1010", "phone": "+17182311010", "id": "tpfJUwUr4ISigPcKjxrpJw", "is_closed": false, "location": {"city": "Bronx", "display_address": ["3119 Bainbridge Ave", "Bronx, NY 10467"], "country": "US", "address2": "", "address3": "", "state": "NY", "address1": "3119 Bainbridge Ave", "zip_code": "10467"}}]}