{"region": {"center": {"latitude": 40.8454003116, "longitude": -73.8876447893}}, "total": 821, "businesses": [{"rating": 3.5, "review_count": 134, "name": "The Bronx Beer Hall", "transactions": [], "url": "https://www.yelp.com/biz/the-bronx-beer-hall-bronx?adjust_creative=yhLoLzsNXKw40xZ5RCWPpA&utm_campaign=yelp_api_v3&utm_medium=api_v3_business_search&utm_source=yhLoLzsNXKw40xZ5RCWPpA", "price": "$$", "distance": 976.7522323915148, "coordinates": {"latitude": 40.854118, "longitude": -73.888175}, "alias": "the-bronx-beer-hall-bronx", "image_url": "https://s3-media2.fl.yelpcdn.com/bphoto/ZmMbuf1YTCi93GgFErwL-w/o.jpg", "categories": [{"alias": "newamerican", "title": "American (New)"}, {"alias": "pubs", "title": "Pubs"}, {"alias": "beer_and_wine", "title": "Beer, Wine & Spirits"}], "display_phone": "(347) 396-0555", "phone": "+13473960555", "id": "zEHzdRjEa23tcH585_SqHw", "is_closed": false, "location": {"city": "Bronx", "display_address": ["2344 Arthur Ave", "Bronx, NY 10458"], "country": "US", "address2": "", "address3": "", "state": "NY", "address1": "2344 Arthur Ave", "zip_code": "10458"}}, {"rating": 4.5, "review_count": 3, "name": "University of the Streets", "transactions": [], "url": "https://www.yelp.com/biz/university-of-the-streets-bronx?adjust_creative=yhLoLzsNXKw40xZ5RCWPpA&utm_campaign=yelp_api_v3&utm_medium=api_v3_business_search&utm_source=yhLoLzsNXKw40xZ5RCWPpA", "price": "$", "distance": 1022.2677234429939, "coordinates": {"latitude": 40.8545641, "longitude": -73.8866687}, "alias": "university-of-the-streets-bronx", "image_url": "https://s3-media2.fl.yelpcdn.com/bphoto/--M-4RD3gILkmj6u3gacKw/o.jpg", "categories": [{"alias": "theater", "title": "Performing Arts"}, {"alias": "musicvenues", "title": "Music Venues"}], "display_phone": "(212) 254-9300", "phone": "+12122549300", "id": "WIX1zcTRWtYALH6qMUp0ew", "is_closed": false, "location": {"city": "Bronx", "display_address": ["2381 Belmont Ave", "Bronx, NY 10458"], "country": "US", "address2": "", "address3": "", "state": "NY", "address1": "2381 Belmont Ave", "zip_code": "10458"}}, {"rating": 5.0, "review_count": 1, "name": "JJ Sport Bar Restaurant", "transactions": ["delivery", "pickup"], "url": "https://www.yelp.com/biz/jj-sport-bar-restaurant-bronx-2?adjust_creative=yhLoLzsNXKw40xZ5RCWPpA&utm_campaign=yelp_api_v3&utm_medium=api_v3_business_search&utm_source=yhLoLzsNXKw40xZ5RCWPpA", "distance": 1057.2269703422708, "coordinates": {"latitude": 40.854546, "longitude": -73.891168}, "alias": "jj-sport-bar-restaurant-bronx-2", "image_url": "", "categories": [{"alias": "sportsbars", "title": "Sports Bars"}], "display_phone": "(718) 450-3411", "phone": "+17184503411", "id": "MdxsHDBhTa73dpQaEYEsfA", "is_closed": false, "location": {"city": "Bronx", "display_address": ["545 E 183rd St", "Bronx, NY 10458"], "country": "US", "address2": null, "address3": null, "state": "NY", "address1": "545 E 183rd St", "zip_code": "10458"}}, {"rating": 2.5, "review_count": 3, "name": "Champ's Sports Bar & Grill", "transactions": [], "url": "https://www.yelp.com/biz/champs-sports-bar-and-grill-west-bronx?adjust_creative=yhLoLzsNXKw40xZ5RCWPpA&utm_campaign=yelp_api_v3&utm_medium=api_v3_business_search&utm_source=yhLoLzsNXKw40xZ5RCWPpA", "price": "$$", "distance": 1179.9712235067461, "coordinates": {"latitude": 40.8559862813904, "longitude": -73.8886220473027}, "alias": "champs-sports-bar-and-grill-west-bronx", "image_url": "https://s3-media3.fl.yelpcdn.com/bphoto/dDKtw-MJkwsDwo08bLPUcA/o.jpg", "categories": [{"alias": "sportsbars", "title": "Sports Bars"}], "display_phone": "", "phone": "", "id": "hFab_XHl9IAMoz4HDs5X0Q", "is_closed": false, "location": {"city": "West Bronx", "display_address": ["566 E 187th St", "West Bronx, NY 10458"], "country": "US", "address2": "", "address3": "", "state": "NY", "address1": "566 E 187th St", "zip_code": "10458"}}, {"rating": 1.5, "review_count": 4, "name": "Praia Lounge", "transactions": [], "url": "https://www.yelp.com/biz/praia-lounge-bronx?adjust_creative=yhLoLzsNXKw40xZ5RCWPpA&utm_campaign=yelp_api_v3&utm_medium=api_v3_business_search&utm_source=yhLoLzsNXKw40xZ5RCWPpA", "price": "$$", "distance": 1271.4754162724703, "coordinates": {"latitude": 40.8459809305815, "longitude": -73.9027410373092}, "alias": "praia-lounge-bronx", "image_url": "https://s3-media1.fl.yelpcdn.com/bphoto/XyfZ2R-iX_5G7tsqiBSBHQ/o.jpg", "categories": [{"alias": "hookah_bars", "title": "Hookah Bars"}, {"alias": "lounges", "title": "Lounges"}], "display_phone": "(347) 796-1805", "phone": "+13477961805", "id": "0xoW5HVhh-JAbxdXfik-aQ", "is_closed": false, "location": {"city": "Bronx", "display_address": ["1805 Carter Ave", "Bronx, NY 10457"], "country": "US", "address2": "", "address3": "", "state": "NY", "address1": "1805 Carter Ave", "zip_code": "10457"}}, {"rating": 3.0, "review_count": 2, "name": "El Lider Bar & Restaurant", "transactions": [], "url": "https://www.yelp.com/biz/el-lider-bar-and-restaurant-bronx?adjust_creative=yhLoLzsNXKw40xZ5RCWPpA&utm_campaign=yelp_api_v3&utm_medium=api_v3_business_search&utm_source=yhLoLzsNXKw40xZ5RCWPpA", "distance": 1316.6035694972047, "coordinates": {"latitude": 40.8558, "longitude": -73.895}, "alias": "el-lider-bar-and-restaurant-bronx", "image_url": "https://s3-media2.fl.yelpcdn.com/bphoto/cXKLeRLH2-2OuYINJDLwkw/o.jpg", "categories": [{"alias": "nightlife", "title": "Nightlife"}], "display_phone": "(718) 220-2923", "phone": "+17182202923", "id": "pGSySf9NOHfFF22VTnCXuw", "is_closed": false, "location": {"city": "Bronx", "display_address": ["4535 Park Ave", "Bronx, NY 10457"], "country": "US", "address2": null, "address3": null, "state": "NY", "address1": "4535 Park Ave", "zip_code": "10457"}}, {"rating": 3.0, "review_count": 9, "name": "Mugzs Sports Bar", "transactions": [], "url": "https://www.yelp.com/biz/mugzs-sports-bar-bronx?adjust_creative=yhLoLzsNXKw40xZ5RCWPpA&utm_campaign=yelp_api_v3&utm_medium=api_v3_business_search&utm_source=yhLoLzsNXKw40xZ5RCWPpA", "price": "$", "distance": 1318.1426546172133, "coordinates": {"latitude": 40.857139, "longitude": -73.885864}, "alias": "mugzs-sports-bar-bronx", "image_url": "https://s3-media3.fl.yelpcdn.com/bphoto/IOF_xYnXOM9b9t3QziBt7A/o.jpg", "categories": [{"alias": "divebars", "title": "Dive Bars"}], "display_phone": "(917) 299-5546", "phone": "+19172995546", "id": "TEKZ4441F1_qOpVbTiEFJQ", "is_closed": false, "location": {"city": "Bronx", "display_address": ["2476 Arthur Ave", "Bronx, NY 10458"], "country": "US", "address2": "", "address3": "", "state": "NY", "address1": "2476 Arthur Ave", "zip_code": "10458"}}, {"rating": 3.5, "review_count": 167, "name": "Michaelangelo's Little Italy", "transactions": ["delivery", "pickup"], "url": "https://www.yelp.com/biz/michaelangelos-little-italy-bronx-3?adjust_creative=yhLoLzsNXKw40xZ5RCWPpA&utm_campaign=yelp_api_v3&utm_medium=api_v3_business_search&utm_source=yhLoLzsNXKw40xZ5RCWPpA", "price": "$$", "distance": 1331.8356932944705, "coordinates": {"latitude": 40.8573321267268, "longitude": -73.8862630999689}, "alias": "michaelangelos-little-italy-bronx-3", "image_url": "https://s3-media3.fl.yelpcdn.com/bphoto/qU_x7WfJkMElZuuT8fthDw/o.jpg", "categories": [{"alias": "lounges", "title": "Lounges"}, {"alias": "italian", "title": "Italian"}, {"alias": "wine_bars", "title": "Wine Bars"}], "display_phone": "(718) 220-8355", "phone": "+17182208355", "id": "3xd4L_TdfdhuCjAzJecs6A", "is_closed": false, "location": {"city": "Bronx", "display_address": ["2477 Arthur Ave", "Bronx, NY 10458"], "country": "US", "address2": null, "address3": null, "state": "NY", "address1": "2477 Arthur Ave", "zip_code": "10458"}}, {"rating": 5.0, "review_count": 1, "name": "Fiesta Bar & Restaurant", "transactions": [], "url": "https://www.yelp.com/biz/fiesta-bar-and-restaurant-bronx-2?adjust_creative=yhLoLzsNXKw40xZ5RCWPpA&utm_campaign=yelp_api_v3&utm_medium=api_v3_business_search&utm_source=yhLoLzsNXKw40xZ5RCWPpA", "price": "$", "distance": 1331.8406772901521, "coordinates": {"latitude": 40.8570361, "longitude": -73.8909451}, "alias": "fiesta-bar-and-restaurant-bronx-2", "image_url": "https://s3-media4.fl.yelpcdn.com/bphoto/DTcIpYqknuiYN9TQh2Hf9w/o.jpg", "categories": [{"alias": "bars", "title": "Bars"}], "display_phone": "(718) 733-2211", "phone": "+17187332211", "id": "qq2J64FJbbYhiv0A31q9kg", "is_closed": false, "location": {"city": "Bronx", "display_address": ["4640 3rd Ave", "Bronx, NY 10458"], "country": "US", "address2": "", "address3": "", "state": "NY", "address1": "4640 3rd Ave", "zip_code": "10458"}}, {"rating": 4.0, "review_count": 112, "name": "Clinton Hall", "transactions": ["delivery", "pickup"], "url": "https://www.yelp.com/biz/clinton-hall-bronx-4?adjust_creative=yhLoLzsNXKw40xZ5RCWPpA&utm_campaign=yelp_api_v3&utm_medium=api_v3_business_search&utm_source=yhLoLzsNXKw40xZ5RCWPpA", "price": "$$", "distance": 1343.246734322697, "coordinates": {"latitude": 40.85735, "longitude": -73.88574}, "alias": "clinton-hall-bronx-4", "image_url": "https://s3-media2.fl.yelpcdn.com/bphoto/-NQBAB969R87Vy3Xnr6teQ/o.jpg", "categories": [{"alias": "beergardens", "title": "Beer Gardens"}, {"alias": "newamerican", "title": "American (New)"}, {"alias": "bars", "title": "Bars"}], "display_phone": "(718) 220-6400", "phone": "+17182206400", "id": "2O5w-15_AVnnVJEtlWWE_A", "is_closed": false, "location": {"city": "Bronx", "display_address": ["601 E 189th St", "Bronx, NY 10458"], "country": "US", "address2": null, "address3": "", "state": "NY", "address1": "601 E 189th St", "zip_code": "10458"}}, {"rating": 3.0, "review_count": 53, "name": "Howl at the Moon", "transactions": ["delivery", "pickup"], "url": "https://www.yelp.com/biz/howl-at-the-moon-bronx?adjust_creative=yhLoLzsNXKw40xZ5RCWPpA&utm_campaign=yelp_api_v3&utm_medium=api_v3_business_search&utm_source=yhLoLzsNXKw40xZ5RCWPpA", "price": "$", "distance": 1371.9493590690997, "coordinates": {"latitude": 40.85764, "longitude": -73.88629}, "alias": "howl-at-the-moon-bronx", "image_url": "https://s3-media1.fl.yelpcdn.com/bphoto/k2aEbVC7n4FNlgwXMT4hrA/o.jpg", "categories": [{"alias": "sportsbars", "title": "Sports Bars"}, {"alias": "newamerican", "title": "American (New)"}], "display_phone": "(718) 561-7694", "phone": "+17185617694", "id": "UrUg6YdHU7JZcmO7W7Upqg", "is_closed": false, "location": {"city": "Bronx", "display_address": ["585 E 189th St", "Bronx, NY 10458"], "country": "US", "address2": "", "address3": "", "state": "NY", "address1": "585 E 189th St", "zip_code": "10458"}}, {"rating": 2.0, "review_count": 1, "name": "Candy Lounge", "transactions": [], "url": "https://www.yelp.com/biz/candy-lounge-bronx?adjust_creative=yhLoLzsNXKw40xZ5RCWPpA&utm_campaign=yelp_api_v3&utm_medium=api_v3_business_search&utm_source=yhLoLzsNXKw40xZ5RCWPpA", "distance": 1426.0134251178422, "coordinates": {"latitude": 40.8579978942871, "longitude": -73.8848037719727}, "alias": "candy-lounge-bronx", "image_url": "", "categories": [{"alias": "lounges", "title": "Lounges"}], "display_phone": "(347) 577-6015", "phone": "+13475776015", "id": "R6ZGrqUZ6byL-ReUHQHahg", "is_closed": false, "location": {"city": "Bronx", "display_address": ["608 E Fordham Rd", "Bronx, NY 10458"], "country": "US", "address2": "", "address3": "", "state": "NY", "address1": "608 E Fordham Rd", "zip_code": "10458"}}, {"rating": 1.0, "review_count": 1, "name": "Madison Square Boys'& Girls'club", "transactions": [], "url": "https://www.yelp.com/biz/madison-square-boys-and-girlsclub-bronx?adjust_creative=yhLoLzsNXKw40xZ5RCWPpA&utm_campaign=yelp_api_v3&utm_medium=api_v3_business_search&utm_source=yhLoLzsNXKw40xZ5RCWPpA", "distance": 1470.1632599624681, "coordinates": {"latitude": 40.85843, "longitude": -73.88779}, "alias": "madison-square-boys-and-girlsclub-bronx", "image_url": "", "categories": [{"alias": "danceclubs", "title": "Dance Clubs"}], "display_phone": "(718) 733-5500", "phone": "+17187335500", "id": "fSqruffqYl0Kj1-kOU2zpw", "is_closed": false, "location": {"city": "Bronx", "display_address": ["543 E 189th St", "Bronx, NY 10458"], "country": "US", "address2": "", "address3": "", "state": "NY", "address1": "543 E 189th St", "zip_code": "10458"}}, {"rating": 2.5, "review_count": 2, "name": "Gravity Lounge And Restaurant", "transactions": [], "url": "https://www.yelp.com/biz/gravity-lounge-and-restaurant-claremont?adjust_creative=yhLoLzsNXKw40xZ5RCWPpA&utm_campaign=yelp_api_v3&utm_medium=api_v3_business_search&utm_source=yhLoLzsNXKw40xZ5RCWPpA", "distance": 1623.3312436740557, "coordinates": {"latitude": 40.8394737303361, "longitude": -73.9052808722379}, "alias": "gravity-lounge-and-restaurant-claremont", "image_url": "https://s3-media4.fl.yelpcdn.com/bphoto/ZDXRx99cJs1vJulnHC3CXg/o.jpg", "categories": [{"alias": "lounges", "title": "Lounges"}], "display_phone": "(646) 225-8048", "phone": "+16462258048", "id": "n6vKNwu5Nd2O9vYk_ffvhw", "is_closed": false, "location": {"city": "Claremont", "display_address": ["1538 Webster Ave", "Claremont, NY 10457"], "country": "US", "address2": "", "address3": "", "state": "NY", "address1": "1538 Webster Ave", "zip_code": "10457"}}, {"rating": 2.0, "review_count": 98, "name": "Applebee's Grill + Bar", "transactions": [], "url": "https://www.yelp.com/biz/applebees-grill-bar-bronx-2?adjust_creative=yhLoLzsNXKw40xZ5RCWPpA&utm_campaign=yelp_api_v3&utm_medium=api_v3_business_search&utm_source=yhLoLzsNXKw40xZ5RCWPpA", "price": "$$", "distance": 1652.1517304365113, "coordinates": {"latitude": 40.860076, "longitude": -73.890714}, "alias": "applebees-grill-bar-bronx-2", "image_url": "https://s3-media3.fl.yelpcdn.com/bphoto/XZsSXOvvOZOWD44EV5QkuA/o.jpg", "categories": [{"alias": "tradamerican", "title": "American (Traditional)"}, {"alias": "sportsbars", "title": "Sports Bars"}, {"alias": "burgers", "title": "Burgers"}], "display_phone": "(347) 226-5120", "phone": "+13472265120", "id": "kngH_TXrwqZpSx259f68Tg", "is_closed": false, "location": {"city": "Bronx", "display_address": ["4750-4758 Third Ave", "Bronx, NY 10458"], "country": "US", "address2": "", "address3": "", "state": "NY", "address1": "4750-4758 Third Ave", "zip_code": "10458"}}, {"rating": 5.0, "review_count": 8, "name": "Boca Restaurant and Lounge", "transactions": [], "url": "https://www.yelp.com/biz/boca-restaurant-and-lounge-bronx?adjust_creative=yhLoLzsNXKw40xZ5RCWPpA&utm_campaign=yelp_api_v3&utm_medium=api_v3_business_search&utm_source=yhLoLzsNXKw40xZ5RCWPpA", "distance": 1676.523852934242, "coordinates": {"latitude": 40.8599400757929, "longitude": -73.8929201290011}, "alias": "boca-restaurant-and-lounge-bronx", "image_url": "https://s3-media2.fl.yelpcdn.com/bphoto/23hGXsN9nJpnce4TzFq15g/o.jpg", "categories": [{"alias": "newamerican", "title": "American (New)"}, {"alias": "lounges", "title": "Lounges"}], "display_phone": "(917) 688-1031", "phone": "+19176881031", "id": "6_xJeFRdbKeX5AjKu6qzgA", "is_closed": false, "location": {"city": "Bronx", "display_address": ["2458 Webster Ave", "Bronx, NY 10458"], "country": "US", "address2": "", "address3": null, "state": "NY", "address1": "2458 Webster Ave", "zip_code": "10458"}}, {"rating": 1.0, "review_count": 2, "name": "Oasis Hookah Lounge", "transactions": [], "url": "https://www.yelp.com/biz/oasis-hookah-lounge-east-bronx?adjust_creative=yhLoLzsNXKw40xZ5RCWPpA&utm_campaign=yelp_api_v3&utm_medium=api_v3_business_search&utm_source=yhLoLzsNXKw40xZ5RCWPpA", "price": "$$", "distance": 1707.2334704243085, "coordinates": {"latitude": 40.8477034909822, "longitude": -73.8675779973095}, "alias": "oasis-hookah-lounge-east-bronx", "image_url": "https://s3-media2.fl.yelpcdn.com/bphoto/W2tyMxNBtvp5JgafxTLtaQ/o.jpg", "categories": [{"alias": "hookah_bars", "title": "Hookah Bars"}], "display_phone": "(347) 867-9384", "phone": "+13478679384", "id": "Lzj1qOHUlHI5PvL9wLT3pw", "is_closed": false, "location": {"city": "East Bronx", "display_address": ["1907 White Plains Rd", "East Bronx, NY 10462"], "country": "US", "address2": "", "address3": "", "state": "NY", "address1": "1907 White Plains Rd", "zip_code": "10462"}}, {"rating": 4.0, "review_count": 40, "name": "Istanbul Cafe", "transactions": [], "url": "https://www.yelp.com/biz/istanbul-cafe-bronx?adjust_creative=yhLoLzsNXKw40xZ5RCWPpA&utm_campaign=yelp_api_v3&utm_medium=api_v3_business_search&utm_source=yhLoLzsNXKw40xZ5RCWPpA", "price": "$$", "distance": 1711.1717428587942, "coordinates": {"latitude": 40.84773, "longitude": -73.86734}, "alias": "istanbul-cafe-bronx", "image_url": "https://s3-media2.fl.yelpcdn.com/bphoto/OCBbzi2MGn3cTCSt2CPISQ/o.jpg", "categories": [{"alias": "hookah_bars", "title": "Hookah Bars"}], "display_phone": "(347) 281-9600", "phone": "+13472819600", "id": "MFMSxL7cUlZpQlOVmRoh9g", "is_closed": false, "location": {"city": "Bronx", "display_address": ["1905 White Plains Rd", "Fl 2", "Bronx, NY 10462"], "country": "US", "address2": "Fl 2", "address3": "", "state": "NY", "address1": "1905 White Plains Rd", "zip_code": "10462"}}, {"rating": 3.5, "review_count": 45, "name": "Park Billiards & Cafe", "transactions": [], "url": "https://www.yelp.com/biz/park-billiards-and-cafe-bronx-2?adjust_creative=yhLoLzsNXKw40xZ5RCWPpA&utm_campaign=yelp_api_v3&utm_medium=api_v3_business_search&utm_source=yhLoLzsNXKw40xZ5RCWPpA", "price": "$$", "distance": 1797.5036570207114, "coordinates": {"latitude": 40.850772, "longitude": -73.867485}, "alias": "park-billiards-and-cafe-bronx-2", "image_url": "https://s3-media2.fl.yelpcdn.com/bphoto/ZEhg8UVEJsaubT_1beLXSQ/o.jpg", "categories": [{"alias": "poolhalls", "title": "Pool Halls"}, {"alias": "sportsbars", "title": "Sports Bars"}], "display_phone": "(718) 829-3051", "phone": "+17188293051", "id": "u26k3wz5cm5LzzfzHlRdQw", "is_closed": false, "location": {"city": "Bronx", "display_address": ["2020 White Plains Rd", "Bronx, NY 10462"], "country": "US", "address2": "", "address3": "", "state": "NY", "address1": "2020 White Plains Rd", "zip_code": "10462"}}, {"rating": 4.5, "review_count": 9, "name": "Lotus Lounge", "transactions": [], "url": "https://www.yelp.com/biz/lotus-lounge-bronx?adjust_creative=yhLoLzsNXKw40xZ5RCWPpA&utm_campaign=yelp_api_v3&utm_medium=api_v3_business_search&utm_source=yhLoLzsNXKw40xZ5RCWPpA", "price": "$$", "distance": 1834.0488273831584, "coordinates": {"latitude": 40.84546, "longitude": -73.866}, "alias": "lotus-lounge-bronx", "image_url": "https://s3-media3.fl.yelpcdn.com/bphoto/JtyDMoo31TiESkxeK8Y3BA/o.jpg", "categories": [{"alias": "hookah_bars", "title": "Hookah Bars"}], "display_phone": "(347) 972-9840", "phone": "+13479729840", "id": "GvMkdNIYB8K5UOjJiKm8ew", "is_closed": false, "location": {"city": "Bronx", "display_address": ["1800 White Plains Rd", "Bronx, NY 10462"], "country": "US", "address2": "", "address3": null, "state": "NY", "address1": "1800 White Plains Rd", "zip_code": "10462"}}, {"rating": 2.5, "review_count": 104, "name": "Cafe Colonial Restaurant", "transactions": ["delivery", "pickup"], "url": "https://www.yelp.com/biz/cafe-colonial-restaurant-bronx-2?adjust_creative=yhLoLzsNXKw40xZ5RCWPpA&utm_campaign=yelp_api_v3&utm_medium=api_v3_business_search&utm_source=yhLoLzsNXKw40xZ5RCWPpA", "price": "$$", "distance": 1885.18663180342, "coordinates": {"latitude": 40.85265, "longitude": -73.86757}, "alias": "cafe-colonial-restaurant-bronx-2", "image_url": "https://s3-media3.fl.yelpcdn.com/bphoto/KPIpru_uxb0pFSQQOnKquw/o.jpg", "categories": [{"alias": "spanish", "title": "Spanish"}, {"alias": "bars", "title": "Bars"}, {"alias": "latin", "title": "Latin American"}], "display_phone": "(718) 824-1933", "phone": "+17188241933", "id": "N32lcUnshizWWKrGklsf9g", "is_closed": false, "location": {"city": "Bronx", "display_address": ["2072 White Plains Rd", "Bronx, NY 10462"], "country": "US", "address2": "", "address3": "", "state": "NY", "address1": "2072 White Plains Rd", "zip_code": "10462"}}, {"rating": 3.0, "review_count": 12, "name": "Paradise Theater", "transactions": [], "url": "https://www.yelp.com/biz/paradise-theater-bronx?adjust_creative=yhLoLzsNXKw40xZ5RCWPpA&utm_campaign=yelp_api_v3&utm_medium=api_v3_business_search&utm_source=yhLoLzsNXKw40xZ5RCWPpA", "price": "$", "distance": 1903.6294731469354, "coordinates": {"latitude": 40.86055, "longitude": -73.89885}, "alias": "paradise-theater-bronx", "image_url": "https://s3-media4.fl.yelpcdn.com/bphoto/xXIjCYDQ-rvHFb5yj8W_0Q/o.jpg", "categories": [{"alias": "musicvenues", "title": "Music Venues"}], "display_phone": "", "phone": "", "id": "jXgl9QFaRN0eOpLAGP6Htg", "is_closed": false, "location": {"city": "Bronx", "display_address": ["2403 Grand Concourse", "Bronx, NY 10468"], "country": "US", "address2": "", "address3": "", "state": "NY", "address1": "2403 Grand Concourse", "zip_code": "10468"}}, {"rating": 3.0, "review_count": 14, "name": "Que Sabrosura! Restaurant & Bar", "transactions": ["delivery", "pickup"], "url": "https://www.yelp.com/biz/que-sabrosura-restaurant-and-bar-bronx-4?adjust_creative=yhLoLzsNXKw40xZ5RCWPpA&utm_campaign=yelp_api_v3&utm_medium=api_v3_business_search&utm_source=yhLoLzsNXKw40xZ5RCWPpA", "price": "$$", "distance": 1906.4073518963394, "coordinates": {"latitude": 40.85827, "longitude": -73.9027}, "alias": "que-sabrosura-restaurant-and-bar-bronx-4", "image_url": "https://s3-media2.fl.yelpcdn.com/bphoto/vMjOlHqlixs8yhJPrycFdA/o.jpg", "categories": [{"alias": "latin", "title": "Latin American"}, {"alias": "dominican", "title": "Dominican"}, {"alias": "hookah_bars", "title": "Hookah Bars"}], "display_phone": "(718) 365-2200", "phone": "+17183652200", "id": "0XDlyOlcwMCSxNSM1m2BVw", "is_closed": false, "location": {"city": "Bronx", "display_address": ["48 E 183rd St", "Bronx, NY 10453"], "country": "US", "address2": "", "address3": "", "state": "NY", "address1": "48 E 183rd St", "zip_code": "10453"}}, {"rating": 3.5, "review_count": 43, "name": "Vista Hermosa Restaurant", "transactions": ["delivery", "pickup"], "url": "https://www.yelp.com/biz/vista-hermosa-restaurant-bronx?adjust_creative=yhLoLzsNXKw40xZ5RCWPpA&utm_campaign=yelp_api_v3&utm_medium=api_v3_business_search&utm_source=yhLoLzsNXKw40xZ5RCWPpA", "price": "$$", "distance": 1938.630230130907, "coordinates": {"latitude": 40.8287, "longitude": -73.88123}, "alias": "vista-hermosa-restaurant-bronx", "image_url": "https://s3-media2.fl.yelpcdn.com/bphoto/_Y-flWh4nXZfCsYLIgKFfg/o.jpg", "categories": [{"alias": "mexican", "title": "Mexican"}, {"alias": "cocktailbars", "title": "Cocktail Bars"}], "display_phone": "(718) 860-9674", "phone": "+17188609674", "id": "Jvy_dhGSmiQM3Thf571FxA", "is_closed": false, "location": {"city": "Bronx", "display_address": ["1201 Evergreen Ave", "Bronx, NY 10472"], "country": "US", "address2": "", "address3": "", "state": "NY", "address1": "1201 Evergreen Ave", "zip_code": "10472"}}, {"rating": 4.5, "review_count": 14, "name": "Kirvens", "transactions": [], "url": "https://www.yelp.com/biz/kirvens-bronx?adjust_creative=yhLoLzsNXKw40xZ5RCWPpA&utm_campaign=yelp_api_v3&utm_medium=api_v3_business_search&utm_source=yhLoLzsNXKw40xZ5RCWPpA", "distance": 2048.2591662630457, "coordinates": {"latitude": 40.85439, "longitude": -73.8663897}, "alias": "kirvens-bronx", "image_url": "https://s3-media3.fl.yelpcdn.com/bphoto/t4OHNVi3HyD3x13K0L4fPQ/o.jpg", "categories": [{"alias": "pubs", "title": "Pubs"}], "display_phone": "(718) 829-0200", "phone": "+17188290200", "id": "mZV4nRj9XfNIAJc4RPLOzg", "is_closed": false, "location": {"city": "Bronx", "display_address": ["736 Lydig Ave", "Bronx, NY 10462"], "country": "US", "address2": "", "address3": null, "state": "NY", "address1": "736 Lydig Ave", "zip_code": "10462"}}, {"rating": 1.0, "review_count": 3, "name": "Cao Lounge", "transactions": [], "url": "https://www.yelp.com/biz/cao-lounge-bronx?adjust_creative=yhLoLzsNXKw40xZ5RCWPpA&utm_campaign=yelp_api_v3&utm_medium=api_v3_business_search&utm_source=yhLoLzsNXKw40xZ5RCWPpA", "price": "$", "distance": 2059.101060042921, "coordinates": {"latitude": 40.8492393, "longitude": -73.9116516}, "alias": "cao-lounge-bronx", "image_url": "https://s3-media3.fl.yelpcdn.com/bphoto/3dpL9co5ON6LjpCVYPf_ig/o.jpg", "categories": [{"alias": "lounges", "title": "Lounges"}], "display_phone": "(347) 560-3307", "phone": "+13475603307", "id": "S9HLVDsLTwJ_Y1vM0sMFDg", "is_closed": false, "location": {"city": "Bronx", "display_address": ["1793 Jerome Ave", "Bronx, NY 10453"], "country": "US", "address2": null, "address3": "", "state": "NY", "address1": "1793 Jerome Ave", "zip_code": "10453"}}, {"rating": 5.0, "review_count": 1, "name": "Legend's Restaurant & Bar", "transactions": ["delivery", "pickup"], "url": "https://www.yelp.com/biz/legends-restaurant-and-bar-bronx?adjust_creative=yhLoLzsNXKw40xZ5RCWPpA&utm_campaign=yelp_api_v3&utm_medium=api_v3_business_search&utm_source=yhLoLzsNXKw40xZ5RCWPpA", "distance": 2078.797167744364, "coordinates": {"latitude": 40.8326002761876, "longitude": -73.8696341961622}, "alias": "legends-restaurant-and-bar-bronx", "image_url": "https://s3-media1.fl.yelpcdn.com/bphoto/en7ZtIAHOWnN8zQHCDg9JQ/o.jpg", "categories": [{"alias": "latin", "title": "Latin American"}, {"alias": "bars", "title": "Bars"}, {"alias": "dominican", "title": "Dominican"}], "display_phone": "(347) 269-8008", "phone": "+13472698008", "id": "Xl3_Yl-tWwLY-nfIpQmybA", "is_closed": false, "location": {"city": "Bronx", "display_address": ["1735 E 172nd St", "Bronx, NY 10472"], "country": "US", "address2": "", "address3": null, "state": "NY", "address1": "1735 E 172nd St", "zip_code": "10472"}}, {"rating": 1.5, "review_count": 2, "name": "Star Billiards", "transactions": [], "url": "https://www.yelp.com/biz/star-billiards-bronx?adjust_creative=yhLoLzsNXKw40xZ5RCWPpA&utm_campaign=yelp_api_v3&utm_medium=api_v3_business_search&utm_source=yhLoLzsNXKw40xZ5RCWPpA", "price": "$", "distance": 2093.359341034196, "coordinates": {"latitude": 40.828886, "longitude": -73.875713}, "alias": "star-billiards-bronx", "image_url": "https://s3-media4.fl.yelpcdn.com/bphoto/fMqns-4c18Jhd90XHTzdBQ/o.jpg", "categories": [{"alias": "poolhalls", "title": "Pool Halls"}], "display_phone": "(718) 893-4360", "phone": "+17188934360", "id": "tupeOKELvjmsaZtuu-JmAw", "is_closed": false, "location": {"city": "Bronx", "display_address": ["1590 Westchester Ave", "Bronx, NY 10472"], "country": "US", "address2": "", "address3": "", "state": "NY", "address1": "1590 Westchester Ave", "zip_code": "10472"}}, {"rating": 3.5, "review_count": 460, "name": "F & J Pine Restaurant", "transactions": [], "url": "https://www.yelp.com/biz/f-and-j-pine-restaurant-bronx?adjust_creative=yhLoLzsNXKw40xZ5RCWPpA&utm_campaign=yelp_api_v3&utm_medium=api_v3_business_search&utm_source=yhLoLzsNXKw40xZ5RCWPpA", "price": "$$", "distance": 2167.1109489262917, "coordinates": {"latitude": 40.848685, "longitude": -73.862069}, "alias": "f-and-j-pine-restaurant-bronx", "image_url": "https://s3-media3.fl.yelpcdn.com/bphoto/5yr2WnfKGqj2muCu7QbP_g/o.jpg", "categories": [{"alias": "italian", "title": "Italian"}, {"alias": "wine_bars", "title": "Wine Bars"}], "display_phone": "(718) 792-5956", "phone": "+17187925956", "id": "oexDsgqmXc9Qe3fy3uYx7g", "is_closed": false, "location": {"city": "Bronx", "display_address": ["1913 Bronxdale Ave", "Bronx, NY 10462"], "country": "US", "address2": "", "address3": "", "state": "NY", "address1": "1913 Bronxdale Ave", "zip_code": "10462"}}, {"rating": 2.5, "review_count": 4, "name": "27 Sport Bar & Cafe", "transactions": [], "url": "https://www.yelp.com/biz/27-sport-bar-and-cafe-bronx?adjust_creative=yhLoLzsNXKw40xZ5RCWPpA&utm_campaign=yelp_api_v3&utm_medium=api_v3_business_search&utm_source=yhLoLzsNXKw40xZ5RCWPpA", "distance": 2301.6305289070774, "coordinates": {"latitude": 40.84437, "longitude": -73.91504}, "alias": "27-sport-bar-and-cafe-bronx", "image_url": "https://s3-media3.fl.yelpcdn.com/bphoto/QeVFGAcu7GTaMZrV0NOvwQ/o.jpg", "categories": [{"alias": "sportsbars", "title": "Sports Bars"}], "display_phone": "(718) 731-3585", "phone": "+17187313585", "id": "o1um3Mu4B--ahDcqpdF8pg", "is_closed": false, "location": {"city": "Bronx", "display_address": ["2 W Mount Eden Ave", "Bronx, NY 10452"], "country": "US", "address2": null, "address3": null, "state": "NY", "address1": "2 W Mount Eden Ave", "zip_code": "10452"}}, {"rating": 2.5, "review_count": 3, "name": "Crush Bar & Lounge", "transactions": [], "url": "https://www.yelp.com/biz/crush-bar-and-lounge-mount-eden?adjust_creative=yhLoLzsNXKw40xZ5RCWPpA&utm_campaign=yelp_api_v3&utm_medium=api_v3_business_search&utm_source=yhLoLzsNXKw40xZ5RCWPpA", "distance": 2328.093852848721, "coordinates": {"latitude": 40.8444286, "longitude": -73.9153081}, "alias": "crush-bar-and-lounge-mount-eden", "image_url": "https://s3-media2.fl.yelpcdn.com/bphoto/boEJGH9v0wC09zaF1aDIUg/o.jpg", "categories": [{"alias": "hookah_bars", "title": "Hookah Bars"}, {"alias": "lounges", "title": "Lounges"}], "display_phone": "", "phone": "", "id": "YrCYAPODwrnnJknfY7gxCw", "is_closed": false, "location": {"city": "Mount Eden", "display_address": ["10 W Mount Eden", "Mount Eden, NY 10452"], "country": "US", "address2": "", "address3": "", "state": "NY", "address1": "10 W Mount Eden", "zip_code": "10452"}}, {"rating": 3.5, "review_count": 7, "name": "Las Camelias", "transactions": [], "url": "https://www.yelp.com/biz/las-camelias-bronx?adjust_creative=yhLoLzsNXKw40xZ5RCWPpA&utm_campaign=yelp_api_v3&utm_medium=api_v3_business_search&utm_source=yhLoLzsNXKw40xZ5RCWPpA", "price": "$$", "distance": 2352.3096662761127, "coordinates": {"latitude": 40.8318906305213, "longitude": -73.8661270680281}, "alias": "las-camelias-bronx", "image_url": "https://s3-media2.fl.yelpcdn.com/bphoto/ImC_Gl4UxhhmB4H9mRa-Kw/o.jpg", "categories": [{"alias": "bars", "title": "Bars"}, {"alias": "colombian", "title": "Colombian"}], "display_phone": "(718) 794-1827", "phone": "+17187941827", "id": "jd2h5UljWa-Zot_M_Qo2Rw", "is_closed": false, "location": {"city": "Bronx", "display_address": ["1802 Westchester Ave", "Bronx, NY 10472"], "country": "US", "address2": "", "address3": "", "state": "NY", "address1": "1802 Westchester Ave", "zip_code": "10472"}}, {"rating": 2.0, "review_count": 127, "name": "Applebee's Grill + Bar", "transactions": ["pickup"], "url": "https://www.yelp.com/biz/applebees-grill-bar-bronx-7?adjust_creative=yhLoLzsNXKw40xZ5RCWPpA&utm_campaign=yelp_api_v3&utm_medium=api_v3_business_search&utm_source=yhLoLzsNXKw40xZ5RCWPpA", "price": "$$", "distance": 2416.231518287055, "coordinates": {"latitude": 40.83822, "longitude": -73.86072}, "alias": "applebees-grill-bar-bronx-7", "image_url": "https://s3-media4.fl.yelpcdn.com/bphoto/cacYSeeI0oUpvG59XXgORw/o.jpg", "categories": [{"alias": "tradamerican", "title": "American (Traditional)"}, {"alias": "sportsbars", "title": "Sports Bars"}, {"alias": "burgers", "title": "Burgers"}], "display_phone": "(347) 802-4202", "phone": "+13478024202", "id": "vPEIHwl9cZYYpOiNojDPyw", "is_closed": false, "location": {"city": "Bronx", "display_address": ["65 Metropolitan Oval", "Bronx, NY 10462"], "country": "US", "address2": "", "address3": "", "state": "NY", "address1": "65 Metropolitan Oval", "zip_code": "10462"}}, {"rating": 3.5, "review_count": 3, "name": "IslaCafeBx", "transactions": [], "url": "https://www.yelp.com/biz/islacafebx-bronx?adjust_creative=yhLoLzsNXKw40xZ5RCWPpA&utm_campaign=yelp_api_v3&utm_medium=api_v3_business_search&utm_source=yhLoLzsNXKw40xZ5RCWPpA", "distance": 2438.246897714356, "coordinates": {"latitude": 40.8327766723333, "longitude": -73.8639456945018}, "alias": "islacafebx-bronx", "image_url": "https://s3-media1.fl.yelpcdn.com/bphoto/TsS7tIkfd4h-La_e6BIkyw/o.jpg", "categories": [{"alias": "latin", "title": "Latin American"}, {"alias": "cocktailbars", "title": "Cocktail Bars"}], "display_phone": "(718) 828-3800", "phone": "+17188283800", "id": "q-_O0eVBE_VjcGeF9fB73Q", "is_closed": false, "location": {"city": "Bronx", "display_address": ["1859 Westchester Ave", "Bronx, NY 10472"], "country": "US", "address2": null, "address3": "", "state": "NY", "address1": "1859 Westchester Ave", "zip_code": "10472"}}, {"rating": 3.5, "review_count": 11, "name": "Olivia's Restaurant Lounge", "transactions": [], "url": "https://www.yelp.com/biz/olivias-restaurant-lounge-east-bronx?adjust_creative=yhLoLzsNXKw40xZ5RCWPpA&utm_campaign=yelp_api_v3&utm_medium=api_v3_business_search&utm_source=yhLoLzsNXKw40xZ5RCWPpA", "price": "$$$$", "distance": 2438.9076714129897, "coordinates": {"latitude": 40.8325579767452, "longitude": -73.8641422286413}, "alias": "olivias-restaurant-lounge-east-bronx", "image_url": "https://s3-media3.fl.yelpcdn.com/bphoto/YSKuruySWewFeB5AWpNU2g/o.jpg", "categories": [{"alias": "lounges", "title": "Lounges"}, {"alias": "tradamerican", "title": "American (Traditional)"}], "display_phone": "(347) 281-9588", "phone": "+13472819588", "id": "OtVWNLpkeXwUMFLEmZ2utg", "is_closed": false, "location": {"city": "East Bronx", "display_address": ["1854 Westchester Ave", "East Bronx, NY 10472"], "country": "US", "address2": "", "address3": "", "state": "NY", "address1": "1854 Westchester Ave", "zip_code": "10472"}}, {"rating": 5.0, "review_count": 5, "name": "Lehman Cigars", "transactions": [], "url": "https://www.yelp.com/biz/lehman-cigars-jerome-park?adjust_creative=yhLoLzsNXKw40xZ5RCWPpA&utm_campaign=yelp_api_v3&utm_medium=api_v3_business_search&utm_source=yhLoLzsNXKw40xZ5RCWPpA", "price": "$$", "distance": 2485.008891590771, "coordinates": {"latitude": 40.86763, "longitude": -73.88416}, "alias": "lehman-cigars-jerome-park", "image_url": "https://s3-media1.fl.yelpcdn.com/bphoto/Yy1d6C1VSL0lvq1G2v0NZA/o.jpg", "categories": [{"alias": "cigarbars", "title": "Cigar Bars"}], "display_phone": "(929) 263-1730", "phone": "+19292631730", "id": "YLM4Y9CcV2_jLrFrcEJ_2A", "is_closed": false, "location": {"city": "Jerome Park", "display_address": ["388A Bedford Park Blvd", "Jerome Park, NY 10458"], "country": "US", "address2": "", "address3": "", "state": "NY", "address1": "388A Bedford Park Blvd", "zip_code": "10458"}}, {"rating": 3.5, "review_count": 24, "name": "Jolly Tinker", "transactions": [], "url": "https://www.yelp.com/biz/jolly-tinker-bronx?adjust_creative=yhLoLzsNXKw40xZ5RCWPpA&utm_campaign=yelp_api_v3&utm_medium=api_v3_business_search&utm_source=yhLoLzsNXKw40xZ5RCWPpA", "price": "$", "distance": 2487.1222571016233, "coordinates": {"latitude": 40.867552, "longitude": -73.883549}, "alias": "jolly-tinker-bronx", "image_url": "https://s3-media2.fl.yelpcdn.com/bphoto/rFKYnhvEpT7ezw95JwuPqg/o.jpg", "categories": [{"alias": "bars", "title": "Bars"}, {"alias": "poolhalls", "title": "Pool Halls"}, {"alias": "tradamerican", "title": "American (Traditional)"}], "display_phone": "(347) 726-5644", "phone": "+13477265644", "id": "gR2s7NF9o6LHAkVaEkEOnw", "is_closed": false, "location": {"city": "Bronx", "display_address": ["2875 Webster Ave", "Bronx, NY 10458"], "country": "US", "address2": "", "address3": "", "state": "NY", "address1": "2875 Webster Ave", "zip_code": "10458"}}, {"rating": 5.0, "review_count": 4, "name": "El Sinaloense", "transactions": ["delivery", "pickup"], "url": "https://www.yelp.com/biz/el-sinaloense-west-bronx?adjust_creative=yhLoLzsNXKw40xZ5RCWPpA&utm_campaign=yelp_api_v3&utm_medium=api_v3_business_search&utm_source=yhLoLzsNXKw40xZ5RCWPpA", "distance": 2505.4520906478774, "coordinates": {"latitude": 40.8625361057465, "longitude": -73.9069879800081}, "alias": "el-sinaloense-west-bronx", "image_url": "https://s3-media2.fl.yelpcdn.com/bphoto/kwCBRkEziEhZkJoKE49Isg/o.jpg", "categories": [{"alias": "mexican", "title": "Mexican"}, {"alias": "bars", "title": "Bars"}], "display_phone": "(917) 801-4965", "phone": "+19178014965", "id": "WTrX6u33EUeejj6c5gRwjQ", "is_closed": false, "location": {"city": "West Bronx", "display_address": ["132 W Fordham Rd", "West Bronx, NY 10468"], "country": "US", "address2": "", "address3": "", "state": "NY", "address1": "132 W Fordham Rd", "zip_code": "10468"}}, {"rating": 3.5, "review_count": 20, "name": "Rulay Lounge Bar & Restaurant", "transactions": ["delivery", "restaurant_reservation", "pickup"], "url": "https://www.yelp.com/biz/rulay-lounge-bar-and-restaurant-bronx-2?adjust_creative=yhLoLzsNXKw40xZ5RCWPpA&utm_campaign=yelp_api_v3&utm_medium=api_v3_business_search&utm_source=yhLoLzsNXKw40xZ5RCWPpA", "price": "$$", "distance": 2509.6474238110673, "coordinates": {"latitude": 40.86773, "longitude": -73.88317}, "alias": "rulay-lounge-bar-and-restaurant-bronx-2", "image_url": "https://s3-media4.fl.yelpcdn.com/bphoto/t-mZ9xDszALXd1bqmjrhrg/o.jpg", "categories": [{"alias": "lounges", "title": "Lounges"}], "display_phone": "(929) 265-9357", "phone": "+19292659357", "id": "Pbd16Ur3N0iBCmg2khZVZQ", "is_closed": false, "location": {"city": "Bronx", "display_address": ["2959 Webster Ave", "Bronx, NY 10458"], "country": "US", "address2": null, "address3": "", "state": "NY", "address1": "2959 Webster Ave", "zip_code": "10458"}}, {"rating": 5.0, "review_count": 8, "name": "Pat O'brien Pub", "transactions": [], "url": "https://www.yelp.com/biz/pat-o-brien-pub-bronx?adjust_creative=yhLoLzsNXKw40xZ5RCWPpA&utm_campaign=yelp_api_v3&utm_medium=api_v3_business_search&utm_source=yhLoLzsNXKw40xZ5RCWPpA", "price": "$", "distance": 2513.5725290812047, "coordinates": {"latitude": 40.86693, "longitude": -73.8967}, "alias": "pat-o-brien-pub-bronx", "image_url": "https://s3-media1.fl.yelpcdn.com/bphoto/Yp4nbFQbsGYGMWUMzLD-Bg/o.jpg", "categories": [{"alias": "pubs", "title": "Pubs"}], "display_phone": "", "phone": "", "id": "O5B1Vm7o0Gfr7vm4Z7SYPw", "is_closed": false, "location": {"city": "Bronx", "display_address": ["28 E Kingsbridge Rd", "Bronx, NY 10468"], "country": "US", "address2": "", "address3": "", "state": "NY", "address1": "28 E Kingsbridge Rd", "zip_code": "10468"}}, {"rating": 3.0, "review_count": 2, "name": "Crystal Lounge", "transactions": [], "url": "https://www.yelp.com/biz/crystal-lounge-bronx?adjust_creative=yhLoLzsNXKw40xZ5RCWPpA&utm_campaign=yelp_api_v3&utm_medium=api_v3_business_search&utm_source=yhLoLzsNXKw40xZ5RCWPpA", "price": "$$$", "distance": 2527.4447363167474, "coordinates": {"latitude": 40.8247523, "longitude": -73.8996907}, "alias": "crystal-lounge-bronx", "image_url": "", "categories": [{"alias": "nightlife", "title": "Nightlife"}], "display_phone": "(718) 378-9229", "phone": "+17183789229", "id": "rJ7v2gUZiofUTgzKXlxBtQ", "is_closed": false, "location": {"city": "Bronx", "display_address": ["1035 Prospect Ave", "Bronx, NY 10459"], "country": "US", "address2": "", "address3": "", "state": "NY", "address1": "1035 Prospect Ave", "zip_code": "10459"}}, {"rating": 3.5, "review_count": 103, "name": "Step In Restaurant", "transactions": [], "url": "https://www.yelp.com/biz/step-in-restaurant-bronx?adjust_creative=yhLoLzsNXKw40xZ5RCWPpA&utm_campaign=yelp_api_v3&utm_medium=api_v3_business_search&utm_source=yhLoLzsNXKw40xZ5RCWPpA", "price": "$$", "distance": 2575.2178599917106, "coordinates": {"latitude": 40.833886, "longitude": -73.861084}, "alias": "step-in-restaurant-bronx", "image_url": "https://s3-media4.fl.yelpcdn.com/bphoto/NRUDTYCfPrVzHnGuen0x9w/o.jpg", "categories": [{"alias": "lounges", "title": "Lounges"}, {"alias": "tradamerican", "title": "American (Traditional)"}], "display_phone": "(718) 822-0562", "phone": "+17188220562", "id": "Obr6rLjib-n2S6IdJqasuQ", "is_closed": false, "location": {"city": "Bronx", "display_address": ["1309 Metropolitan Ave", "Bronx, NY 10462"], "country": "US", "address2": "", "address3": "", "state": "NY", "address1": "1309 Metropolitan Ave", "zip_code": "10462"}}, {"rating": 4.5, "review_count": 52, "name": "Suyo Gastrofusion", "transactions": [], "url": "https://www.yelp.com/biz/suyo-gastrofusion-bronx?adjust_creative=yhLoLzsNXKw40xZ5RCWPpA&utm_campaign=yelp_api_v3&utm_medium=api_v3_business_search&utm_source=yhLoLzsNXKw40xZ5RCWPpA", "price": "$$", "distance": 2624.9974925392685, "coordinates": {"latitude": 40.840872, "longitude": -73.918271}, "alias": "suyo-gastrofusion-bronx", "image_url": "https://s3-media1.fl.yelpcdn.com/bphoto/bAJM7bjvez1hLTXE2mh_Cg/o.jpg", "categories": [{"alias": "asianfusion", "title": "Asian Fusion"}, {"alias": "latin", "title": "Latin American"}, {"alias": "cocktailbars", "title": "Cocktail Bars"}], "display_phone": "(718) 537-7896", "phone": "+17185377896", "id": "t1_qBEjXscQn-mp6-or_sw", "is_closed": false, "location": {"city": "Bronx", "display_address": ["1401 Plaza Dr", "Bronx, NY 10452"], "country": "US", "address2": null, "address3": "", "state": "NY", "address1": "1401 Plaza Dr", "zip_code": "10452"}}, {"rating": 2.0, "review_count": 1, "name": "Equator Lounge", "transactions": [], "url": "https://www.yelp.com/biz/equator-lounge-bronx?adjust_creative=yhLoLzsNXKw40xZ5RCWPpA&utm_campaign=yelp_api_v3&utm_medium=api_v3_business_search&utm_source=yhLoLzsNXKw40xZ5RCWPpA", "price": "$$", "distance": 2630.528230551622, "coordinates": {"latitude": 40.84059, "longitude": -73.918278}, "alias": "equator-lounge-bronx", "image_url": "", "categories": [{"alias": "nightlife", "title": "Nightlife"}], "display_phone": "(718) 590-9084", "phone": "+17185909084", "id": "buDXsJI6DuwK9MaqpA1HJA", "is_closed": false, "location": {"city": "Bronx", "display_address": ["1401 Jerome Ave", "Bronx, NY 10452"], "country": "US", "address2": "", "address3": "", "state": "NY", "address1": "1401 Jerome Ave", "zip_code": "10452"}}, {"rating": 3.0, "review_count": 532, "name": "Salsa Con Fuego", "transactions": [], "url": "https://www.yelp.com/biz/salsa-con-fuego-bronx?adjust_creative=yhLoLzsNXKw40xZ5RCWPpA&utm_campaign=yelp_api_v3&utm_medium=api_v3_business_search&utm_source=yhLoLzsNXKw40xZ5RCWPpA", "price": "$$", "distance": 2749.445662509837, "coordinates": {"latitude": 40.86227, "longitude": -73.91149}, "alias": "salsa-con-fuego-bronx", "image_url": "https://s3-media2.fl.yelpcdn.com/bphoto/yYDupJduz2HT_KOBZbFHlg/o.jpg", "categories": [{"alias": "bars", "title": "Bars"}, {"alias": "latin", "title": "Latin American"}, {"alias": "venues", "title": "Venues & Event Spaces"}], "display_phone": "(718) 561-6161", "phone": "+17185616161", "id": "fyVLkWQ5CP5q1yP8nnsj5g", "is_closed": false, "location": {"city": "Bronx", "display_address": ["2297 Cedar Ave", "Bronx, NY 10468"], "country": "US", "address2": null, "address3": "", "state": "NY", "address1": "2297 Cedar Ave", "zip_code": "10468"}}, {"rating": 2.0, "review_count": 7, "name": "Gasolina Lounge", "transactions": ["delivery", "pickup"], "url": "https://www.yelp.com/biz/gasolina-lounge-new-york?adjust_creative=yhLoLzsNXKw40xZ5RCWPpA&utm_campaign=yelp_api_v3&utm_medium=api_v3_business_search&utm_source=yhLoLzsNXKw40xZ5RCWPpA", "price": "$$", "distance": 2814.809774281802, "coordinates": {"latitude": 40.863955, "longitude": -73.864878}, "alias": "gasolina-lounge-new-york", "image_url": "https://s3-media3.fl.yelpcdn.com/bphoto/RIjR1BIgWj5wGkqWhmhxNw/o.jpg", "categories": [{"alias": "bars", "title": "Bars"}, {"alias": "venues", "title": "Venues & Event Spaces"}, {"alias": "tradamerican", "title": "American (Traditional)"}], "display_phone": "(718) 708-5018", "phone": "+17187085018", "id": "yW-efAydaQTP1Ag1rYo4NQ", "is_closed": false, "location": {"city": "New York", "display_address": ["2525 Boston Rd", "New York, NY 10467"], "country": "US", "address2": "", "address3": "", "state": "NY", "address1": "2525 Boston Rd", "zip_code": "10467"}}, {"rating": 3.5, "review_count": 3, "name": "Krystal Bar & Lounge", "transactions": [], "url": "https://www.yelp.com/biz/krystal-bar-and-lounge-bronx?adjust_creative=yhLoLzsNXKw40xZ5RCWPpA&utm_campaign=yelp_api_v3&utm_medium=api_v3_business_search&utm_source=yhLoLzsNXKw40xZ5RCWPpA", "price": "$", "distance": 2856.3071203621075, "coordinates": {"latitude": 40.8458016663918, "longitude": -73.9215973825076}, "alias": "krystal-bar-and-lounge-bronx", "image_url": "https://s3-media2.fl.yelpcdn.com/bphoto/Gs7dW1i7QPBbH7KPaL24AA/o.jpg", "categories": [{"alias": "latin", "title": "Latin American"}, {"alias": "danceclubs", "title": "Dance Clubs"}, {"alias": "lounges", "title": "Lounges"}], "display_phone": "(917) 471-9756", "phone": "+19174719756", "id": "2QWgPYpJ6HHWve5qeiF4JA", "is_closed": false, "location": {"city": "Bronx", "display_address": ["1534 University Ave", "Bronx, NY 10453"], "country": "US", "address2": null, "address3": "", "state": "NY", "address1": "1534 University Ave", "zip_code": "10453"}}, {"rating": 5.0, "review_count": 1, "name": "King's Billiards", "transactions": [], "url": "https://www.yelp.com/biz/kings-billiards-bronx?adjust_creative=yhLoLzsNXKw40xZ5RCWPpA&utm_campaign=yelp_api_v3&utm_medium=api_v3_business_search&utm_source=yhLoLzsNXKw40xZ5RCWPpA", "price": "$", "distance": 2914.6273390086994, "coordinates": {"latitude": 40.83547, "longitude": -73.85558}, "alias": "kings-billiards-bronx", "image_url": "https://s3-media4.fl.yelpcdn.com/bphoto/si9WSzvNzcpv5tRCORRx1A/o.jpg", "categories": [{"alias": "poolbilliards", "title": "Pool & Billiards"}, {"alias": "poolhalls", "title": "Pool Halls"}], "display_phone": "(929) 777-9659", "phone": "+19297779659", "id": "KIyrR_-e4wDKdE_EpLwNgQ", "is_closed": false, "location": {"city": "Bronx", "display_address": ["1455 Unionport Rd", "Bronx, NY 10462"], "country": "US", "address2": null, "address3": "", "state": "NY", "address1": "1455 Unionport Rd", "zip_code": "10462"}}, {"rating": 3.5, "review_count": 7, "name": "O'Shea's Emerald Bar", "transactions": [], "url": "https://www.yelp.com/biz/o-sheas-emerald-bar-bronx?adjust_creative=yhLoLzsNXKw40xZ5RCWPpA&utm_campaign=yelp_api_v3&utm_medium=api_v3_business_search&utm_source=yhLoLzsNXKw40xZ5RCWPpA", "price": "$", "distance": 3038.1962188244056, "coordinates": {"latitude": 40.87272, "longitude": -73.88946}, "alias": "o-sheas-emerald-bar-bronx", "image_url": "", "categories": [{"alias": "restaurants", "title": "Restaurants"}, {"alias": "bars", "title": "Bars"}], "display_phone": "(718) 364-9924", "phone": "+17183649924", "id": "EtwCZgiwvhEVckQWVhwj2g", "is_closed": false, "location": {"city": "Bronx", "display_address": ["2960 Jerome Ave", "Bronx, NY 10468"], "country": "US", "address2": "", "address3": "", "state": "NY", "address1": "2960 Jerome Ave", "zip_code": "10468"}}, {"rating": 3.5, "review_count": 10, "name": "Lorraine's Bar & Grill", "transactions": [], "url": "https://www.yelp.com/biz/lorraines-bar-and-grill-bronx?adjust_creative=yhLoLzsNXKw40xZ5RCWPpA&utm_campaign=yelp_api_v3&utm_medium=api_v3_business_search&utm_source=yhLoLzsNXKw40xZ5RCWPpA", "price": "$$", "distance": 3048.2926298295047, "coordinates": {"latitude": 40.8349, "longitude": -73.8543}, "alias": "lorraines-bar-and-grill-bronx", "image_url": "https://s3-media2.fl.yelpcdn.com/bphoto/BmIDRki4D43PMP5mcEgpmA/o.jpg", "categories": [{"alias": "bars", "title": "Bars"}, {"alias": "latin", "title": "Latin American"}], "display_phone": "(646) 568-0787", "phone": "+16465680787", "id": "dnJojc43xGKi37mkcm4xEg", "is_closed": false, "location": {"city": "Bronx", "display_address": ["1410 Unionport Rd", "Bronx, NY 10462"], "country": "US", "address2": "", "address3": "", "state": "NY", "address1": "1410 Unionport Rd", "zip_code": "10462"}}]}