{"region": {"center": {"latitude": 40.8703473844, "longitude": -73.8909004344}}, "total": 514, "businesses": [{"rating": 3.5, "review_count": 7, "name": "O'Shea's Emerald Bar", "transactions": [], "url": "https://www.yelp.com/biz/o-sheas-emerald-bar-bronx?adjust_creative=yhLoLzsNXKw40xZ5RCWPpA&utm_campaign=yelp_api_v3&utm_medium=api_v3_business_search&utm_source=yhLoLzsNXKw40xZ5RCWPpA", "price": "$", "distance": 288.6545618239778, "coordinates": {"latitude": 40.87272, "longitude": -73.88946}, "alias": "o-sheas-emerald-bar-bronx", "image_url": "", "categories": [{"alias": "restaurants", "title": "Restaurants"}, {"alias": "bars", "title": "Bars"}], "display_phone": "(718) 364-9924", "phone": "+17183649924", "id": "EtwCZgiwvhEVckQWVhwj2g", "is_closed": false, "location": {"city": "Bronx", "display_address": ["2960 Jerome Ave", "Bronx, NY 10468"], "country": "US", "address2": "", "address3": "", "state": "NY", "address1": "2960 Jerome Ave", "zip_code": "10468"}}, {"rating": 2.0, "review_count": 38, "name": "El Sabor Latino", "transactions": ["pickup", "delivery"], "url": "https://www.yelp.com/biz/el-sabor-latino-bronx?adjust_creative=yhLoLzsNXKw40xZ5RCWPpA&utm_campaign=yelp_api_v3&utm_medium=api_v3_business_search&utm_source=yhLoLzsNXKw40xZ5RCWPpA", "price": "$$", "distance": 315.1748147027508, "coordinates": {"latitude": 40.87294, "longitude": -73.88936}, "alias": "el-sabor-latino-bronx", "image_url": "https://s3-media1.fl.yelpcdn.com/bphoto/ISdkOk01weCARLg5O9XdZA/o.jpg", "categories": [{"alias": "sportsbars", "title": "Sports Bars"}, {"alias": "mexican", "title": "Mexican"}], "display_phone": "(718) 484-4436", "phone": "+17184844436", "id": "UzTch43C4FXRIvI9bTRZrg", "is_closed": false, "location": {"city": "Bronx", "display_address": ["2968 Jerome Ave", "Bronx, NY 10468"], "country": "US", "address2": "", "address3": null, "state": "NY", "address1": "2968 Jerome Ave", "zip_code": "10468"}}, {"rating": 4.0, "review_count": 4, "name": "Madden's Bedford Pub", "transactions": [], "url": "https://www.yelp.com/biz/maddens-bedford-pub-bronx?adjust_creative=yhLoLzsNXKw40xZ5RCWPpA&utm_campaign=yelp_api_v3&utm_medium=api_v3_business_search&utm_source=yhLoLzsNXKw40xZ5RCWPpA", "distance": 361.4259110814184, "coordinates": {"latitude": 40.873013, "longitude": -73.8887362}, "alias": "maddens-bedford-pub-bronx", "image_url": "https://s3-media3.fl.yelpcdn.com/bphoto/zbaOjS26g5M8v5cC9RE-oA/o.jpg", "categories": [{"alias": "bars", "title": "Bars"}], "display_phone": "(718) 364-9877", "phone": "+17183649877", "id": "I7TMAxdCmjhrq_4SxB-sOw", "is_closed": false, "location": {"city": "Bronx", "display_address": ["27 Bedford Park Blvd E", "Bronx, NY 10468"], "country": "US", "address2": "", "address3": "", "state": "NY", "address1": "27 Bedford Park Blvd E", "zip_code": "10468"}}, {"rating": 3.5, "review_count": 41, "name": "Las Maravillas de Mexico Restaurant", "transactions": ["pickup", "delivery"], "url": "https://www.yelp.com/biz/las-maravillas-de-mexico-restaurant-bronx?adjust_creative=yhLoLzsNXKw40xZ5RCWPpA&utm_campaign=yelp_api_v3&utm_medium=api_v3_business_search&utm_source=yhLoLzsNXKw40xZ5RCWPpA", "price": "$$", "distance": 371.2877204622523, "coordinates": {"latitude": 40.87329, "longitude": -73.88896}, "alias": "las-maravillas-de-mexico-restaurant-bronx", "image_url": "https://s3-media1.fl.yelpcdn.com/bphoto/2WcL5G1tDnjGj7knI29FfA/o.jpg", "categories": [{"alias": "mexican", "title": "Mexican"}, {"alias": "beerbar", "title": "Beer Bar"}], "display_phone": "(718) 584-3455", "phone": "+17185843455", "id": "wVJHWi2QyewBOotVbwNGUg", "is_closed": false, "location": {"city": "Bronx", "display_address": ["11 Bedford Park Blvd E", "Bronx, NY 10468"], "country": "US", "address2": "", "address3": "", "state": "NY", "address1": "11 Bedford Park Blvd E", "zip_code": "10468"}}, {"rating": 5.0, "review_count": 8, "name": "Pat O'brien Pub", "transactions": [], "url": "https://www.yelp.com/biz/pat-o-brien-pub-bronx?adjust_creative=yhLoLzsNXKw40xZ5RCWPpA&utm_campaign=yelp_api_v3&utm_medium=api_v3_business_search&utm_source=yhLoLzsNXKw40xZ5RCWPpA", "price": "$", "distance": 615.5662666418509, "coordinates": {"latitude": 40.86693, "longitude": -73.8967}, "alias": "pat-o-brien-pub-bronx", "image_url": "https://s3-media1.fl.yelpcdn.com/bphoto/Yp4nbFQbsGYGMWUMzLD-Bg/o.jpg", "categories": [{"alias": "pubs", "title": "Pubs"}], "display_phone": "", "phone": "", "id": "O5B1Vm7o0Gfr7vm4Z7SYPw", "is_closed": false, "location": {"city": "Bronx", "display_address": ["28 E Kingsbridge Rd", "Bronx, NY 10468"], "country": "US", "address2": "", "address3": "", "state": "NY", "address1": "28 E Kingsbridge Rd", "zip_code": "10468"}}, {"rating": 5.0, "review_count": 5, "name": "Lehman Cigars", "transactions": [], "url": "https://www.yelp.com/biz/lehman-cigars-jerome-park?adjust_creative=yhLoLzsNXKw40xZ5RCWPpA&utm_campaign=yelp_api_v3&utm_medium=api_v3_business_search&utm_source=yhLoLzsNXKw40xZ5RCWPpA", "price": "$$", "distance": 640.0121588881606, "coordinates": {"latitude": 40.86763, "longitude": -73.88416}, "alias": "lehman-cigars-jerome-park", "image_url": "https://s3-media1.fl.yelpcdn.com/bphoto/Yy1d6C1VSL0lvq1G2v0NZA/o.jpg", "categories": [{"alias": "cigarbars", "title": "Cigar Bars"}], "display_phone": "(929) 263-1730", "phone": "+19292631730", "id": "YLM4Y9CcV2_jLrFrcEJ_2A", "is_closed": false, "location": {"city": "Jerome Park", "display_address": ["388A Bedford Park Blvd", "Jerome Park, NY 10458"], "country": "US", "address2": "", "address3": "", "state": "NY", "address1": "388A Bedford Park Blvd", "zip_code": "10458"}}, {"rating": 3.5, "review_count": 24, "name": "Jolly Tinker", "transactions": [], "url": "https://www.yelp.com/biz/jolly-tinker-bronx?adjust_creative=yhLoLzsNXKw40xZ5RCWPpA&utm_campaign=yelp_api_v3&utm_medium=api_v3_business_search&utm_source=yhLoLzsNXKw40xZ5RCWPpA", "price": "$", "distance": 691.9055296043798, "coordinates": {"latitude": 40.867552, "longitude": -73.883549}, "alias": "jolly-tinker-bronx", "image_url": "https://s3-media2.fl.yelpcdn.com/bphoto/rFKYnhvEpT7ezw95JwuPqg/o.jpg", "categories": [{"alias": "bars", "title": "Bars"}, {"alias": "poolhalls", "title": "Pool Halls"}, {"alias": "tradamerican", "title": "American (Traditional)"}], "display_phone": "(347) 726-5644", "phone": "+13477265644", "id": "gR2s7NF9o6LHAkVaEkEOnw", "is_closed": false, "location": {"city": "Bronx", "display_address": ["2875 Webster Ave", "Bronx, NY 10458"], "country": "US", "address2": "", "address3": "", "state": "NY", "address1": "2875 Webster Ave", "zip_code": "10458"}}, {"rating": 3.5, "review_count": 20, "name": "Rulay Lounge Bar & Restaurant", "transactions": ["pickup", "restaurant_reservation", "delivery"], "url": "https://www.yelp.com/biz/rulay-lounge-bar-and-restaurant-bronx-2?adjust_creative=yhLoLzsNXKw40xZ5RCWPpA&utm_campaign=yelp_api_v3&utm_medium=api_v3_business_search&utm_source=yhLoLzsNXKw40xZ5RCWPpA", "price": "$$", "distance": 709.5421980030769, "coordinates": {"latitude": 40.86773, "longitude": -73.88317}, "alias": "rulay-lounge-bar-and-restaurant-bronx-2", "image_url": "https://s3-media4.fl.yelpcdn.com/bphoto/t-mZ9xDszALXd1bqmjrhrg/o.jpg", "categories": [{"alias": "lounges", "title": "Lounges"}], "display_phone": "(929) 265-9357", "phone": "+19292659357", "id": "Pbd16Ur3N0iBCmg2khZVZQ", "is_closed": false, "location": {"city": "Bronx", "display_address": ["2959 Webster Ave", "Bronx, NY 10458"], "country": "US", "address2": null, "address3": "", "state": "NY", "address1": "2959 Webster Ave", "zip_code": "10458"}}, {"rating": 3.5, "review_count": 16, "name": "Lehman Center for the Performing Arts", "transactions": [], "url": "https://www.yelp.com/biz/lehman-center-for-the-performing-arts-bronx?adjust_creative=yhLoLzsNXKw40xZ5RCWPpA&utm_campaign=yelp_api_v3&utm_medium=api_v3_business_search&utm_source=yhLoLzsNXKw40xZ5RCWPpA", "price": "$$$", "distance": 879.9342762774634, "coordinates": {"latitude": 40.8782605723615, "longitude": -73.8909852497152}, "alias": "lehman-center-for-the-performing-arts-bronx", "image_url": "https://s3-media2.fl.yelpcdn.com/bphoto/cbwMTnBJ7EtRAeM3iKJrFw/o.jpg", "categories": [{"alias": "theater", "title": "Performing Arts"}, {"alias": "musicvenues", "title": "Music Venues"}, {"alias": "venues", "title": "Venues & Event Spaces"}], "display_phone": "(718) 960-8833", "phone": "+17189608833", "id": "mU1wjINGfNUmnze2NVDwxw", "is_closed": false, "location": {"city": "Bronx", "display_address": ["250 Bedford Park Blvd W", "Bronx, NY 10468"], "country": "US", "address2": "", "address3": "", "state": "NY", "address1": "250 Bedford Park Blvd W", "zip_code": "10468"}}, {"rating": 1.0, "review_count": 1, "name": "Black Thorn Bar", "transactions": [], "url": "https://www.yelp.com/biz/black-thorn-bar-bronx?adjust_creative=yhLoLzsNXKw40xZ5RCWPpA&utm_campaign=yelp_api_v3&utm_medium=api_v3_business_search&utm_source=yhLoLzsNXKw40xZ5RCWPpA", "distance": 1043.997601604875, "coordinates": {"latitude": 40.8740769, "longitude": -73.8794755}, "alias": "black-thorn-bar-bronx", "image_url": "", "categories": [{"alias": "nightlife", "title": "Nightlife"}], "display_phone": "(718) 231-1010", "phone": "+17182311010", "id": "tpfJUwUr4ISigPcKjxrpJw", "is_closed": false, "location": {"city": "Bronx", "display_address": ["3119 Bainbridge Ave", "Bronx, NY 10467"], "country": "US", "address2": "", "address3": "", "state": "NY", "address1": "3119 Bainbridge Ave", "zip_code": "10467"}}, {"rating": 2.5, "review_count": 3, "name": "McDwyer's Pub", "transactions": [], "url": "https://www.yelp.com/biz/mcdwyers-pub-bronx?adjust_creative=yhLoLzsNXKw40xZ5RCWPpA&utm_campaign=yelp_api_v3&utm_medium=api_v3_business_search&utm_source=yhLoLzsNXKw40xZ5RCWPpA", "price": "$", "distance": 1120.572012991442, "coordinates": {"latitude": 40.8723845, "longitude": -73.8777909}, "alias": "mcdwyers-pub-bronx", "image_url": "", "categories": [{"alias": "nightlife", "title": "Nightlife"}], "display_phone": "(347) 427-0519", "phone": "+13474270519", "id": "2j4ENfk2XbzC5D2c4TZidg", "is_closed": false, "location": {"city": "Bronx", "display_address": ["331 E 204th St", "Bronx, NY 10467"], "country": "US", "address2": "", "address3": "", "state": "NY", "address1": "331 E 204th St", "zip_code": "10467"}}, {"rating": 2.0, "review_count": 98, "name": "Applebee's Grill + Bar", "transactions": [], "url": "https://www.yelp.com/biz/applebees-grill-bar-bronx-2?adjust_creative=yhLoLzsNXKw40xZ5RCWPpA&utm_campaign=yelp_api_v3&utm_medium=api_v3_business_search&utm_source=yhLoLzsNXKw40xZ5RCWPpA", "price": "$$", "distance": 1142.2321623801124, "coordinates": {"latitude": 40.860076, "longitude": -73.890714}, "alias": "applebees-grill-bar-bronx-2", "image_url": "https://s3-media3.fl.yelpcdn.com/bphoto/XZsSXOvvOZOWD44EV5QkuA/o.jpg", "categories": [{"alias": "tradamerican", "title": "American (Traditional)"}, {"alias": "sportsbars", "title": "Sports Bars"}, {"alias": "burgers", "title": "Burgers"}], "display_phone": "(347) 226-5120", "phone": "+13472265120", "id": "kngH_TXrwqZpSx259f68Tg", "is_closed": false, "location": {"city": "Bronx", "display_address": ["4750-4758 Third Ave", "Bronx, NY 10458"], "country": "US", "address2": "", "address3": "", "state": "NY", "address1": "4750-4758 Third Ave", "zip_code": "10458"}}, {"rating": 4.0, "review_count": 109, "name": "Lexa Bar & Garden", "transactions": [], "url": "https://www.yelp.com/biz/lexa-bar-and-garden-norwood?adjust_creative=yhLoLzsNXKw40xZ5RCWPpA&utm_campaign=yelp_api_v3&utm_medium=api_v3_business_search&utm_source=yhLoLzsNXKw40xZ5RCWPpA", "price": "$$", "distance": 1147.0082766421888, "coordinates": {"latitude": 40.87212, "longitude": -73.87755}, "alias": "lexa-bar-and-garden-norwood", "image_url": "https://s3-media2.fl.yelpcdn.com/bphoto/fcsLTHvCvq1WCsp0mOU6JA/o.jpg", "categories": [{"alias": "burgers", "title": "Burgers"}, {"alias": "beerbar", "title": "Beer Bar"}, {"alias": "pizza", "title": "Pizza"}], "display_phone": "(929) 243-3300", "phone": "+19292433300", "id": "nxMJqEab557oh4G7D-5Ygg", "is_closed": false, "location": {"city": "Norwood", "display_address": ["357 E 204th St", "Norwood, NY 10467"], "country": "US", "address2": "", "address3": "", "state": "NY", "address1": "357 E 204th St", "zip_code": "10467"}}, {"rating": 5.0, "review_count": 8, "name": "Boca Restaurant and Lounge", "transactions": [], "url": "https://www.yelp.com/biz/boca-restaurant-and-lounge-bronx?adjust_creative=yhLoLzsNXKw40xZ5RCWPpA&utm_campaign=yelp_api_v3&utm_medium=api_v3_business_search&utm_source=yhLoLzsNXKw40xZ5RCWPpA", "distance": 1169.6351661173883, "coordinates": {"latitude": 40.8599400757929, "longitude": -73.8929201290011}, "alias": "boca-restaurant-and-lounge-bronx", "image_url": "https://s3-media2.fl.yelpcdn.com/bphoto/23hGXsN9nJpnce4TzFq15g/o.jpg", "categories": [{"alias": "newamerican", "title": "American (New)"}, {"alias": "lounges", "title": "Lounges"}], "display_phone": "(917) 688-1031", "phone": "+19176881031", "id": "6_xJeFRdbKeX5AjKu6qzgA", "is_closed": false, "location": {"city": "Bronx", "display_address": ["2458 Webster Ave", "Bronx, NY 10458"], "country": "US", "address2": "", "address3": null, "state": "NY", "address1": "2458 Webster Ave", "zip_code": "10458"}}, {"rating": 2.5, "review_count": 8, "name": "Mar Y Tierra Resturant & Lounge", "transactions": [], "url": "https://www.yelp.com/biz/mar-y-tierra-resturant-and-lounge-norwood?adjust_creative=yhLoLzsNXKw40xZ5RCWPpA&utm_campaign=yelp_api_v3&utm_medium=api_v3_business_search&utm_source=yhLoLzsNXKw40xZ5RCWPpA", "price": "$$", "distance": 1184.41882145437, "coordinates": {"latitude": 40.87672, "longitude": -73.87953}, "alias": "mar-y-tierra-resturant-and-lounge-norwood", "image_url": "https://s3-media3.fl.yelpcdn.com/bphoto/fRIHos9viRuJXmiew2HiBw/o.jpg", "categories": [{"alias": "mexican", "title": "Mexican"}, {"alias": "lounges", "title": "Lounges"}], "display_phone": "(718) 655-7764", "phone": "+17186557764", "id": "j1JYnUp_DuNauLdBeOSwCA", "is_closed": false, "location": {"city": "Norwood", "display_address": ["3236 Bainbridge Ave", "Norwood, NY 10467"], "country": "US", "address2": "", "address3": "", "state": "NY", "address1": "3236 Bainbridge Ave", "zip_code": "10467"}}, {"rating": 3.0, "review_count": 12, "name": "Paradise Theater", "transactions": [], "url": "https://www.yelp.com/biz/paradise-theater-bronx?adjust_creative=yhLoLzsNXKw40xZ5RCWPpA&utm_campaign=yelp_api_v3&utm_medium=api_v3_business_search&utm_source=yhLoLzsNXKw40xZ5RCWPpA", "price": "$", "distance": 1292.2357940766792, "coordinates": {"latitude": 40.86055, "longitude": -73.89885}, "alias": "paradise-theater-bronx", "image_url": "https://s3-media4.fl.yelpcdn.com/bphoto/xXIjCYDQ-rvHFb5yj8W_0Q/o.jpg", "categories": [{"alias": "musicvenues", "title": "Music Venues"}], "display_phone": "", "phone": "", "id": "jXgl9QFaRN0eOpLAGP6Htg", "is_closed": false, "location": {"city": "Bronx", "display_address": ["2403 Grand Concourse", "Bronx, NY 10468"], "country": "US", "address2": "", "address3": "", "state": "NY", "address1": "2403 Grand Concourse", "zip_code": "10468"}}, {"rating": 1.0, "review_count": 1, "name": "Madison Square Boys'& Girls'club", "transactions": [], "url": "https://www.yelp.com/biz/madison-square-boys-and-girlsclub-bronx?adjust_creative=yhLoLzsNXKw40xZ5RCWPpA&utm_campaign=yelp_api_v3&utm_medium=api_v3_business_search&utm_source=yhLoLzsNXKw40xZ5RCWPpA", "distance": 1330.219418542809, "coordinates": {"latitude": 40.85843, "longitude": -73.88779}, "alias": "madison-square-boys-and-girlsclub-bronx", "image_url": "", "categories": [{"alias": "danceclubs", "title": "Dance Clubs"}], "display_phone": "(718) 733-5500", "phone": "+17187335500", "id": "fSqruffqYl0Kj1-kOU2zpw", "is_closed": false, "location": {"city": "Bronx", "display_address": ["543 E 189th St", "Bronx, NY 10458"], "country": "US", "address2": "", "address3": "", "state": "NY", "address1": "543 E 189th St", "zip_code": "10458"}}, {"rating": 4.0, "review_count": 222, "name": "The Bronx Public", "transactions": ["restaurant_reservation"], "url": "https://www.yelp.com/biz/the-bronx-public-bronx?adjust_creative=yhLoLzsNXKw40xZ5RCWPpA&utm_campaign=yelp_api_v3&utm_medium=api_v3_business_search&utm_source=yhLoLzsNXKw40xZ5RCWPpA", "price": "$$", "distance": 1382.1953542276124, "coordinates": {"latitude": 40.87827, "longitude": -73.90341}, "alias": "the-bronx-public-bronx", "image_url": "https://s3-media1.fl.yelpcdn.com/bphoto/knrvL2au8_nZ_D73xB_iyw/o.jpg", "categories": [{"alias": "sportsbars", "title": "Sports Bars"}, {"alias": "tradamerican", "title": "American (Traditional)"}], "display_phone": "(718) 708-6447", "phone": "+17187086447", "id": "KAxYFGyOQ7ysCmYmh8jKtw", "is_closed": false, "location": {"city": "Bronx", "display_address": ["170 W 231st St", "Bronx, NY 10463"], "country": "US", "address2": "", "address3": null, "state": "NY", "address1": "170 W 231st St", "zip_code": "10463"}}, {"rating": 4.0, "review_count": 5, "name": "The Local", "transactions": [], "url": "https://www.yelp.com/biz/the-local-bronx?adjust_creative=yhLoLzsNXKw40xZ5RCWPpA&utm_campaign=yelp_api_v3&utm_medium=api_v3_business_search&utm_source=yhLoLzsNXKw40xZ5RCWPpA", "price": "$", "distance": 1390.7631203962192, "coordinates": {"latitude": 40.878521, "longitude": -73.9033432}, "alias": "the-local-bronx", "image_url": "https://s3-media1.fl.yelpcdn.com/bphoto/YxEXKy6t-q-B3hM9eZMCag/o.jpg", "categories": [{"alias": "cocktailbars", "title": "Cocktail Bars"}, {"alias": "pubs", "title": "Pubs"}], "display_phone": "(347) 427-4779", "phone": "+13474274779", "id": "gpZMM6lHxHYP27s1KTofSA", "is_closed": false, "location": {"city": "Bronx", "display_address": ["171 W 231st St", "Bronx, NY 10463"], "country": "US", "address2": null, "address3": "", "state": "NY", "address1": "171 W 231st St", "zip_code": "10463"}}, {"rating": 2.0, "review_count": 1, "name": "Candy Lounge", "transactions": [], "url": "https://www.yelp.com/biz/candy-lounge-bronx?adjust_creative=yhLoLzsNXKw40xZ5RCWPpA&utm_campaign=yelp_api_v3&utm_medium=api_v3_business_search&utm_source=yhLoLzsNXKw40xZ5RCWPpA", "distance": 1459.044209116468, "coordinates": {"latitude": 40.8579978942871, "longitude": -73.8848037719727}, "alias": "candy-lounge-bronx", "image_url": "", "categories": [{"alias": "lounges", "title": "Lounges"}], "display_phone": "(347) 577-6015", "phone": "+13475776015", "id": "R6ZGrqUZ6byL-ReUHQHahg", "is_closed": false, "location": {"city": "Bronx", "display_address": ["608 E Fordham Rd", "Bronx, NY 10458"], "country": "US", "address2": "", "address3": "", "state": "NY", "address1": "608 E Fordham Rd", "zip_code": "10458"}}, {"rating": 3.0, "review_count": 53, "name": "Howl at the Moon", "transactions": ["pickup", "delivery"], "url": "https://www.yelp.com/biz/howl-at-the-moon-bronx?adjust_creative=yhLoLzsNXKw40xZ5RCWPpA&utm_campaign=yelp_api_v3&utm_medium=api_v3_business_search&utm_source=yhLoLzsNXKw40xZ5RCWPpA", "price": "$", "distance": 1460.8348785306055, "coordinates": {"latitude": 40.85764, "longitude": -73.88629}, "alias": "howl-at-the-moon-bronx", "image_url": "https://s3-media1.fl.yelpcdn.com/bphoto/k2aEbVC7n4FNlgwXMT4hrA/o.jpg", "categories": [{"alias": "sportsbars", "title": "Sports Bars"}, {"alias": "newamerican", "title": "American (New)"}], "display_phone": "(718) 561-7694", "phone": "+17185617694", "id": "UrUg6YdHU7JZcmO7W7Upqg", "is_closed": false, "location": {"city": "Bronx", "display_address": ["585 E 189th St", "Bronx, NY 10458"], "country": "US", "address2": "", "address3": "", "state": "NY", "address1": "585 E 189th St", "zip_code": "10458"}}, {"rating": 5.0, "review_count": 1, "name": "Fiesta Bar & Restaurant", "transactions": [], "url": "https://www.yelp.com/biz/fiesta-bar-and-restaurant-bronx-2?adjust_creative=yhLoLzsNXKw40xZ5RCWPpA&utm_campaign=yelp_api_v3&utm_medium=api_v3_business_search&utm_source=yhLoLzsNXKw40xZ5RCWPpA", "price": "$", "distance": 1470.6273822766134, "coordinates": {"latitude": 40.8570361, "longitude": -73.8909451}, "alias": "fiesta-bar-and-restaurant-bronx-2", "image_url": "https://s3-media4.fl.yelpcdn.com/bphoto/DTcIpYqknuiYN9TQh2Hf9w/o.jpg", "categories": [{"alias": "bars", "title": "Bars"}], "display_phone": "(718) 733-2211", "phone": "+17187332211", "id": "qq2J64FJbbYhiv0A31q9kg", "is_closed": false, "location": {"city": "Bronx", "display_address": ["4640 3rd Ave", "Bronx, NY 10458"], "country": "US", "address2": "", "address3": "", "state": "NY", "address1": "4640 3rd Ave", "zip_code": "10458"}}, {"rating": 4.5, "review_count": 10, "name": "Mr. McGoo's Pub", "transactions": [], "url": "https://www.yelp.com/biz/mr-mcgoos-pub-bronx?adjust_creative=yhLoLzsNXKw40xZ5RCWPpA&utm_campaign=yelp_api_v3&utm_medium=api_v3_business_search&utm_source=yhLoLzsNXKw40xZ5RCWPpA", "price": "$", "distance": 1495.0138612465573, "coordinates": {"latitude": 40.879401, "longitude": -73.9040459}, "alias": "mr-mcgoos-pub-bronx", "image_url": "https://s3-media2.fl.yelpcdn.com/bphoto/ABMUX7xipz3FydUA8hbHWg/o.jpg", "categories": [{"alias": "pubs", "title": "Pubs"}], "display_phone": "(718) 548-9810", "phone": "+17185489810", "id": "o9LvY3fXLd_7rOebOl0qHg", "is_closed": false, "location": {"city": "Bronx", "display_address": ["5602 Broadway", "Bronx, NY 10463"], "country": "US", "address2": "", "address3": "", "state": "NY", "address1": "5602 Broadway", "zip_code": "10463"}}, {"rating": 3.5, "review_count": 167, "name": "Michaelangelo's Little Italy", "transactions": ["pickup", "delivery"], "url": "https://www.yelp.com/biz/michaelangelos-little-italy-bronx-3?adjust_creative=yhLoLzsNXKw40xZ5RCWPpA&utm_campaign=yelp_api_v3&utm_medium=api_v3_business_search&utm_source=yhLoLzsNXKw40xZ5RCWPpA", "price": "$$", "distance": 1498.8482380610808, "coordinates": {"latitude": 40.8573321267268, "longitude": -73.8862630999689}, "alias": "michaelangelos-little-italy-bronx-3", "image_url": "https://s3-media3.fl.yelpcdn.com/bphoto/qU_x7WfJkMElZuuT8fthDw/o.jpg", "categories": [{"alias": "lounges", "title": "Lounges"}, {"alias": "italian", "title": "Italian"}, {"alias": "wine_bars", "title": "Wine Bars"}], "display_phone": "(718) 220-8355", "phone": "+17182208355", "id": "3xd4L_TdfdhuCjAzJecs6A", "is_closed": false, "location": {"city": "Bronx", "display_address": ["2477 Arthur Ave", "Bronx, NY 10458"], "country": "US", "address2": null, "address3": null, "state": "NY", "address1": "2477 Arthur Ave", "zip_code": "10458"}}, {"rating": 4.0, "review_count": 112, "name": "Clinton Hall", "transactions": ["pickup", "delivery"], "url": "https://www.yelp.com/biz/clinton-hall-bronx-4?adjust_creative=yhLoLzsNXKw40xZ5RCWPpA&utm_campaign=yelp_api_v3&utm_medium=api_v3_business_search&utm_source=yhLoLzsNXKw40xZ5RCWPpA", "price": "$$", "distance": 1505.8401586362913, "coordinates": {"latitude": 40.85735, "longitude": -73.88574}, "alias": "clinton-hall-bronx-4", "image_url": "https://s3-media2.fl.yelpcdn.com/bphoto/-NQBAB969R87Vy3Xnr6teQ/o.jpg", "categories": [{"alias": "beergardens", "title": "Beer Gardens"}, {"alias": "newamerican", "title": "American (New)"}, {"alias": "bars", "title": "Bars"}], "display_phone": "(718) 220-6400", "phone": "+17182206400", "id": "2O5w-15_AVnnVJEtlWWE_A", "is_closed": false, "location": {"city": "Bronx", "display_address": ["601 E 189th St", "Bronx, NY 10458"], "country": "US", "address2": null, "address3": "", "state": "NY", "address1": "601 E 189th St", "zip_code": "10458"}}, {"rating": 3.0, "review_count": 249, "name": "Silhouette Restaurant & Lounge", "transactions": ["pickup", "delivery"], "url": "https://www.yelp.com/biz/silhouette-restaurant-and-lounge-bronx?adjust_creative=yhLoLzsNXKw40xZ5RCWPpA&utm_campaign=yelp_api_v3&utm_medium=api_v3_business_search&utm_source=yhLoLzsNXKw40xZ5RCWPpA", "price": "$$", "distance": 1519.0173611541395, "coordinates": {"latitude": 40.8807045, "longitude": -73.9026812042297}, "alias": "silhouette-restaurant-and-lounge-bronx", "image_url": "https://s3-media3.fl.yelpcdn.com/bphoto/CuERJanBaeNJq9sh4JU7Xg/o.jpg", "categories": [{"alias": "lounges", "title": "Lounges"}, {"alias": "latin", "title": "Latin American"}], "display_phone": "(718) 601-0777", "phone": "+17186010777", "id": "GMmhKLXJez77lrkwBWu6nw", "is_closed": false, "location": {"city": "Bronx", "display_address": ["5668 Broadway", "Bronx, NY 10463"], "country": "US", "address2": "", "address3": "", "state": "NY", "address1": "5668 Broadway", "zip_code": "10463"}}, {"rating": 3.0, "review_count": 9, "name": "Mugzs Sports Bar", "transactions": [], "url": "https://www.yelp.com/biz/mugzs-sports-bar-bronx?adjust_creative=yhLoLzsNXKw40xZ5RCWPpA&utm_campaign=yelp_api_v3&utm_medium=api_v3_business_search&utm_source=yhLoLzsNXKw40xZ5RCWPpA", "price": "$", "distance": 1523.8628959825942, "coordinates": {"latitude": 40.857139, "longitude": -73.885864}, "alias": "mugzs-sports-bar-bronx", "image_url": "https://s3-media3.fl.yelpcdn.com/bphoto/IOF_xYnXOM9b9t3QziBt7A/o.jpg", "categories": [{"alias": "divebars", "title": "Dive Bars"}], "display_phone": "(917) 299-5546", "phone": "+19172995546", "id": "TEKZ4441F1_qOpVbTiEFJQ", "is_closed": false, "location": {"city": "Bronx", "display_address": ["2476 Arthur Ave", "Bronx, NY 10458"], "country": "US", "address2": "", "address3": "", "state": "NY", "address1": "2476 Arthur Ave", "zip_code": "10458"}}, {"rating": 2.0, "review_count": 132, "name": "Applebee's Grill + Bar", "transactions": [], "url": "https://www.yelp.com/biz/applebees-grill-bar-bronx-3?adjust_creative=yhLoLzsNXKw40xZ5RCWPpA&utm_campaign=yelp_api_v3&utm_medium=api_v3_business_search&utm_source=yhLoLzsNXKw40xZ5RCWPpA", "price": "$$", "distance": 1572.7550260989988, "coordinates": {"latitude": 40.8739885, "longitude": -73.9091188}, "alias": "applebees-grill-bar-bronx-3", "image_url": "https://s3-media1.fl.yelpcdn.com/bphoto/KvwXQCu_pF6dUDOXZaE1cw/o.jpg", "categories": [{"alias": "tradamerican", "title": "American (Traditional)"}, {"alias": "sportsbars", "title": "Sports Bars"}, {"alias": "burgers", "title": "Burgers"}], "display_phone": "(718) 367-4025", "phone": "+17183674025", "id": "p7HWTeR3hhMOasQLcNZBLg", "is_closed": false, "location": {"city": "Bronx", "display_address": ["76 W 225th St", "Bronx, NY 10463"], "country": "US", "address2": "", "address3": "", "state": "NY", "address1": "76 W 225th St", "zip_code": "10463"}}, {"rating": 5.0, "review_count": 4, "name": "El Sinaloense", "transactions": ["pickup", "delivery"], "url": "https://www.yelp.com/biz/el-sinaloense-west-bronx?adjust_creative=yhLoLzsNXKw40xZ5RCWPpA&utm_campaign=yelp_api_v3&utm_medium=api_v3_business_search&utm_source=yhLoLzsNXKw40xZ5RCWPpA", "distance": 1607.6303480614833, "coordinates": {"latitude": 40.8625361057465, "longitude": -73.9069879800081}, "alias": "el-sinaloense-west-bronx", "image_url": "https://s3-media2.fl.yelpcdn.com/bphoto/kwCBRkEziEhZkJoKE49Isg/o.jpg", "categories": [{"alias": "mexican", "title": "Mexican"}, {"alias": "bars", "title": "Bars"}], "display_phone": "(917) 801-4965", "phone": "+19178014965", "id": "WTrX6u33EUeejj6c5gRwjQ", "is_closed": false, "location": {"city": "West Bronx", "display_address": ["132 W Fordham Rd", "West Bronx, NY 10468"], "country": "US", "address2": "", "address3": "", "state": "NY", "address1": "132 W Fordham Rd", "zip_code": "10468"}}, {"rating": 2.5, "review_count": 3, "name": "Champ's Sports Bar & Grill", "transactions": [], "url": "https://www.yelp.com/biz/champs-sports-bar-and-grill-west-bronx?adjust_creative=yhLoLzsNXKw40xZ5RCWPpA&utm_campaign=yelp_api_v3&utm_medium=api_v3_business_search&utm_source=yhLoLzsNXKw40xZ5RCWPpA", "price": "$$", "distance": 1608.3331935259907, "coordinates": {"latitude": 40.8559862813904, "longitude": -73.8886220473027}, "alias": "champs-sports-bar-and-grill-west-bronx", "image_url": "https://s3-media3.fl.yelpcdn.com/bphoto/dDKtw-MJkwsDwo08bLPUcA/o.jpg", "categories": [{"alias": "sportsbars", "title": "Sports Bars"}], "display_phone": "", "phone": "", "id": "hFab_XHl9IAMoz4HDs5X0Q", "is_closed": false, "location": {"city": "West Bronx", "display_address": ["566 E 187th St", "West Bronx, NY 10458"], "country": "US", "address2": "", "address3": "", "state": "NY", "address1": "566 E 187th St", "zip_code": "10458"}}, {"rating": 3.0, "review_count": 2, "name": "El Lider Bar & Restaurant", "transactions": [], "url": "https://www.yelp.com/biz/el-lider-bar-and-restaurant-bronx?adjust_creative=yhLoLzsNXKw40xZ5RCWPpA&utm_campaign=yelp_api_v3&utm_medium=api_v3_business_search&utm_source=yhLoLzsNXKw40xZ5RCWPpA", "distance": 1647.640844871235, "coordinates": {"latitude": 40.8558, "longitude": -73.895}, "alias": "el-lider-bar-and-restaurant-bronx", "image_url": "https://s3-media2.fl.yelpcdn.com/bphoto/cXKLeRLH2-2OuYINJDLwkw/o.jpg", "categories": [{"alias": "nightlife", "title": "Nightlife"}], "display_phone": "(718) 220-2923", "phone": "+17182202923", "id": "pGSySf9NOHfFF22VTnCXuw", "is_closed": false, "location": {"city": "Bronx", "display_address": ["4535 Park Ave", "Bronx, NY 10457"], "country": "US", "address2": null, "address3": null, "state": "NY", "address1": "4535 Park Ave", "zip_code": "10457"}}, {"rating": 3.0, "review_count": 14, "name": "Que Sabrosura! Restaurant & Bar", "transactions": ["pickup", "delivery"], "url": "https://www.yelp.com/biz/que-sabrosura-restaurant-and-bar-bronx-4?adjust_creative=yhLoLzsNXKw40xZ5RCWPpA&utm_campaign=yelp_api_v3&utm_medium=api_v3_business_search&utm_source=yhLoLzsNXKw40xZ5RCWPpA", "price": "$$", "distance": 1675.3546091246296, "coordinates": {"latitude": 40.85827, "longitude": -73.9027}, "alias": "que-sabrosura-restaurant-and-bar-bronx-4", "image_url": "https://s3-media2.fl.yelpcdn.com/bphoto/vMjOlHqlixs8yhJPrycFdA/o.jpg", "categories": [{"alias": "latin", "title": "Latin American"}, {"alias": "dominican", "title": "Dominican"}, {"alias": "hookah_bars", "title": "Hookah Bars"}], "display_phone": "(718) 365-2200", "phone": "+17183652200", "id": "0XDlyOlcwMCSxNSM1m2BVw", "is_closed": false, "location": {"city": "Bronx", "display_address": ["48 E 183rd St", "Bronx, NY 10453"], "country": "US", "address2": "", "address3": "", "state": "NY", "address1": "48 E 183rd St", "zip_code": "10453"}}, {"rating": 3.5, "review_count": 12, "name": "Madden's Uptown Bar and Grill", "transactions": [], "url": "https://www.yelp.com/biz/maddens-uptown-bar-and-grill-bronx?adjust_creative=yhLoLzsNXKw40xZ5RCWPpA&utm_campaign=yelp_api_v3&utm_medium=api_v3_business_search&utm_source=yhLoLzsNXKw40xZ5RCWPpA", "price": "$$", "distance": 1725.2375147509988, "coordinates": {"latitude": 40.8833548, "longitude": -73.901913}, "alias": "maddens-uptown-bar-and-grill-bronx", "image_url": "https://s3-media3.fl.yelpcdn.com/bphoto/NDa0EaSGXMj_pwuOZyxu_w/o.jpg", "categories": [{"alias": "bars", "title": "Bars"}, {"alias": "tradamerican", "title": "American (Traditional)"}], "display_phone": "(929) 243-3480", "phone": "+19292433480", "id": "twxfpt4vcIwYqFBj1y-acg", "is_closed": false, "location": {"city": "Bronx", "display_address": ["5757 Broadway", "Bronx, NY 10463"], "country": "US", "address2": "", "address3": "", "state": "NY", "address1": "5757 Broadway", "zip_code": "10463"}}, {"rating": 2.5, "review_count": 188, "name": "Buffalo Wild Wings", "transactions": [], "url": "https://www.yelp.com/biz/buffalo-wild-wings-bronx?adjust_creative=yhLoLzsNXKw40xZ5RCWPpA&utm_campaign=yelp_api_v3&utm_medium=api_v3_business_search&utm_source=yhLoLzsNXKw40xZ5RCWPpA", "price": "$$", "distance": 1725.4832584197736, "coordinates": {"latitude": 40.8843468007578, "longitude": -73.899754062295}, "alias": "buffalo-wild-wings-bronx", "image_url": "https://s3-media2.fl.yelpcdn.com/bphoto/zgd8OUPNeGDyMOiQTVWZAw/o.jpg", "categories": [{"alias": "sportsbars", "title": "Sports Bars"}, {"alias": "tradamerican", "title": "American (Traditional)"}, {"alias": "chicken_wings", "title": "Chicken Wings"}], "display_phone": "(718) 549-9453", "phone": "+17185499453", "id": "wCo4cR9j8gCaAWyHDRYlOA", "is_closed": false, "location": {"city": "Bronx", "display_address": ["193 W 237th Street", "Bronx, NY 10463"], "country": "US", "address2": "", "address3": "", "state": "NY", "address1": "193 W 237th Street", "zip_code": "10463"}}, {"rating": 4.0, "review_count": 653, "name": "Bronx Alehouse", "transactions": [], "url": "https://www.yelp.com/biz/bronx-alehouse-bronx-2?adjust_creative=yhLoLzsNXKw40xZ5RCWPpA&utm_campaign=yelp_api_v3&utm_medium=api_v3_business_search&utm_source=yhLoLzsNXKw40xZ5RCWPpA", "price": "$$", "distance": 1753.0763491269438, "coordinates": {"latitude": 40.8847016520226, "longitude": -73.8994980779851}, "alias": "bronx-alehouse-bronx-2", "image_url": "https://s3-media2.fl.yelpcdn.com/bphoto/LVRA11RWFecz_8nSj5uxPg/o.jpg", "categories": [{"alias": "tradamerican", "title": "American (Traditional)"}, {"alias": "pubs", "title": "Pubs"}], "display_phone": "(718) 601-0204", "phone": "+17186010204", "id": "ciHt5n5rmpby1YcC_6JVrg", "is_closed": false, "location": {"city": "Bronx", "display_address": ["216 W 238th St", "Bronx, NY 10463"], "country": "US", "address2": "", "address3": "", "state": "NY", "address1": "216 W 238th St", "zip_code": "10463"}}, {"rating": 5.0, "review_count": 1, "name": "JJ Sport Bar Restaurant", "transactions": ["pickup", "delivery"], "url": "https://www.yelp.com/biz/jj-sport-bar-restaurant-bronx-2?adjust_creative=yhLoLzsNXKw40xZ5RCWPpA&utm_campaign=yelp_api_v3&utm_medium=api_v3_business_search&utm_source=yhLoLzsNXKw40xZ5RCWPpA", "distance": 1760.1611937843447, "coordinates": {"latitude": 40.854546, "longitude": -73.891168}, "alias": "jj-sport-bar-restaurant-bronx-2", "image_url": "", "categories": [{"alias": "sportsbars", "title": "Sports Bars"}], "display_phone": "(718) 450-3411", "phone": "+17184503411", "id": "MdxsHDBhTa73dpQaEYEsfA", "is_closed": false, "location": {"city": "Bronx", "display_address": ["545 E 183rd St", "Bronx, NY 10458"], "country": "US", "address2": null, "address3": null, "state": "NY", "address1": "545 E 183rd St", "zip_code": "10458"}}, {"rating": 3.0, "review_count": 6, "name": "Club Valle Restaurant Caf\u00e8", "transactions": ["pickup", "delivery"], "url": "https://www.yelp.com/biz/club-valle-restaurant-caf%C3%A8-bronx?adjust_creative=yhLoLzsNXKw40xZ5RCWPpA&utm_campaign=yelp_api_v3&utm_medium=api_v3_business_search&utm_source=yhLoLzsNXKw40xZ5RCWPpA", "distance": 1779.978597284585, "coordinates": {"latitude": 40.87862, "longitude": -73.87276}, "alias": "club-valle-restaurant-caf\u00e8-bronx", "image_url": "https://s3-media3.fl.yelpcdn.com/bphoto/9ynMRMQOL8r5pOTL-HfeIA/o.jpg", "categories": [{"alias": "cafes", "title": "Cafes"}, {"alias": "dominican", "title": "Dominican"}, {"alias": "bars", "title": "Bars"}], "display_phone": "(718) 798-3755", "phone": "+17187983755", "id": "__2TH8yKnk1GjcgL2MZEIw", "is_closed": false, "location": {"city": "Bronx", "display_address": ["352 E Gun Hill Rd", "Bronx, NY 10467"], "country": "US", "address2": "", "address3": null, "state": "NY", "address1": "352 E Gun Hill Rd", "zip_code": "10467"}}, {"rating": 4.5, "review_count": 3, "name": "University of the Streets", "transactions": [], "url": "https://www.yelp.com/biz/university-of-the-streets-bronx?adjust_creative=yhLoLzsNXKw40xZ5RCWPpA&utm_campaign=yelp_api_v3&utm_medium=api_v3_business_search&utm_source=yhLoLzsNXKw40xZ5RCWPpA", "price": "$", "distance": 1790.7353860410105, "coordinates": {"latitude": 40.8545641, "longitude": -73.8866687}, "alias": "university-of-the-streets-bronx", "image_url": "https://s3-media2.fl.yelpcdn.com/bphoto/--M-4RD3gILkmj6u3gacKw/o.jpg", "categories": [{"alias": "theater", "title": "Performing Arts"}, {"alias": "musicvenues", "title": "Music Venues"}], "display_phone": "(212) 254-9300", "phone": "+12122549300", "id": "WIX1zcTRWtYALH6qMUp0ew", "is_closed": false, "location": {"city": "Bronx", "display_address": ["2381 Belmont Ave", "Bronx, NY 10458"], "country": "US", "address2": "", "address3": "", "state": "NY", "address1": "2381 Belmont Ave", "zip_code": "10458"}}, {"rating": 4.5, "review_count": 173, "name": "Mon Amour Coffee & Wine", "transactions": [], "url": "https://www.yelp.com/biz/mon-amour-coffee-and-wine-bronx?adjust_creative=yhLoLzsNXKw40xZ5RCWPpA&utm_campaign=yelp_api_v3&utm_medium=api_v3_business_search&utm_source=yhLoLzsNXKw40xZ5RCWPpA", "price": "$", "distance": 1799.3448815092224, "coordinates": {"latitude": 40.8847906, "longitude": -73.9001434}, "alias": "mon-amour-coffee-and-wine-bronx", "image_url": "https://s3-media1.fl.yelpcdn.com/bphoto/gJ89TS5U-u2mULUN4NH-Rw/o.jpg", "categories": [{"alias": "coffee", "title": "Coffee & Tea"}, {"alias": "wine_bars", "title": "Wine Bars"}, {"alias": "beerbar", "title": "Beer Bar"}], "display_phone": "(718) 708-7804", "phone": "+17187087804", "id": "wZMBvQohVF5qelFRGAo5xw", "is_closed": false, "location": {"city": "Bronx", "display_address": ["234 W 238th St", "Bronx, NY 10463"], "country": "US", "address2": null, "address3": "", "state": "NY", "address1": "234 W 238th St", "zip_code": "10463"}}, {"rating": 3.5, "review_count": 134, "name": "The Bronx Beer Hall", "transactions": [], "url": "https://www.yelp.com/biz/the-bronx-beer-hall-bronx?adjust_creative=yhLoLzsNXKw40xZ5RCWPpA&utm_campaign=yelp_api_v3&utm_medium=api_v3_business_search&utm_source=yhLoLzsNXKw40xZ5RCWPpA", "price": "$$", "distance": 1812.6642180608915, "coordinates": {"latitude": 40.854118, "longitude": -73.888175}, "alias": "the-bronx-beer-hall-bronx", "image_url": "https://s3-media2.fl.yelpcdn.com/bphoto/ZmMbuf1YTCi93GgFErwL-w/o.jpg", "categories": [{"alias": "newamerican", "title": "American (New)"}, {"alias": "pubs", "title": "Pubs"}, {"alias": "beer_and_wine", "title": "Beer, Wine & Spirits"}], "display_phone": "(347) 396-0555", "phone": "+13473960555", "id": "zEHzdRjEa23tcH585_SqHw", "is_closed": false, "location": {"city": "Bronx", "display_address": ["2344 Arthur Ave", "Bronx, NY 10458"], "country": "US", "address2": "", "address3": "", "state": "NY", "address1": "2344 Arthur Ave", "zip_code": "10458"}}, {"rating": 4.0, "review_count": 23, "name": "The Punch Bowl", "transactions": [], "url": "https://www.yelp.com/biz/the-punch-bowl-bronx?adjust_creative=yhLoLzsNXKw40xZ5RCWPpA&utm_campaign=yelp_api_v3&utm_medium=api_v3_business_search&utm_source=yhLoLzsNXKw40xZ5RCWPpA", "price": "$", "distance": 1821.0826133402954, "coordinates": {"latitude": 40.885126, "longitude": -73.900247}, "alias": "the-punch-bowl-bronx", "image_url": "https://s3-media2.fl.yelpcdn.com/bphoto/a-0iy2b8ruPei8Q5D7xRkw/o.jpg", "categories": [{"alias": "divebars", "title": "Dive Bars"}], "display_phone": "(718) 884-7322", "phone": "+17188847322", "id": "9T47rsUxcgkkCBuDRjRWkg", "is_closed": false, "location": {"city": "Bronx", "display_address": ["5820 Broadway", "Bronx, NY 10463"], "country": "US", "address2": "", "address3": "", "state": "NY", "address1": "5820 Broadway", "zip_code": "10463"}}, {"rating": 4.5, "review_count": 128, "name": "Kingsbridge Social Club", "transactions": ["pickup"], "url": "https://www.yelp.com/biz/kingsbridge-social-club-bronx-2?adjust_creative=yhLoLzsNXKw40xZ5RCWPpA&utm_campaign=yelp_api_v3&utm_medium=api_v3_business_search&utm_source=yhLoLzsNXKw40xZ5RCWPpA", "price": "$$", "distance": 1836.8944661168723, "coordinates": {"latitude": 40.88455, "longitude": -73.90194}, "alias": "kingsbridge-social-club-bronx-2", "image_url": "https://s3-media3.fl.yelpcdn.com/bphoto/KV25BOJ8xdYs9Ty1OnMRjw/o.jpg", "categories": [{"alias": "pizza", "title": "Pizza"}, {"alias": "bars", "title": "Bars"}, {"alias": "sandwiches", "title": "Sandwiches"}], "display_phone": "(347) 346-5180", "phone": "+13473465180", "id": "6B3iu_WSfyZU2fqSH1GTzQ", "is_closed": false, "location": {"city": "Bronx", "display_address": ["3625 Kingsbridge Ave", "Bronx, NY 10463"], "country": "US", "address2": "", "address3": null, "state": "NY", "address1": "3625 Kingsbridge Ave", "zip_code": "10463"}}, {"rating": 3.0, "review_count": 532, "name": "Salsa Con Fuego", "transactions": [], "url": "https://www.yelp.com/biz/salsa-con-fuego-bronx?adjust_creative=yhLoLzsNXKw40xZ5RCWPpA&utm_campaign=yelp_api_v3&utm_medium=api_v3_business_search&utm_source=yhLoLzsNXKw40xZ5RCWPpA", "price": "$$", "distance": 1940.3576222476265, "coordinates": {"latitude": 40.86227, "longitude": -73.91149}, "alias": "salsa-con-fuego-bronx", "image_url": "https://s3-media2.fl.yelpcdn.com/bphoto/yYDupJduz2HT_KOBZbFHlg/o.jpg", "categories": [{"alias": "bars", "title": "Bars"}, {"alias": "latin", "title": "Latin American"}, {"alias": "venues", "title": "Venues & Event Spaces"}], "display_phone": "(718) 561-6161", "phone": "+17185616161", "id": "fyVLkWQ5CP5q1yP8nnsj5g", "is_closed": false, "location": {"city": "Bronx", "display_address": ["2297 Cedar Ave", "Bronx, NY 10468"], "country": "US", "address2": null, "address3": "", "state": "NY", "address1": "2297 Cedar Ave", "zip_code": "10468"}}, {"rating": 3.5, "review_count": 19, "name": "Sahara Cafe & Lounge", "transactions": [], "url": "https://www.yelp.com/biz/sahara-cafe-and-lounge-new-york?adjust_creative=yhLoLzsNXKw40xZ5RCWPpA&utm_campaign=yelp_api_v3&utm_medium=api_v3_business_search&utm_source=yhLoLzsNXKw40xZ5RCWPpA", "price": "$$", "distance": 2077.884833019956, "coordinates": {"latitude": 40.8692827202108, "longitude": -73.9155719185718}, "alias": "sahara-cafe-and-lounge-new-york", "image_url": "https://s3-media3.fl.yelpcdn.com/bphoto/SGgyv5a4bYjVAsBbOh0Yqg/o.jpg", "categories": [{"alias": "lounges", "title": "Lounges"}, {"alias": "latin", "title": "Latin American"}, {"alias": "hookah_bars", "title": "Hookah Bars"}], "display_phone": "(646) 882-0169", "phone": "+16468820169", "id": "lS_pyqnLHaw_MqxOMZomLw", "is_closed": false, "location": {"city": "New York", "display_address": ["4026 10th Ave", "New York, NY 10034"], "country": "US", "address2": "", "address3": "", "state": "NY", "address1": "4026 10th Ave", "zip_code": "10034"}}, {"rating": 2.5, "review_count": 44, "name": "Cavala Cafe", "transactions": [], "url": "https://www.yelp.com/biz/cavala-cafe-new-york?adjust_creative=yhLoLzsNXKw40xZ5RCWPpA&utm_campaign=yelp_api_v3&utm_medium=api_v3_business_search&utm_source=yhLoLzsNXKw40xZ5RCWPpA", "price": "$$", "distance": 2157.267615694693, "coordinates": {"latitude": 40.8696101, "longitude": -73.9165048}, "alias": "cavala-cafe-new-york", "image_url": "https://s3-media4.fl.yelpcdn.com/bphoto/liibP4F0YyV5BKgesZtvug/o.jpg", "categories": [{"alias": "latin", "title": "Latin American"}, {"alias": "mediterranean", "title": "Mediterranean"}, {"alias": "cocktailbars", "title": "Cocktail Bars"}], "display_phone": "(212) 567-6640", "phone": "+12125676640", "id": "J5rfHu7JWEQsdupcA97EXA", "is_closed": false, "location": {"city": "New York", "display_address": ["5035 Broadway", "New York, NY 10034"], "country": "US", "address2": "", "address3": "", "state": "NY", "address1": "5035 Broadway", "zip_code": "10034"}}, {"rating": 1.5, "review_count": 8, "name": "Fenwicks Bar & Grill", "transactions": [], "url": "https://www.yelp.com/biz/fenwicks-bar-and-grill-bronx?adjust_creative=yhLoLzsNXKw40xZ5RCWPpA&utm_campaign=yelp_api_v3&utm_medium=api_v3_business_search&utm_source=yhLoLzsNXKw40xZ5RCWPpA", "price": "$", "distance": 2185.036721662592, "coordinates": {"latitude": 40.88707, "longitude": -73.90452}, "alias": "fenwicks-bar-and-grill-bronx", "image_url": "https://s3-media4.fl.yelpcdn.com/bphoto/56b7nNYv0yjlGXEcv7g5XQ/o.jpg", "categories": [{"alias": "bars", "title": "Bars"}, {"alias": "tradamerican", "title": "American (Traditional)"}], "display_phone": "(718) 432-1159", "phone": "+17184321159", "id": "-lAvjBkb4Ah5AtOtdcAwmQ", "is_closed": false, "location": {"city": "Bronx", "display_address": ["432 W 238th St", "Bronx, NY 10463"], "country": "US", "address2": "", "address3": "", "state": "NY", "address1": "432 W 238th St", "zip_code": "10463"}}, {"rating": 4.0, "review_count": 85, "name": "Cocina Chente", "transactions": ["pickup"], "url": "https://www.yelp.com/biz/cocina-chente-bronx?adjust_creative=yhLoLzsNXKw40xZ5RCWPpA&utm_campaign=yelp_api_v3&utm_medium=api_v3_business_search&utm_source=yhLoLzsNXKw40xZ5RCWPpA", "price": "$$", "distance": 2216.168217421413, "coordinates": {"latitude": 40.8860743476189, "longitude": -73.9070924953627}, "alias": "cocina-chente-bronx", "image_url": "https://s3-media2.fl.yelpcdn.com/bphoto/hJOJPxcOLhKc04XafpxIdA/o.jpg", "categories": [{"alias": "mexican", "title": "Mexican"}, {"alias": "cocktailbars", "title": "Cocktail Bars"}], "display_phone": "(347) 843-8081", "phone": "+13478438081", "id": "DpOhfKF92bZPqN9NPreTEg", "is_closed": false, "location": {"city": "Bronx", "display_address": ["3535 Riverdale Ave", "Bronx, NY 10463"], "country": "US", "address2": "", "address3": null, "state": "NY", "address1": "3535 Riverdale Ave", "zip_code": "10463"}}, {"rating": 2.0, "review_count": 18, "name": "Playroom NYC", "transactions": [], "url": "https://www.yelp.com/biz/playroom-nyc-new-york?adjust_creative=yhLoLzsNXKw40xZ5RCWPpA&utm_campaign=yelp_api_v3&utm_medium=api_v3_business_search&utm_source=yhLoLzsNXKw40xZ5RCWPpA", "distance": 2220.589703965232, "coordinates": {"latitude": 40.8674512499101, "longitude": -73.9167965449861}, "alias": "playroom-nyc-new-york", "image_url": "https://s3-media4.fl.yelpcdn.com/bphoto/RpOz2UqVtg7TZ9nDaj_OHQ/o.jpg", "categories": [{"alias": "lounges", "title": "Lounges"}], "display_phone": "(646) 964-4931", "phone": "+16469644931", "id": "baxmQU-KkaAe_HnEWBIg0w", "is_closed": false, "location": {"city": "New York", "display_address": ["3964 10th Ave", "New York, NY 10034"], "country": "US", "address2": "", "address3": null, "state": "NY", "address1": "3964 10th Ave", "zip_code": "10034"}}, {"rating": 3.0, "review_count": 15, "name": "Liffy II Bar", "transactions": [], "url": "https://www.yelp.com/biz/liffy-ii-bar-new-york?adjust_creative=yhLoLzsNXKw40xZ5RCWPpA&utm_campaign=yelp_api_v3&utm_medium=api_v3_business_search&utm_source=yhLoLzsNXKw40xZ5RCWPpA", "price": "$", "distance": 2227.1957303902186, "coordinates": {"latitude": 40.8692172041273, "longitude": -73.9173455534014}, "alias": "liffy-ii-bar-new-york", "image_url": "https://s3-media3.fl.yelpcdn.com/bphoto/vs0UPwtmeoHbxULx1HSSJA/o.jpg", "categories": [{"alias": "bars", "title": "Bars"}], "display_phone": "(212) 544-7669", "phone": "+12125447669", "id": "xVdaJiVkalH4uUUadh9gJA", "is_closed": false, "location": {"city": "New York", "display_address": ["5009 Broadway", "New York, NY 10034"], "country": "US", "address2": "", "address3": "", "state": "NY", "address1": "5009 Broadway", "zip_code": "10034"}}, {"rating": 4.0, "review_count": 112, "name": "An Beal Bocht Cafe", "transactions": [], "url": "https://www.yelp.com/biz/an-beal-bocht-cafe-bronx?adjust_creative=yhLoLzsNXKw40xZ5RCWPpA&utm_campaign=yelp_api_v3&utm_medium=api_v3_business_search&utm_source=yhLoLzsNXKw40xZ5RCWPpA", "price": "$$", "distance": 2245.1674112135606, "coordinates": {"latitude": 40.88738, "longitude": -73.90498}, "alias": "an-beal-bocht-cafe-bronx", "image_url": "https://s3-media3.fl.yelpcdn.com/bphoto/q00jPfq1-tZnT14BWfGzag/o.jpg", "categories": [{"alias": "irish", "title": "Irish"}, {"alias": "pubs", "title": "Pubs"}], "display_phone": "(718) 884-7127", "phone": "+17188847127", "id": "Oyo1aojLt5Q6FXBNjidVeQ", "is_closed": false, "location": {"city": "Bronx", "display_address": ["445 W 238th St", "Bronx, NY 10463"], "country": "US", "address2": "", "address3": "", "state": "NY", "address1": "445 W 238th St", "zip_code": "10463"}}]}