{"region": {"center": {"latitude": 40.8521569102, "longitude": -73.9097442062}}, "total": 748, "businesses": [{"rating": 1.0, "review_count": 3, "name": "Cao Lounge", "transactions": [], "url": "https://www.yelp.com/biz/cao-lounge-bronx?adjust_creative=yhLoLzsNXKw40xZ5RCWPpA&utm_campaign=yelp_api_v3&utm_medium=api_v3_business_search&utm_source=yhLoLzsNXKw40xZ5RCWPpA", "price": "$", "distance": 360.47881169377865, "coordinates": {"latitude": 40.8492393, "longitude": -73.9116516}, "alias": "cao-lounge-bronx", "image_url": "https://s3-media3.fl.yelpcdn.com/bphoto/3dpL9co5ON6LjpCVYPf_ig/o.jpg", "categories": [{"alias": "lounges", "title": "Lounges"}], "display_phone": "(347) 560-3307", "phone": "+13475603307", "id": "S9HLVDsLTwJ_Y1vM0sMFDg", "is_closed": false, "location": {"city": "Bronx", "display_address": ["1793 Jerome Ave", "Bronx, NY 10453"], "country": "US", "address2": null, "address3": "", "state": "NY", "address1": "1793 Jerome Ave", "zip_code": "10453"}}, {"rating": 3.0, "review_count": 14, "name": "Que Sabrosura! Restaurant & Bar", "transactions": ["delivery", "pickup"], "url": "https://www.yelp.com/biz/que-sabrosura-restaurant-and-bar-bronx-4?adjust_creative=yhLoLzsNXKw40xZ5RCWPpA&utm_campaign=yelp_api_v3&utm_medium=api_v3_business_search&utm_source=yhLoLzsNXKw40xZ5RCWPpA", "price": "$$", "distance": 896.3815985824492, "coordinates": {"latitude": 40.85827, "longitude": -73.9027}, "alias": "que-sabrosura-restaurant-and-bar-bronx-4", "image_url": "https://s3-media2.fl.yelpcdn.com/bphoto/vMjOlHqlixs8yhJPrycFdA/o.jpg", "categories": [{"alias": "latin", "title": "Latin American"}, {"alias": "dominican", "title": "Dominican"}, {"alias": "hookah_bars", "title": "Hookah Bars"}], "display_phone": "(718) 365-2200", "phone": "+17183652200", "id": "0XDlyOlcwMCSxNSM1m2BVw", "is_closed": false, "location": {"city": "Bronx", "display_address": ["48 E 183rd St", "Bronx, NY 10453"], "country": "US", "address2": "", "address3": "", "state": "NY", "address1": "48 E 183rd St", "zip_code": "10453"}}, {"rating": 1.5, "review_count": 4, "name": "Praia Lounge", "transactions": [], "url": "https://www.yelp.com/biz/praia-lounge-bronx?adjust_creative=yhLoLzsNXKw40xZ5RCWPpA&utm_campaign=yelp_api_v3&utm_medium=api_v3_business_search&utm_source=yhLoLzsNXKw40xZ5RCWPpA", "price": "$$", "distance": 904.7569997258325, "coordinates": {"latitude": 40.8459809305815, "longitude": -73.9027410373092}, "alias": "praia-lounge-bronx", "image_url": "https://s3-media1.fl.yelpcdn.com/bphoto/XyfZ2R-iX_5G7tsqiBSBHQ/o.jpg", "categories": [{"alias": "hookah_bars", "title": "Hookah Bars"}, {"alias": "lounges", "title": "Lounges"}], "display_phone": "(347) 796-1805", "phone": "+13477961805", "id": "0xoW5HVhh-JAbxdXfik-aQ", "is_closed": false, "location": {"city": "Bronx", "display_address": ["1805 Carter Ave", "Bronx, NY 10457"], "country": "US", "address2": "", "address3": "", "state": "NY", "address1": "1805 Carter Ave", "zip_code": "10457"}}, {"rating": 2.5, "review_count": 4, "name": "27 Sport Bar & Cafe", "transactions": [], "url": "https://www.yelp.com/biz/27-sport-bar-and-cafe-bronx?adjust_creative=yhLoLzsNXKw40xZ5RCWPpA&utm_campaign=yelp_api_v3&utm_medium=api_v3_business_search&utm_source=yhLoLzsNXKw40xZ5RCWPpA", "distance": 972.8075315144498, "coordinates": {"latitude": 40.84437, "longitude": -73.91504}, "alias": "27-sport-bar-and-cafe-bronx", "image_url": "https://s3-media3.fl.yelpcdn.com/bphoto/QeVFGAcu7GTaMZrV0NOvwQ/o.jpg", "categories": [{"alias": "sportsbars", "title": "Sports Bars"}], "display_phone": "(718) 731-3585", "phone": "+17187313585", "id": "o1um3Mu4B--ahDcqpdF8pg", "is_closed": false, "location": {"city": "Bronx", "display_address": ["2 W Mount Eden Ave", "Bronx, NY 10452"], "country": "US", "address2": null, "address3": null, "state": "NY", "address1": "2 W Mount Eden Ave", "zip_code": "10452"}}, {"rating": 2.5, "review_count": 3, "name": "Crush Bar & Lounge", "transactions": [], "url": "https://www.yelp.com/biz/crush-bar-and-lounge-mount-eden?adjust_creative=yhLoLzsNXKw40xZ5RCWPpA&utm_campaign=yelp_api_v3&utm_medium=api_v3_business_search&utm_source=yhLoLzsNXKw40xZ5RCWPpA", "distance": 976.3691791067669, "coordinates": {"latitude": 40.8444286, "longitude": -73.9153081}, "alias": "crush-bar-and-lounge-mount-eden", "image_url": "https://s3-media2.fl.yelpcdn.com/bphoto/boEJGH9v0wC09zaF1aDIUg/o.jpg", "categories": [{"alias": "hookah_bars", "title": "Hookah Bars"}, {"alias": "lounges", "title": "Lounges"}], "display_phone": "", "phone": "", "id": "YrCYAPODwrnnJknfY7gxCw", "is_closed": false, "location": {"city": "Mount Eden", "display_address": ["10 W Mount Eden", "Mount Eden, NY 10452"], "country": "US", "address2": "", "address3": "", "state": "NY", "address1": "10 W Mount Eden", "zip_code": "10452"}}, {"rating": 3.0, "review_count": 532, "name": "Salsa Con Fuego", "transactions": [], "url": "https://www.yelp.com/biz/salsa-con-fuego-bronx?adjust_creative=yhLoLzsNXKw40xZ5RCWPpA&utm_campaign=yelp_api_v3&utm_medium=api_v3_business_search&utm_source=yhLoLzsNXKw40xZ5RCWPpA", "price": "$$", "distance": 1144.278919291298, "coordinates": {"latitude": 40.86227, "longitude": -73.91149}, "alias": "salsa-con-fuego-bronx", "image_url": "https://s3-media2.fl.yelpcdn.com/bphoto/yYDupJduz2HT_KOBZbFHlg/o.jpg", "categories": [{"alias": "bars", "title": "Bars"}, {"alias": "latin", "title": "Latin American"}, {"alias": "venues", "title": "Venues & Event Spaces"}], "display_phone": "(718) 561-6161", "phone": "+17185616161", "id": "fyVLkWQ5CP5q1yP8nnsj5g", "is_closed": false, "location": {"city": "Bronx", "display_address": ["2297 Cedar Ave", "Bronx, NY 10468"], "country": "US", "address2": null, "address3": "", "state": "NY", "address1": "2297 Cedar Ave", "zip_code": "10468"}}, {"rating": 5.0, "review_count": 4, "name": "El Sinaloense", "transactions": ["delivery", "pickup"], "url": "https://www.yelp.com/biz/el-sinaloense-west-bronx?adjust_creative=yhLoLzsNXKw40xZ5RCWPpA&utm_campaign=yelp_api_v3&utm_medium=api_v3_business_search&utm_source=yhLoLzsNXKw40xZ5RCWPpA", "distance": 1177.160985037575, "coordinates": {"latitude": 40.8625361057465, "longitude": -73.9069879800081}, "alias": "el-sinaloense-west-bronx", "image_url": "https://s3-media2.fl.yelpcdn.com/bphoto/kwCBRkEziEhZkJoKE49Isg/o.jpg", "categories": [{"alias": "mexican", "title": "Mexican"}, {"alias": "bars", "title": "Bars"}], "display_phone": "(917) 801-4965", "phone": "+19178014965", "id": "WTrX6u33EUeejj6c5gRwjQ", "is_closed": false, "location": {"city": "West Bronx", "display_address": ["132 W Fordham Rd", "West Bronx, NY 10468"], "country": "US", "address2": "", "address3": "", "state": "NY", "address1": "132 W Fordham Rd", "zip_code": "10468"}}, {"rating": 3.5, "review_count": 3, "name": "Krystal Bar & Lounge", "transactions": [], "url": "https://www.yelp.com/biz/krystal-bar-and-lounge-bronx?adjust_creative=yhLoLzsNXKw40xZ5RCWPpA&utm_campaign=yelp_api_v3&utm_medium=api_v3_business_search&utm_source=yhLoLzsNXKw40xZ5RCWPpA", "price": "$", "distance": 1222.0372524554907, "coordinates": {"latitude": 40.8458016663918, "longitude": -73.9215973825076}, "alias": "krystal-bar-and-lounge-bronx", "image_url": "https://s3-media2.fl.yelpcdn.com/bphoto/Gs7dW1i7QPBbH7KPaL24AA/o.jpg", "categories": [{"alias": "latin", "title": "Latin American"}, {"alias": "danceclubs", "title": "Dance Clubs"}, {"alias": "lounges", "title": "Lounges"}], "display_phone": "(917) 471-9756", "phone": "+19174719756", "id": "2QWgPYpJ6HHWve5qeiF4JA", "is_closed": false, "location": {"city": "Bronx", "display_address": ["1534 University Ave", "Bronx, NY 10453"], "country": "US", "address2": null, "address3": "", "state": "NY", "address1": "1534 University Ave", "zip_code": "10453"}}, {"rating": 3.0, "review_count": 61, "name": "Cocina Taller", "transactions": [], "url": "https://www.yelp.com/biz/cocina-taller-manhattan?adjust_creative=yhLoLzsNXKw40xZ5RCWPpA&utm_campaign=yelp_api_v3&utm_medium=api_v3_business_search&utm_source=yhLoLzsNXKw40xZ5RCWPpA", "price": "$$", "distance": 1293.3859213948597, "coordinates": {"latitude": 40.8613062, "longitude": -73.9192404}, "alias": "cocina-taller-manhattan", "image_url": "https://s3-media3.fl.yelpcdn.com/bphoto/BgyArNbqPjg8e3mT2rOSzA/o.jpg", "categories": [{"alias": "mediterranean", "title": "Mediterranean"}, {"alias": "champagne_bars", "title": "Champagne Bars"}], "display_phone": "(212) 304-0860", "phone": "+12123040860", "id": "53FfOCrQw8iGlBdT4aLaSQ", "is_closed": false, "location": {"city": "Manhattan", "display_address": ["416 B W 203rd St", "Manhattan, NY 10034"], "country": "US", "address2": "", "address3": "", "state": "NY", "address1": "416 B W 203rd St", "zip_code": "10034"}}, {"rating": 3.0, "review_count": 12, "name": "Paradise Theater", "transactions": [], "url": "https://www.yelp.com/biz/paradise-theater-bronx?adjust_creative=yhLoLzsNXKw40xZ5RCWPpA&utm_campaign=yelp_api_v3&utm_medium=api_v3_business_search&utm_source=yhLoLzsNXKw40xZ5RCWPpA", "price": "$", "distance": 1299.6756484417526, "coordinates": {"latitude": 40.86055, "longitude": -73.89885}, "alias": "paradise-theater-bronx", "image_url": "https://s3-media4.fl.yelpcdn.com/bphoto/xXIjCYDQ-rvHFb5yj8W_0Q/o.jpg", "categories": [{"alias": "musicvenues", "title": "Music Venues"}], "display_phone": "", "phone": "", "id": "jXgl9QFaRN0eOpLAGP6Htg", "is_closed": false, "location": {"city": "Bronx", "display_address": ["2403 Grand Concourse", "Bronx, NY 10468"], "country": "US", "address2": "", "address3": "", "state": "NY", "address1": "2403 Grand Concourse", "zip_code": "10468"}}, {"rating": 3.0, "review_count": 2, "name": "El Lider Bar & Restaurant", "transactions": [], "url": "https://www.yelp.com/biz/el-lider-bar-and-restaurant-bronx?adjust_creative=yhLoLzsNXKw40xZ5RCWPpA&utm_campaign=yelp_api_v3&utm_medium=api_v3_business_search&utm_source=yhLoLzsNXKw40xZ5RCWPpA", "distance": 1307.2845483754113, "coordinates": {"latitude": 40.8558, "longitude": -73.895}, "alias": "el-lider-bar-and-restaurant-bronx", "image_url": "https://s3-media2.fl.yelpcdn.com/bphoto/cXKLeRLH2-2OuYINJDLwkw/o.jpg", "categories": [{"alias": "nightlife", "title": "Nightlife"}], "display_phone": "(718) 220-2923", "phone": "+17182202923", "id": "pGSySf9NOHfFF22VTnCXuw", "is_closed": false, "location": {"city": "Bronx", "display_address": ["4535 Park Ave", "Bronx, NY 10457"], "country": "US", "address2": null, "address3": null, "state": "NY", "address1": "4535 Park Ave", "zip_code": "10457"}}, {"rating": 1.5, "review_count": 32, "name": "Opus Lounge", "transactions": [], "url": "https://www.yelp.com/biz/opus-lounge-new-york?adjust_creative=yhLoLzsNXKw40xZ5RCWPpA&utm_campaign=yelp_api_v3&utm_medium=api_v3_business_search&utm_source=yhLoLzsNXKw40xZ5RCWPpA", "price": "$$", "distance": 1319.5977786471663, "coordinates": {"latitude": 40.861088399796, "longitude": -73.9200759288771}, "alias": "opus-lounge-new-york", "image_url": "https://s3-media3.fl.yelpcdn.com/bphoto/WEqewOfJj72yKC4OV0uogg/o.jpg", "categories": [{"alias": "danceclubs", "title": "Dance Clubs"}], "display_phone": "(212) 304-0043", "phone": "+12123040043", "id": "X4VRe_2fJ-wf0flClsv2OA", "is_closed": false, "location": {"city": "New York", "display_address": ["417 W 202nd St", "New York, NY 10034"], "country": "US", "address2": "", "address3": "", "state": "NY", "address1": "417 W 202nd St", "zip_code": "10034"}}, {"rating": 2.5, "review_count": 13, "name": "Taboga", "transactions": ["delivery", "pickup"], "url": "https://www.yelp.com/biz/taboga-new-york-2?adjust_creative=yhLoLzsNXKw40xZ5RCWPpA&utm_campaign=yelp_api_v3&utm_medium=api_v3_business_search&utm_source=yhLoLzsNXKw40xZ5RCWPpA", "price": "$$", "distance": 1324.7716814523985, "coordinates": {"latitude": 40.8610242944589, "longitude": -73.9202643411095}, "alias": "taboga-new-york-2", "image_url": "https://s3-media1.fl.yelpcdn.com/bphoto/oCm4qeqmh6G8ICxtN0SFRw/o.jpg", "categories": [{"alias": "barbers", "title": "Barbers"}, {"alias": "poolhalls", "title": "Pool Halls"}, {"alias": "spanish", "title": "Spanish"}], "display_phone": "(212) 304-0018", "phone": "+12123040018", "id": "AaGL6Q8AOSnvs3Wavk6fbg", "is_closed": false, "location": {"city": "New York", "display_address": ["421 W 202nd St", "New York, NY 10034"], "country": "US", "address2": "", "address3": null, "state": "NY", "address1": "421 W 202nd St", "zip_code": "10034"}}, {"rating": 2.5, "review_count": 92, "name": "Vacca Grill & Lounge", "transactions": ["delivery", "pickup"], "url": "https://www.yelp.com/biz/vacca-grill-and-lounge-new-york?adjust_creative=yhLoLzsNXKw40xZ5RCWPpA&utm_campaign=yelp_api_v3&utm_medium=api_v3_business_search&utm_source=yhLoLzsNXKw40xZ5RCWPpA", "price": "$$", "distance": 1330.2088418269666, "coordinates": {"latitude": 40.861233, "longitude": -73.920048}, "alias": "vacca-grill-and-lounge-new-york", "image_url": "https://s3-media1.fl.yelpcdn.com/bphoto/kSIBMWDv9qEH3tIBVWOJGQ/o.jpg", "categories": [{"alias": "lounges", "title": "Lounges"}, {"alias": "newamerican", "title": "American (New)"}], "display_phone": "(212) 544-0070", "phone": "+12125440070", "id": "2Wgc35DK_4oom5-Grsx0pw", "is_closed": false, "location": {"city": "New York", "display_address": ["416 W 203rd St", "New York, NY 10034"], "country": "US", "address2": "", "address3": "", "state": "NY", "address1": "416 W 203rd St", "zip_code": "10034"}}, {"rating": 3.0, "review_count": 224, "name": "Sushi Mambo", "transactions": ["delivery", "restaurant_reservation", "pickup"], "url": "https://www.yelp.com/biz/sushi-mambo-new-york-2?adjust_creative=yhLoLzsNXKw40xZ5RCWPpA&utm_campaign=yelp_api_v3&utm_medium=api_v3_business_search&utm_source=yhLoLzsNXKw40xZ5RCWPpA", "price": "$$", "distance": 1344.916645917734, "coordinates": {"latitude": 40.86106, "longitude": -73.92036}, "alias": "sushi-mambo-new-york-2", "image_url": "https://s3-media4.fl.yelpcdn.com/bphoto/veg1W1WL2afQ6jPpVkwkgw/o.jpg", "categories": [{"alias": "sushi", "title": "Sushi Bars"}, {"alias": "japanese", "title": "Japanese"}, {"alias": "bars", "title": "Bars"}], "display_phone": "(347) 513-3649", "phone": "+13475133649", "id": "3sQPGzWl0PMi2ULZ4DbEAg", "is_closed": false, "location": {"city": "New York", "display_address": ["431 W 202nd St", "New York, NY 10034"], "country": "US", "address2": null, "address3": "", "state": "NY", "address1": "431 W 202nd St", "zip_code": "10034"}}, {"rating": 4.5, "review_count": 52, "name": "Suyo Gastrofusion", "transactions": [], "url": "https://www.yelp.com/biz/suyo-gastrofusion-bronx?adjust_creative=yhLoLzsNXKw40xZ5RCWPpA&utm_campaign=yelp_api_v3&utm_medium=api_v3_business_search&utm_source=yhLoLzsNXKw40xZ5RCWPpA", "price": "$$", "distance": 1445.3377406714694, "coordinates": {"latitude": 40.840872, "longitude": -73.918271}, "alias": "suyo-gastrofusion-bronx", "image_url": "https://s3-media1.fl.yelpcdn.com/bphoto/bAJM7bjvez1hLTXE2mh_Cg/o.jpg", "categories": [{"alias": "asianfusion", "title": "Asian Fusion"}, {"alias": "latin", "title": "Latin American"}, {"alias": "cocktailbars", "title": "Cocktail Bars"}], "display_phone": "(718) 537-7896", "phone": "+17185377896", "id": "t1_qBEjXscQn-mp6-or_sw", "is_closed": false, "location": {"city": "Bronx", "display_address": ["1401 Plaza Dr", "Bronx, NY 10452"], "country": "US", "address2": null, "address3": "", "state": "NY", "address1": "1401 Plaza Dr", "zip_code": "10452"}}, {"rating": 2.5, "review_count": 2, "name": "Gravity Lounge And Restaurant", "transactions": [], "url": "https://www.yelp.com/biz/gravity-lounge-and-restaurant-claremont?adjust_creative=yhLoLzsNXKw40xZ5RCWPpA&utm_campaign=yelp_api_v3&utm_medium=api_v3_business_search&utm_source=yhLoLzsNXKw40xZ5RCWPpA", "distance": 1459.4208912149948, "coordinates": {"latitude": 40.8394737303361, "longitude": -73.9052808722379}, "alias": "gravity-lounge-and-restaurant-claremont", "image_url": "https://s3-media4.fl.yelpcdn.com/bphoto/ZDXRx99cJs1vJulnHC3CXg/o.jpg", "categories": [{"alias": "lounges", "title": "Lounges"}], "display_phone": "(646) 225-8048", "phone": "+16462258048", "id": "n6vKNwu5Nd2O9vYk_ffvhw", "is_closed": false, "location": {"city": "Claremont", "display_address": ["1538 Webster Ave", "Claremont, NY 10457"], "country": "US", "address2": "", "address3": "", "state": "NY", "address1": "1538 Webster Ave", "zip_code": "10457"}}, {"rating": 2.0, "review_count": 1, "name": "Equator Lounge", "transactions": [], "url": "https://www.yelp.com/biz/equator-lounge-bronx?adjust_creative=yhLoLzsNXKw40xZ5RCWPpA&utm_campaign=yelp_api_v3&utm_medium=api_v3_business_search&utm_source=yhLoLzsNXKw40xZ5RCWPpA", "price": "$$", "distance": 1471.3324154280972, "coordinates": {"latitude": 40.84059, "longitude": -73.918278}, "alias": "equator-lounge-bronx", "image_url": "", "categories": [{"alias": "nightlife", "title": "Nightlife"}], "display_phone": "(718) 590-9084", "phone": "+17185909084", "id": "buDXsJI6DuwK9MaqpA1HJA", "is_closed": false, "location": {"city": "Bronx", "display_address": ["1401 Jerome Ave", "Bronx, NY 10452"], "country": "US", "address2": "", "address3": "", "state": "NY", "address1": "1401 Jerome Ave", "zip_code": "10452"}}, {"rating": 2.5, "review_count": 9, "name": "El Tina Bar", "transactions": [], "url": "https://www.yelp.com/biz/el-tina-bar-manhattan?adjust_creative=yhLoLzsNXKw40xZ5RCWPpA&utm_campaign=yelp_api_v3&utm_medium=api_v3_business_search&utm_source=yhLoLzsNXKw40xZ5RCWPpA", "price": "$$", "distance": 1571.1655588400827, "coordinates": {"latitude": 40.864233, "longitude": -73.919444}, "alias": "el-tina-bar-manhattan", "image_url": "https://s3-media3.fl.yelpcdn.com/bphoto/fmjSnlUn9NIo2Gkw1rITVw/o.jpg", "categories": [{"alias": "danceclubs", "title": "Dance Clubs"}, {"alias": "sportsbars", "title": "Sports Bars"}], "display_phone": "(212) 304-9810", "phone": "+12123049810", "id": "-4t1feyW_LXK4Ch9FmcAjA", "is_closed": false, "location": {"city": "Manhattan", "display_address": ["500 W 207th St", "Manhattan, NY 10034"], "country": "US", "address2": "", "address3": "", "state": "NY", "address1": "500 W 207th St", "zip_code": "10034"}}, {"rating": 5.0, "review_count": 1, "name": "JJ Sport Bar Restaurant", "transactions": ["delivery", "pickup"], "url": "https://www.yelp.com/biz/jj-sport-bar-restaurant-bronx-2?adjust_creative=yhLoLzsNXKw40xZ5RCWPpA&utm_campaign=yelp_api_v3&utm_medium=api_v3_business_search&utm_source=yhLoLzsNXKw40xZ5RCWPpA", "distance": 1581.4876588860222, "coordinates": {"latitude": 40.854546, "longitude": -73.891168}, "alias": "jj-sport-bar-restaurant-bronx-2", "image_url": "", "categories": [{"alias": "sportsbars", "title": "Sports Bars"}], "display_phone": "(718) 450-3411", "phone": "+17184503411", "id": "MdxsHDBhTa73dpQaEYEsfA", "is_closed": false, "location": {"city": "Bronx", "display_address": ["545 E 183rd St", "Bronx, NY 10458"], "country": "US", "address2": null, "address3": null, "state": "NY", "address1": "545 E 183rd St", "zip_code": "10458"}}, {"rating": 1.5, "review_count": 8, "name": "Tette Club", "transactions": [], "url": "https://www.yelp.com/biz/tette-club-new-york?adjust_creative=yhLoLzsNXKw40xZ5RCWPpA&utm_campaign=yelp_api_v3&utm_medium=api_v3_business_search&utm_source=yhLoLzsNXKw40xZ5RCWPpA", "price": "$$$", "distance": 1624.449614684343, "coordinates": {"latitude": 40.864991247654, "longitude": -73.9189881831408}, "alias": "tette-club-new-york", "image_url": "", "categories": [{"alias": "danceclubs", "title": "Dance Clubs"}, {"alias": "venues", "title": "Venues & Event Spaces"}, {"alias": "musicvenues", "title": "Music Venues"}], "display_phone": "(212) 567-2131", "phone": "+12125672131", "id": "b6NDDiknJ_Lex50PUfzReA", "is_closed": false, "location": {"city": "New York", "display_address": ["154 Post Ave", "New York, NY 10034"], "country": "US", "address2": "", "address3": "", "state": "NY", "address1": "154 Post Ave", "zip_code": "10034"}}, {"rating": 5.0, "review_count": 8, "name": "Boca Restaurant and Lounge", "transactions": [], "url": "https://www.yelp.com/biz/boca-restaurant-and-lounge-bronx?adjust_creative=yhLoLzsNXKw40xZ5RCWPpA&utm_campaign=yelp_api_v3&utm_medium=api_v3_business_search&utm_source=yhLoLzsNXKw40xZ5RCWPpA", "distance": 1658.6406103755312, "coordinates": {"latitude": 40.8599400757929, "longitude": -73.8929201290011}, "alias": "boca-restaurant-and-lounge-bronx", "image_url": "https://s3-media2.fl.yelpcdn.com/bphoto/23hGXsN9nJpnce4TzFq15g/o.jpg", "categories": [{"alias": "newamerican", "title": "American (New)"}, {"alias": "lounges", "title": "Lounges"}], "display_phone": "(917) 688-1031", "phone": "+19176881031", "id": "6_xJeFRdbKeX5AjKu6qzgA", "is_closed": false, "location": {"city": "Bronx", "display_address": ["2458 Webster Ave", "Bronx, NY 10458"], "country": "US", "address2": "", "address3": null, "state": "NY", "address1": "2458 Webster Ave", "zip_code": "10458"}}, {"rating": 3.0, "review_count": 10, "name": "Post Billiards Cafe", "transactions": [], "url": "https://www.yelp.com/biz/post-billiards-cafe-new-york?adjust_creative=yhLoLzsNXKw40xZ5RCWPpA&utm_campaign=yelp_api_v3&utm_medium=api_v3_business_search&utm_source=yhLoLzsNXKw40xZ5RCWPpA", "price": "$$", "distance": 1658.758844484455, "coordinates": {"latitude": 40.865377, "longitude": -73.918882}, "alias": "post-billiards-cafe-new-york", "image_url": "https://s3-media1.fl.yelpcdn.com/bphoto/Q4VNvArU2-RdYtadU1QPFQ/o.jpg", "categories": [{"alias": "poolhalls", "title": "Pool Halls"}], "display_phone": "(212) 569-1840", "phone": "+12125691840", "id": "gdc3bA7EtPXXaKS_e6pAOg", "is_closed": false, "location": {"city": "New York", "display_address": ["154 Post Ave", "New York, NY 10034"], "country": "US", "address2": "", "address3": "", "state": "NY", "address1": "154 Post Ave", "zip_code": "10034"}}, {"rating": 5.0, "review_count": 6, "name": "Gitana Hookah Lounge", "transactions": [], "url": "https://www.yelp.com/biz/gitana-hookah-lounge-new-york?adjust_creative=yhLoLzsNXKw40xZ5RCWPpA&utm_campaign=yelp_api_v3&utm_medium=api_v3_business_search&utm_source=yhLoLzsNXKw40xZ5RCWPpA", "distance": 1670.9325037740048, "coordinates": {"latitude": 40.85536, "longitude": -73.92908}, "alias": "gitana-hookah-lounge-new-york", "image_url": "https://s3-media3.fl.yelpcdn.com/bphoto/8MDsUNJxcJeLBd81KDffxw/o.jpg", "categories": [{"alias": "hookah_bars", "title": "Hookah Bars"}], "display_phone": "(646) 494-1776", "phone": "+16464941776", "id": "vLWiqb1XMWynPQmCh9DH6A", "is_closed": false, "location": {"city": "New York", "display_address": ["1610 Saint Nicholas Ave", "New York, NY 10040"], "country": "US", "address2": "", "address3": null, "state": "NY", "address1": "1610 Saint Nicholas Ave", "zip_code": "10040"}}, {"rating": 3.0, "review_count": 32, "name": "Castro Bar", "transactions": [], "url": "https://www.yelp.com/biz/castro-bar-new-york?adjust_creative=yhLoLzsNXKw40xZ5RCWPpA&utm_campaign=yelp_api_v3&utm_medium=api_v3_business_search&utm_source=yhLoLzsNXKw40xZ5RCWPpA", "price": "$$", "distance": 1672.3702130621245, "coordinates": {"latitude": 40.8618729, "longitude": -73.9249231}, "alias": "castro-bar-new-york", "image_url": "https://s3-media2.fl.yelpcdn.com/bphoto/KLVOKEBOZFJNrZ1gc5-naA/o.jpg", "categories": [{"alias": "gaybars", "title": "Gay Bars"}], "display_phone": "(646) 918-7959", "phone": "+16469187959", "id": "Lm4lG0B43fC7cthem4qnpg", "is_closed": false, "location": {"city": "New York", "display_address": ["104 Dyckman St", "New York, NY 10040"], "country": "US", "address2": "", "address3": "", "state": "NY", "address1": "104 Dyckman St", "zip_code": "10040"}}, {"rating": 2.5, "review_count": 7, "name": "Melodia Lounge", "transactions": [], "url": "https://www.yelp.com/biz/melodia-lounge-new-york?adjust_creative=yhLoLzsNXKw40xZ5RCWPpA&utm_campaign=yelp_api_v3&utm_medium=api_v3_business_search&utm_source=yhLoLzsNXKw40xZ5RCWPpA", "distance": 1674.0642116531187, "coordinates": {"latitude": 40.86518, "longitude": -73.91875}, "alias": "melodia-lounge-new-york", "image_url": "https://s3-media1.fl.yelpcdn.com/bphoto/Z6eXSZ3Y3rL9LYhOztVAfQ/o.jpg", "categories": [{"alias": "danceclubs", "title": "Dance Clubs"}], "display_phone": "(212) 304-0859", "phone": "+12123040859", "id": "ZgJIdrzSJ3qih7O70zkc3Q", "is_closed": false, "location": {"city": "New York", "display_address": ["154 Post Ave", "New York, NY 10034"], "country": "US", "address2": "", "address3": "", "state": "NY", "address1": "154 Post Ave", "zip_code": "10034"}}, {"rating": 2.5, "review_count": 6, "name": "Harmoni Bar & Grill", "transactions": [], "url": "https://www.yelp.com/biz/harmoni-bar-and-grill-new-york?adjust_creative=yhLoLzsNXKw40xZ5RCWPpA&utm_campaign=yelp_api_v3&utm_medium=api_v3_business_search&utm_source=yhLoLzsNXKw40xZ5RCWPpA", "price": "$", "distance": 1674.9635435978792, "coordinates": {"latitude": 40.86097, "longitude": -73.92568}, "alias": "harmoni-bar-and-grill-new-york", "image_url": "https://s3-media1.fl.yelpcdn.com/bphoto/AZrrj8kysM0MzFdT1mr-zA/o.jpg", "categories": [{"alias": "bars", "title": "Bars"}, {"alias": "bbq", "title": "Barbeque"}], "display_phone": "(646) 895-9888", "phone": "+16468959888", "id": "pDfX95e_UE207riyh7J0YA", "is_closed": false, "location": {"city": "NY", "display_address": ["151 Nagle Ave", "NY, NY 10040"], "country": "US", "address2": "", "address3": null, "state": "NY", "address1": "151 Nagle Ave", "zip_code": "10040"}}, {"rating": 5.0, "review_count": 1, "name": "Fiesta Bar & Restaurant", "transactions": [], "url": "https://www.yelp.com/biz/fiesta-bar-and-restaurant-bronx-2?adjust_creative=yhLoLzsNXKw40xZ5RCWPpA&utm_campaign=yelp_api_v3&utm_medium=api_v3_business_search&utm_source=yhLoLzsNXKw40xZ5RCWPpA", "price": "$", "distance": 1678.1141643305018, "coordinates": {"latitude": 40.8570361, "longitude": -73.8909451}, "alias": "fiesta-bar-and-restaurant-bronx-2", "image_url": "https://s3-media4.fl.yelpcdn.com/bphoto/DTcIpYqknuiYN9TQh2Hf9w/o.jpg", "categories": [{"alias": "bars", "title": "Bars"}], "display_phone": "(718) 733-2211", "phone": "+17187332211", "id": "qq2J64FJbbYhiv0A31q9kg", "is_closed": false, "location": {"city": "Bronx", "display_address": ["4640 3rd Ave", "Bronx, NY 10458"], "country": "US", "address2": "", "address3": "", "state": "NY", "address1": "4640 3rd Ave", "zip_code": "10458"}}, {"rating": 4.0, "review_count": 197, "name": "809 Sangria Bar & Grill", "transactions": ["pickup"], "url": "https://www.yelp.com/biz/809-sangria-bar-and-grill-new-york?adjust_creative=yhLoLzsNXKw40xZ5RCWPpA&utm_campaign=yelp_api_v3&utm_medium=api_v3_business_search&utm_source=yhLoLzsNXKw40xZ5RCWPpA", "price": "$$", "distance": 1702.6897873289515, "coordinates": {"latitude": 40.86196, "longitude": -73.9252}, "alias": "809-sangria-bar-and-grill-new-york", "image_url": "https://s3-media1.fl.yelpcdn.com/bphoto/GpnY2dCZjA0jG7flBzm8nA/o.jpg", "categories": [{"alias": "spanish", "title": "Spanish"}, {"alias": "bars", "title": "Bars"}, {"alias": "caribbean", "title": "Caribbean"}], "display_phone": "(212) 304-3800", "phone": "+12123043800", "id": "Qq_YecqcQ8dhC1P-SWXPOQ", "is_closed": false, "location": {"city": "New York", "display_address": ["112 Dyckman St", "New York, NY 10040"], "country": "US", "address2": "", "address3": "", "state": "NY", "address1": "112 Dyckman St", "zip_code": "10040"}}, {"rating": 2.5, "review_count": 23, "name": "Mimosa Cafe", "transactions": [], "url": "https://www.yelp.com/biz/mimosa-cafe-new-york?adjust_creative=yhLoLzsNXKw40xZ5RCWPpA&utm_campaign=yelp_api_v3&utm_medium=api_v3_business_search&utm_source=yhLoLzsNXKw40xZ5RCWPpA", "price": "$$", "distance": 1725.4820656362901, "coordinates": {"latitude": 40.8662475, "longitude": -73.9183352}, "alias": "mimosa-cafe-new-york", "image_url": "https://s3-media3.fl.yelpcdn.com/bphoto/OS2JrVnJfFq1ftDHnFABxw/o.jpg", "categories": [{"alias": "hookah_bars", "title": "Hookah Bars"}, {"alias": "latin", "title": "Latin American"}], "display_phone": "(212) 544-0046", "phone": "+12125440046", "id": "n4cR0PSWTDpEhkB7oIO-pw", "is_closed": false, "location": {"city": "New York", "display_address": ["263 Sherman Ave", "New York, NY 10034"], "country": "US", "address2": null, "address3": "", "state": "NY", "address1": "263 Sherman Ave", "zip_code": "10034"}}, {"rating": 2.0, "review_count": 38, "name": "La Casa Del Mofongo", "transactions": [], "url": "https://www.yelp.com/biz/la-casa-del-mofongo-new-york-5?adjust_creative=yhLoLzsNXKw40xZ5RCWPpA&utm_campaign=yelp_api_v3&utm_medium=api_v3_business_search&utm_source=yhLoLzsNXKw40xZ5RCWPpA", "distance": 1728.9628151005, "coordinates": {"latitude": 40.8657651086247, "longitude": -73.919690265255}, "alias": "la-casa-del-mofongo-new-york-5", "image_url": "https://s3-media2.fl.yelpcdn.com/bphoto/b1o9sM24Dczyn2eQ8GWe4g/o.jpg", "categories": [{"alias": "italian", "title": "Italian"}, {"alias": "tapasmallplates", "title": "Tapas/Small Plates"}, {"alias": "hookah_bars", "title": "Hookah Bars"}], "display_phone": "(212) 544-8888", "phone": "+12125448888", "id": "jptXnWKw4x4kHYihKLNbZA", "is_closed": false, "location": {"city": "New York", "display_address": ["546 W 207th St", "New York, NY 10034"], "country": "US", "address2": "", "address3": null, "state": "NY", "address1": "546 W 207th St", "zip_code": "10034"}}, {"rating": 4.5, "review_count": 8, "name": "Zoe Restaurant Bar", "transactions": [], "url": "https://www.yelp.com/biz/zoe-restaurant-bar-new-york?adjust_creative=yhLoLzsNXKw40xZ5RCWPpA&utm_campaign=yelp_api_v3&utm_medium=api_v3_business_search&utm_source=yhLoLzsNXKw40xZ5RCWPpA", "price": "$$", "distance": 1783.516395597271, "coordinates": {"latitude": 40.85357, "longitude": -73.93085}, "alias": "zoe-restaurant-bar-new-york", "image_url": "https://s3-media3.fl.yelpcdn.com/bphoto/lRg0uyzDoB_eDzGRbkdYsw/o.jpg", "categories": [{"alias": "italian", "title": "Italian"}, {"alias": "bars", "title": "Bars"}, {"alias": "caribbean", "title": "Caribbean"}], "display_phone": "(917) 265-8730", "phone": "+19172658730", "id": "S85UgKrCsTFdXaly3jNJWw", "is_closed": false, "location": {"city": "New York", "display_address": ["1559 St Nicholas Ave", "New York, NY 10040"], "country": "US", "address2": "", "address3": null, "state": "NY", "address1": "1559 St Nicholas Ave", "zip_code": "10040"}}, {"rating": 2.5, "review_count": 35, "name": "Fantastic Restaurant & Lounge", "transactions": [], "url": "https://www.yelp.com/biz/fantastic-restaurant-and-lounge-new-york?adjust_creative=yhLoLzsNXKw40xZ5RCWPpA&utm_campaign=yelp_api_v3&utm_medium=api_v3_business_search&utm_source=yhLoLzsNXKw40xZ5RCWPpA", "price": "$$", "distance": 1784.142384072183, "coordinates": {"latitude": 40.866313, "longitude": -73.919609}, "alias": "fantastic-restaurant-and-lounge-new-york", "image_url": "https://s3-media3.fl.yelpcdn.com/bphoto/wwUX0X4zAqoFth9oGvf11w/o.jpg", "categories": [{"alias": "latin", "title": "Latin American"}, {"alias": "lounges", "title": "Lounges"}], "display_phone": "(212) 510-7253", "phone": "+12125107253", "id": "vcsLYA7hBkBWtteiZQHYLw", "is_closed": false, "location": {"city": "New York", "display_address": ["238 Sherman Ave", "New York, NY 10034"], "country": "US", "address2": "", "address3": "", "state": "NY", "address1": "238 Sherman Ave", "zip_code": "10034"}}, {"rating": 1.0, "review_count": 3, "name": "Monaco Lounge", "transactions": [], "url": "https://www.yelp.com/biz/monaco-lounge-new-york?adjust_creative=yhLoLzsNXKw40xZ5RCWPpA&utm_campaign=yelp_api_v3&utm_medium=api_v3_business_search&utm_source=yhLoLzsNXKw40xZ5RCWPpA", "price": "$$", "distance": 1788.1649031670509, "coordinates": {"latitude": 40.8662067876964, "longitude": -73.920088738957}, "alias": "monaco-lounge-new-york", "image_url": "https://s3-media2.fl.yelpcdn.com/bphoto/4SLYUnM-7BEY99t_TG2eVQ/o.jpg", "categories": [{"alias": "danceclubs", "title": "Dance Clubs"}, {"alias": "lounges", "title": "Lounges"}], "display_phone": "(646) 864-8778", "phone": "+16468648778", "id": "UIpx3zFNyHgvLjSK7M2aWQ", "is_closed": false, "location": {"city": "New York", "display_address": ["565 W 207th St", "New York, NY 10034"], "country": "US", "address2": "", "address3": null, "state": "NY", "address1": "565 W 207th St", "zip_code": "10034"}}, {"rating": 2.0, "review_count": 18, "name": "Playroom NYC", "transactions": [], "url": "https://www.yelp.com/biz/playroom-nyc-new-york?adjust_creative=yhLoLzsNXKw40xZ5RCWPpA&utm_campaign=yelp_api_v3&utm_medium=api_v3_business_search&utm_source=yhLoLzsNXKw40xZ5RCWPpA", "distance": 1799.7670774068317, "coordinates": {"latitude": 40.8674512499101, "longitude": -73.9167965449861}, "alias": "playroom-nyc-new-york", "image_url": "https://s3-media4.fl.yelpcdn.com/bphoto/RpOz2UqVtg7TZ9nDaj_OHQ/o.jpg", "categories": [{"alias": "lounges", "title": "Lounges"}], "display_phone": "(646) 964-4931", "phone": "+16469644931", "id": "baxmQU-KkaAe_HnEWBIg0w", "is_closed": false, "location": {"city": "New York", "display_address": ["3964 10th Ave", "New York, NY 10034"], "country": "US", "address2": "", "address3": null, "state": "NY", "address1": "3964 10th Ave", "zip_code": "10034"}}, {"rating": 4.0, "review_count": 104, "name": "Raices", "transactions": ["delivery", "restaurant_reservation", "pickup"], "url": "https://www.yelp.com/biz/raices-new-york?adjust_creative=yhLoLzsNXKw40xZ5RCWPpA&utm_campaign=yelp_api_v3&utm_medium=api_v3_business_search&utm_source=yhLoLzsNXKw40xZ5RCWPpA", "price": "$$", "distance": 1811.2174309740703, "coordinates": {"latitude": 40.86633, "longitude": -73.92016}, "alias": "raices-new-york", "image_url": "https://s3-media2.fl.yelpcdn.com/bphoto/PebPXj0iqwUy3asDLkiFQA/o.jpg", "categories": [{"alias": "bars", "title": "Bars"}, {"alias": "latin", "title": "Latin American"}], "display_phone": "(212) 729-3814", "phone": "+12127293814", "id": "8o-B_1q4XB48CmdaXdm2KQ", "is_closed": false, "location": {"city": "New York", "display_address": ["565 W 207th St", "New York, NY 10034"], "country": "US", "address2": null, "address3": "", "state": "NY", "address1": "565 W 207th St", "zip_code": "10034"}}, {"rating": 2.5, "review_count": 2, "name": "Nitro Lounge", "transactions": [], "url": "https://www.yelp.com/biz/nitro-lounge-manhattan?adjust_creative=yhLoLzsNXKw40xZ5RCWPpA&utm_campaign=yelp_api_v3&utm_medium=api_v3_business_search&utm_source=yhLoLzsNXKw40xZ5RCWPpA", "distance": 1811.2174309740703, "coordinates": {"latitude": 40.86639, "longitude": -73.92001}, "alias": "nitro-lounge-manhattan", "image_url": "https://s3-media2.fl.yelpcdn.com/bphoto/Ywp1JSb3IlwRzK5wrWqCRQ/o.jpg", "categories": [{"alias": "danceclubs", "title": "Dance Clubs"}], "display_phone": "", "phone": "", "id": "MPXSR2biQ-3wRpS5dSSEgw", "is_closed": false, "location": {"city": "Manhattan", "display_address": ["565 W 207th St", "Manhattan, NY 10034"], "country": "US", "address2": "", "address3": "", "state": "NY", "address1": "565 W 207th St", "zip_code": "10034"}}, {"rating": 3.5, "review_count": 134, "name": "The Bronx Beer Hall", "transactions": [], "url": "https://www.yelp.com/biz/the-bronx-beer-hall-bronx?adjust_creative=yhLoLzsNXKw40xZ5RCWPpA&utm_campaign=yelp_api_v3&utm_medium=api_v3_business_search&utm_source=yhLoLzsNXKw40xZ5RCWPpA", "price": "$$", "distance": 1826.2609800499067, "coordinates": {"latitude": 40.854118, "longitude": -73.888175}, "alias": "the-bronx-beer-hall-bronx", "image_url": "https://s3-media2.fl.yelpcdn.com/bphoto/ZmMbuf1YTCi93GgFErwL-w/o.jpg", "categories": [{"alias": "newamerican", "title": "American (New)"}, {"alias": "pubs", "title": "Pubs"}, {"alias": "beer_and_wine", "title": "Beer, Wine & Spirits"}], "display_phone": "(347) 396-0555", "phone": "+13473960555", "id": "zEHzdRjEa23tcH585_SqHw", "is_closed": false, "location": {"city": "Bronx", "display_address": ["2344 Arthur Ave", "Bronx, NY 10458"], "country": "US", "address2": "", "address3": "", "state": "NY", "address1": "2344 Arthur Ave", "zip_code": "10458"}}, {"rating": 2.0, "review_count": 98, "name": "Applebee's Grill + Bar", "transactions": [], "url": "https://www.yelp.com/biz/applebees-grill-bar-bronx-2?adjust_creative=yhLoLzsNXKw40xZ5RCWPpA&utm_campaign=yelp_api_v3&utm_medium=api_v3_business_search&utm_source=yhLoLzsNXKw40xZ5RCWPpA", "price": "$$", "distance": 1826.7357236572739, "coordinates": {"latitude": 40.860076, "longitude": -73.890714}, "alias": "applebees-grill-bar-bronx-2", "image_url": "https://s3-media3.fl.yelpcdn.com/bphoto/XZsSXOvvOZOWD44EV5QkuA/o.jpg", "categories": [{"alias": "tradamerican", "title": "American (Traditional)"}, {"alias": "sportsbars", "title": "Sports Bars"}, {"alias": "burgers", "title": "Burgers"}], "display_phone": "(347) 226-5120", "phone": "+13472265120", "id": "kngH_TXrwqZpSx259f68Tg", "is_closed": false, "location": {"city": "Bronx", "display_address": ["4750-4758 Third Ave", "Bronx, NY 10458"], "country": "US", "address2": "", "address3": "", "state": "NY", "address1": "4750-4758 Third Ave", "zip_code": "10458"}}, {"rating": 2.5, "review_count": 3, "name": "Champ's Sports Bar & Grill", "transactions": [], "url": "https://www.yelp.com/biz/champs-sports-bar-and-grill-west-bronx?adjust_creative=yhLoLzsNXKw40xZ5RCWPpA&utm_campaign=yelp_api_v3&utm_medium=api_v3_business_search&utm_source=yhLoLzsNXKw40xZ5RCWPpA", "price": "$$", "distance": 1826.8038856475916, "coordinates": {"latitude": 40.8559862813904, "longitude": -73.8886220473027}, "alias": "champs-sports-bar-and-grill-west-bronx", "image_url": "https://s3-media3.fl.yelpcdn.com/bphoto/dDKtw-MJkwsDwo08bLPUcA/o.jpg", "categories": [{"alias": "sportsbars", "title": "Sports Bars"}], "display_phone": "", "phone": "", "id": "hFab_XHl9IAMoz4HDs5X0Q", "is_closed": false, "location": {"city": "West Bronx", "display_address": ["566 E 187th St", "West Bronx, NY 10458"], "country": "US", "address2": "", "address3": "", "state": "NY", "address1": "566 E 187th St", "zip_code": "10458"}}, {"rating": 4.0, "review_count": 2, "name": "One Fifty One Dyckman", "transactions": [], "url": "https://www.yelp.com/biz/one-fifty-one-dyckman-manhattan?adjust_creative=yhLoLzsNXKw40xZ5RCWPpA&utm_campaign=yelp_api_v3&utm_medium=api_v3_business_search&utm_source=yhLoLzsNXKw40xZ5RCWPpA", "distance": 1837.613634446051, "coordinates": {"latitude": 40.86334, "longitude": -73.92563}, "alias": "one-fifty-one-dyckman-manhattan", "image_url": "https://s3-media2.fl.yelpcdn.com/bphoto/zPz_YvQPNlZto80u7KsgyA/o.jpg", "categories": [{"alias": "bars", "title": "Bars"}], "display_phone": "(212) 567-0151", "phone": "+12125670151", "id": "oYHE6QAAww5fJXH-tCPdfQ", "is_closed": false, "location": {"city": "Manhattan", "display_address": ["151 Dyckman St", "Manhattan, NY 10040"], "country": "US", "address2": "", "address3": null, "state": "NY", "address1": "151 Dyckman St", "zip_code": "10040"}}, {"rating": 4.0, "review_count": 133, "name": "Anchor Heights", "transactions": ["delivery", "pickup"], "url": "https://www.yelp.com/biz/anchor-heights-new-york?adjust_creative=yhLoLzsNXKw40xZ5RCWPpA&utm_campaign=yelp_api_v3&utm_medium=api_v3_business_search&utm_source=yhLoLzsNXKw40xZ5RCWPpA", "price": "$$", "distance": 1849.6071488795233, "coordinates": {"latitude": 40.86666, "longitude": -73.92037}, "alias": "anchor-heights-new-york", "image_url": "https://s3-media2.fl.yelpcdn.com/bphoto/LGOTNyRvmHg0JTXPD55Pqw/o.jpg", "categories": [{"alias": "wine_bars", "title": "Wine Bars"}, {"alias": "italian", "title": "Italian"}], "display_phone": "(646) 895-9686", "phone": "+16468959686", "id": "1kdIzJU01DuTm7WhPSdiBQ", "is_closed": false, "location": {"city": "New York", "display_address": ["575 W 207th St", "New York, NY 10034"], "country": "US", "address2": "", "address3": null, "state": "NY", "address1": "575 W 207th St", "zip_code": "10034"}}, {"rating": 3.0, "review_count": 36, "name": "Viva Tapas Bar and Lounge", "transactions": [], "url": "https://www.yelp.com/biz/viva-tapas-bar-and-lounge-new-york?adjust_creative=yhLoLzsNXKw40xZ5RCWPpA&utm_campaign=yelp_api_v3&utm_medium=api_v3_business_search&utm_source=yhLoLzsNXKw40xZ5RCWPpA", "price": "$$", "distance": 1876.2753574611486, "coordinates": {"latitude": 40.8631406, "longitude": -73.9266804}, "alias": "viva-tapas-bar-and-lounge-new-york", "image_url": "https://s3-media3.fl.yelpcdn.com/bphoto/XqP1Md5VEhgBVpm4KC_O2A/o.jpg", "categories": [{"alias": "lounges", "title": "Lounges"}], "display_phone": "(212) 567-1084", "phone": "+12125671084", "id": "hWClwOPfkVaVw1AG9TyBWA", "is_closed": false, "location": {"city": "New York", "display_address": ["65 Sherman Ave", "New York, NY 10034"], "country": "US", "address2": "", "address3": "", "state": "NY", "address1": "65 Sherman Ave", "zip_code": "10034"}}, {"rating": 2.5, "review_count": 132, "name": "Republica", "transactions": [], "url": "https://www.yelp.com/biz/republica-new-york?adjust_creative=yhLoLzsNXKw40xZ5RCWPpA&utm_campaign=yelp_api_v3&utm_medium=api_v3_business_search&utm_source=yhLoLzsNXKw40xZ5RCWPpA", "price": "$$", "distance": 1903.0995133982724, "coordinates": {"latitude": 40.86375, "longitude": -73.92635}, "alias": "republica-new-york", "image_url": "https://s3-media2.fl.yelpcdn.com/bphoto/UqkCZ2AfOaceZn0P_BMuQw/o.jpg", "categories": [{"alias": "lounges", "title": "Lounges"}, {"alias": "dominican", "title": "Dominican"}], "display_phone": "(646) 895-9444", "phone": "+16468959444", "id": "AH2tDS58NyVBCwd3o8QKRw", "is_closed": false, "location": {"city": "New York", "display_address": ["160 Dyckman St", "New York, NY 10040"], "country": "US", "address2": "", "address3": "", "state": "NY", "address1": "160 Dyckman St", "zip_code": "10040"}}, {"rating": 2.5, "review_count": 20, "name": "Arka Room", "transactions": [], "url": "https://www.yelp.com/biz/arka-room-new-york?adjust_creative=yhLoLzsNXKw40xZ5RCWPpA&utm_campaign=yelp_api_v3&utm_medium=api_v3_business_search&utm_source=yhLoLzsNXKw40xZ5RCWPpA", "price": "$$$", "distance": 1943.3697797418736, "coordinates": {"latitude": 40.85758, "longitude": -73.93178}, "alias": "arka-room-new-york", "image_url": "https://s3-media1.fl.yelpcdn.com/bphoto/rmFOuCAT4nD9yGi2TGqrBQ/o.jpg", "categories": [{"alias": "lounges", "title": "Lounges"}], "display_phone": "(917) 261-2365", "phone": "+19172612365", "id": "0RDkL49bW648ruGlYrZTSA", "is_closed": false, "location": {"city": "New York", "display_address": ["4484 Broadway", "New York, NY 10040"], "country": "US", "address2": "", "address3": null, "state": "NY", "address1": "4484 Broadway", "zip_code": "10040"}}, {"rating": 4.0, "review_count": 94, "name": "Wahi Oyster Bar & Restaurant", "transactions": ["restaurant_reservation"], "url": "https://www.yelp.com/biz/wahi-oyster-bar-and-restaurant-new-york?adjust_creative=yhLoLzsNXKw40xZ5RCWPpA&utm_campaign=yelp_api_v3&utm_medium=api_v3_business_search&utm_source=yhLoLzsNXKw40xZ5RCWPpA", "price": "$$", "distance": 1952.6836840379992, "coordinates": {"latitude": 40.85757, "longitude": -73.93197}, "alias": "wahi-oyster-bar-and-restaurant-new-york", "image_url": "https://s3-media2.fl.yelpcdn.com/bphoto/lSd1snda76m5ORLNYjf50g/o.jpg", "categories": [{"alias": "seafood", "title": "Seafood"}, {"alias": "dominican", "title": "Dominican"}, {"alias": "cocktailbars", "title": "Cocktail Bars"}], "display_phone": "(212) 501-9244", "phone": "+12125019244", "id": "5KH5ax4FP40wWiAsJ00fmA", "is_closed": false, "location": {"city": "New York", "display_address": ["4486 Broadway", "New York, NY 10040"], "country": "US", "address2": "", "address3": null, "state": "NY", "address1": "4486 Broadway", "zip_code": "10040"}}, {"rating": 4.5, "review_count": 3, "name": "University of the Streets", "transactions": [], "url": "https://www.yelp.com/biz/university-of-the-streets-bronx?adjust_creative=yhLoLzsNXKw40xZ5RCWPpA&utm_campaign=yelp_api_v3&utm_medium=api_v3_business_search&utm_source=yhLoLzsNXKw40xZ5RCWPpA", "price": "$", "distance": 1959.1643089461134, "coordinates": {"latitude": 40.8545641, "longitude": -73.8866687}, "alias": "university-of-the-streets-bronx", "image_url": "https://s3-media2.fl.yelpcdn.com/bphoto/--M-4RD3gILkmj6u3gacKw/o.jpg", "categories": [{"alias": "theater", "title": "Performing Arts"}, {"alias": "musicvenues", "title": "Music Venues"}], "display_phone": "(212) 254-9300", "phone": "+12122549300", "id": "WIX1zcTRWtYALH6qMUp0ew", "is_closed": false, "location": {"city": "Bronx", "display_address": ["2381 Belmont Ave", "Bronx, NY 10458"], "country": "US", "address2": "", "address3": "", "state": "NY", "address1": "2381 Belmont Ave", "zip_code": "10458"}}, {"rating": 3.5, "review_count": 89, "name": "Tubby Hook Tavern", "transactions": ["delivery", "pickup"], "url": "https://www.yelp.com/biz/tubby-hook-tavern-new-york?adjust_creative=yhLoLzsNXKw40xZ5RCWPpA&utm_campaign=yelp_api_v3&utm_medium=api_v3_business_search&utm_source=yhLoLzsNXKw40xZ5RCWPpA", "price": "$$", "distance": 1961.4682722459067, "coordinates": {"latitude": 40.86751, "longitude": -73.92073}, "alias": "tubby-hook-tavern-new-york", "image_url": "https://s3-media1.fl.yelpcdn.com/bphoto/ul_RL6AZNPRvrJTKh310UA/o.jpg", "categories": [{"alias": "pubs", "title": "Pubs"}], "display_phone": "(212) 569-7071", "phone": "+12125697071", "id": "374GoWma1qktfSyeQwhp1w", "is_closed": false, "location": {"city": "New York", "display_address": ["4946 Broadway", "New York, NY 10034"], "country": "US", "address2": null, "address3": "", "state": "NY", "address1": "4946 Broadway", "zip_code": "10034"}}, {"rating": 3.5, "review_count": 19, "name": "Sahara Cafe & Lounge", "transactions": [], "url": "https://www.yelp.com/biz/sahara-cafe-and-lounge-new-york?adjust_creative=yhLoLzsNXKw40xZ5RCWPpA&utm_campaign=yelp_api_v3&utm_medium=api_v3_business_search&utm_source=yhLoLzsNXKw40xZ5RCWPpA", "price": "$$", "distance": 1966.355286489175, "coordinates": {"latitude": 40.8692827202108, "longitude": -73.9155719185718}, "alias": "sahara-cafe-and-lounge-new-york", "image_url": "https://s3-media3.fl.yelpcdn.com/bphoto/SGgyv5a4bYjVAsBbOh0Yqg/o.jpg", "categories": [{"alias": "lounges", "title": "Lounges"}, {"alias": "latin", "title": "Latin American"}, {"alias": "hookah_bars", "title": "Hookah Bars"}], "display_phone": "(646) 882-0169", "phone": "+16468820169", "id": "lS_pyqnLHaw_MqxOMZomLw", "is_closed": false, "location": {"city": "New York", "display_address": ["4026 10th Ave", "New York, NY 10034"], "country": "US", "address2": "", "address3": "", "state": "NY", "address1": "4026 10th Ave", "zip_code": "10034"}}, {"rating": 3.5, "review_count": 250, "name": "Inwood Bar and Grill", "transactions": ["delivery", "restaurant_reservation", "pickup"], "url": "https://www.yelp.com/biz/inwood-bar-and-grill-new-york?adjust_creative=yhLoLzsNXKw40xZ5RCWPpA&utm_campaign=yelp_api_v3&utm_medium=api_v3_business_search&utm_source=yhLoLzsNXKw40xZ5RCWPpA", "price": "$$", "distance": 1967.1853762723658, "coordinates": {"latitude": 40.8670387, "longitude": -73.9223929}, "alias": "inwood-bar-and-grill-new-york", "image_url": "https://s3-media2.fl.yelpcdn.com/bphoto/htH26-1VkWV7aAKNvWFsCw/o.jpg", "categories": [{"alias": "sportsbars", "title": "Sports Bars"}, {"alias": "venues", "title": "Venues & Event Spaces"}, {"alias": "steak", "title": "Steakhouses"}], "display_phone": "(212) 304-3704", "phone": "+12123043704", "id": "DCjRqV6kRPU0h-MaRRcVrQ", "is_closed": false, "location": {"city": "New York", "display_address": ["4892 Broadway", "New York, NY 10034"], "country": "US", "address2": "", "address3": "", "state": "NY", "address1": "4892 Broadway", "zip_code": "10034"}}]}