{"region": {"center": {"latitude": 40.8092449514, "longitude": -73.8991375716}}, "total": 2400, "businesses": [{"rating": 4.0, "review_count": 22, "name": "El Porton", "transactions": ["delivery", "pickup"], "url": "https://www.yelp.com/biz/el-porton-bronx?adjust_creative=yhLoLzsNXKw40xZ5RCWPpA&utm_campaign=yelp_api_v3&utm_medium=api_v3_business_search&utm_source=yhLoLzsNXKw40xZ5RCWPpA", "price": "$$", "distance": 440.72760606233794, "coordinates": {"latitude": 40.8123321379273, "longitude": -73.9024218544364}, "alias": "el-porton-bronx", "image_url": "https://s3-media4.fl.yelpcdn.com/bphoto/mWzE55WCX02IxHjatu_Cwg/o.jpg", "categories": [{"alias": "mexican", "title": "Mexican"}, {"alias": "bars", "title": "Bars"}], "display_phone": "(718) 450-3399", "phone": "+17184503399", "id": "pbRgb9o3hegZxWeu6wAtHw", "is_closed": false, "location": {"city": "Bronx", "display_address": ["576 Southern Blvd", "Bronx, NY 10455"], "country": "US", "address2": "", "address3": "", "state": "NY", "address1": "576 Southern Blvd", "zip_code": "10455"}}, {"rating": 2.0, "review_count": 2, "name": "Los Amigo Billiard", "transactions": [], "url": "https://www.yelp.com/biz/los-amigo-billiard-bronx?adjust_creative=yhLoLzsNXKw40xZ5RCWPpA&utm_campaign=yelp_api_v3&utm_medium=api_v3_business_search&utm_source=yhLoLzsNXKw40xZ5RCWPpA", "distance": 471.35703054324796, "coordinates": {"latitude": 40.8118360446331, "longitude": -73.9035701751709}, "alias": "los-amigo-billiard-bronx", "image_url": "https://s3-media2.fl.yelpcdn.com/bphoto/fhdE0rzieQSkFQEgGgTa4g/o.jpg", "categories": [{"alias": "poolhalls", "title": "Pool Halls"}], "display_phone": "(646) 670-4616", "phone": "+16466704616", "id": "q4yaU9wd9Hoe0CkYhdngWg", "is_closed": false, "location": {"city": "Bronx", "display_address": ["857 E 149th St", "Bronx, NY 10001"], "country": "US", "address2": "", "address3": "", "state": "NY", "address1": "857 E 149th St", "zip_code": "10001"}}, {"rating": 5.0, "review_count": 1, "name": "Prospect Billiards", "transactions": [], "url": "https://www.yelp.com/biz/prospect-billiards-bronx?adjust_creative=yhLoLzsNXKw40xZ5RCWPpA&utm_campaign=yelp_api_v3&utm_medium=api_v3_business_search&utm_source=yhLoLzsNXKw40xZ5RCWPpA", "distance": 806.7299139598133, "coordinates": {"latitude": 40.815662, "longitude": -73.90361}, "alias": "prospect-billiards-bronx", "image_url": "", "categories": [{"alias": "hookah_bars", "title": "Hookah Bars"}, {"alias": "poolhalls", "title": "Pool Halls"}], "display_phone": "", "phone": "", "id": "Vr9RzGfINM76mTqPfBJZnw", "is_closed": false, "location": {"city": "Bronx", "display_address": ["671 Prospect Ave", "Bronx, NY 10455"], "country": "US", "address2": "", "address3": null, "state": "NY", "address1": "671 Prospect Ave", "zip_code": "10455"}}, {"rating": 4.0, "review_count": 97, "name": "The Bronx Brewery", "transactions": [], "url": "https://www.yelp.com/biz/the-bronx-brewery-bronx?adjust_creative=yhLoLzsNXKw40xZ5RCWPpA&utm_campaign=yelp_api_v3&utm_medium=api_v3_business_search&utm_source=yhLoLzsNXKw40xZ5RCWPpA", "price": "$", "distance": 1263.8641118611517, "coordinates": {"latitude": 40.8019015, "longitude": -73.910599}, "alias": "the-bronx-brewery-bronx", "image_url": "https://s3-media3.fl.yelpcdn.com/bphoto/03rZqHRoyWJnj2hjNRVLbA/o.jpg", "categories": [{"alias": "breweries", "title": "Breweries"}, {"alias": "venues", "title": "Venues & Event Spaces"}, {"alias": "beerbar", "title": "Beer Bar"}], "display_phone": "(718) 402-1001", "phone": "+17184021001", "id": "OYmNzOzsAozGaA-L2rMvmQ", "is_closed": false, "location": {"city": "Bronx", "display_address": ["856 E 136th St", "Bronx, NY 10454"], "country": "US", "address2": null, "address3": "", "state": "NY", "address1": "856 E 136th St", "zip_code": "10454"}}, {"rating": 4.5, "review_count": 16, "name": "Bronx Tavern", "transactions": [], "url": "https://www.yelp.com/biz/bronx-tavern-bronx?adjust_creative=yhLoLzsNXKw40xZ5RCWPpA&utm_campaign=yelp_api_v3&utm_medium=api_v3_business_search&utm_source=yhLoLzsNXKw40xZ5RCWPpA", "price": "$$", "distance": 1538.4440067200612, "coordinates": {"latitude": 40.800518, "longitude": -73.913518}, "alias": "bronx-tavern-bronx", "image_url": "https://s3-media1.fl.yelpcdn.com/bphoto/FVuXAvQhF-Dmnf9S2_eiIA/o.jpg", "categories": [{"alias": "pubs", "title": "Pubs"}], "display_phone": "(718) 292-2108", "phone": "+17182922108", "id": "WQYwEDMdZBJq93toGivTOA", "is_closed": false, "location": {"city": "Bronx", "display_address": ["780 E 133rd St", "Bronx, NY 10454"], "country": "US", "address2": "", "address3": null, "state": "NY", "address1": "780 E 133rd St", "zip_code": "10454"}}, {"rating": 2.0, "review_count": 1, "name": "Pier 132", "transactions": [], "url": "https://www.yelp.com/biz/pier-132-bronx?adjust_creative=yhLoLzsNXKw40xZ5RCWPpA&utm_campaign=yelp_api_v3&utm_medium=api_v3_business_search&utm_source=yhLoLzsNXKw40xZ5RCWPpA", "distance": 1586.0503575508872, "coordinates": {"latitude": 40.8002516610907, "longitude": -73.9137639715925}, "alias": "pier-132-bronx", "image_url": "https://s3-media1.fl.yelpcdn.com/bphoto/HmPIY0LoaNkdo-A2Z88SzA/o.jpg", "categories": [{"alias": "venues", "title": "Venues & Event Spaces"}, {"alias": "lounges", "title": "Lounges"}], "display_phone": "(718) 743-7132", "phone": "+17187437132", "id": "NeVWAZEWNYWcz-jlDi3f_w", "is_closed": false, "location": {"city": "Bronx", "display_address": ["789 E 132nd St", "Bronx, NY 10454"], "country": "US", "address2": "", "address3": null, "state": "NY", "address1": "789 E 132nd St", "zip_code": "10454"}}, {"rating": 3.0, "review_count": 2, "name": "Crystal Lounge", "transactions": [], "url": "https://www.yelp.com/biz/crystal-lounge-bronx?adjust_creative=yhLoLzsNXKw40xZ5RCWPpA&utm_campaign=yelp_api_v3&utm_medium=api_v3_business_search&utm_source=yhLoLzsNXKw40xZ5RCWPpA", "price": "$$$", "distance": 1718.2759672677219, "coordinates": {"latitude": 40.8247523, "longitude": -73.8996907}, "alias": "crystal-lounge-bronx", "image_url": "", "categories": [{"alias": "nightlife", "title": "Nightlife"}], "display_phone": "(718) 378-9229", "phone": "+17183789229", "id": "rJ7v2gUZiofUTgzKXlxBtQ", "is_closed": false, "location": {"city": "Bronx", "display_address": ["1035 Prospect Ave", "Bronx, NY 10459"], "country": "US", "address2": "", "address3": "", "state": "NY", "address1": "1035 Prospect Ave", "zip_code": "10459"}}, {"rating": 2.5, "review_count": 38, "name": "Madison Cafe", "transactions": ["delivery", "pickup"], "url": "https://www.yelp.com/biz/madison-cafe-bronx?adjust_creative=yhLoLzsNXKw40xZ5RCWPpA&utm_campaign=yelp_api_v3&utm_medium=api_v3_business_search&utm_source=yhLoLzsNXKw40xZ5RCWPpA", "price": "$", "distance": 1815.3528689973082, "coordinates": {"latitude": 40.8142274, "longitude": -73.919679}, "alias": "madison-cafe-bronx", "image_url": "https://s3-media4.fl.yelpcdn.com/bphoto/VQW_IcoUOoZEozoH0Svj_A/o.jpg", "categories": [{"alias": "cocktailbars", "title": "Cocktail Bars"}, {"alias": "tradamerican", "title": "American (Traditional)"}, {"alias": "mexican", "title": "Mexican"}], "display_phone": "(718) 993-3555", "phone": "+17189933555", "id": "sy237Cl__68bqWYnYPSpNQ", "is_closed": false, "location": {"city": "Bronx", "display_address": ["463 Willis Ave", "Bronx, NY 10455"], "country": "US", "address2": "", "address3": "", "state": "NY", "address1": "463 Willis Ave", "zip_code": "10455"}}, {"rating": 3.5, "review_count": 5, "name": "The Living Room II", "transactions": [], "url": "https://www.yelp.com/biz/the-living-room-ii-bronx?adjust_creative=yhLoLzsNXKw40xZ5RCWPpA&utm_campaign=yelp_api_v3&utm_medium=api_v3_business_search&utm_source=yhLoLzsNXKw40xZ5RCWPpA", "price": "$$", "distance": 1832.8449401748069, "coordinates": {"latitude": 40.803777, "longitude": -73.9196811}, "alias": "the-living-room-ii-bronx", "image_url": "https://s3-media2.fl.yelpcdn.com/bphoto/61LQfIQ0bM8No4pQsLhrRQ/o.jpg", "categories": [{"alias": "danceclubs", "title": "Dance Clubs"}], "display_phone": "(347) 590-9035", "phone": "+13475909035", "id": "_FabnG-1bV7mbI5l2T_Eag", "is_closed": false, "location": {"city": "Bronx", "display_address": ["125 St Anns Ave", "Bronx, NY 10454"], "country": "US", "address2": "", "address3": "", "state": "NY", "address1": "125 St Anns Ave", "zip_code": "10454"}}, {"rating": 4.5, "review_count": 90, "name": "Porto Salvo", "transactions": [], "url": "https://www.yelp.com/biz/porto-salvo-bronx?adjust_creative=yhLoLzsNXKw40xZ5RCWPpA&utm_campaign=yelp_api_v3&utm_medium=api_v3_business_search&utm_source=yhLoLzsNXKw40xZ5RCWPpA", "price": "$$", "distance": 1982.6065668947083, "coordinates": {"latitude": 40.82368, "longitude": -73.91294}, "alias": "porto-salvo-bronx", "image_url": "https://s3-media1.fl.yelpcdn.com/bphoto/c42KwiulJXLIlBsJzpTvSA/o.jpg", "categories": [{"alias": "italian", "title": "Italian"}, {"alias": "wine_bars", "title": "Wine Bars"}], "display_phone": "(929) 376-7866", "phone": "+19293767866", "id": "PerCtK0A27ku-cmBVMh5tw", "is_closed": false, "location": {"city": "Bronx", "display_address": ["424 E 161st St", "Bronx, NY 10451"], "country": "US", "address2": null, "address3": "", "state": "NY", "address1": "424 E 161st St", "zip_code": "10451"}}, {"rating": 4.0, "review_count": 1, "name": "Bronx Art  Space", "transactions": [], "url": "https://www.yelp.com/biz/bronx-art-space-west-bronx?adjust_creative=yhLoLzsNXKw40xZ5RCWPpA&utm_campaign=yelp_api_v3&utm_medium=api_v3_business_search&utm_source=yhLoLzsNXKw40xZ5RCWPpA", "distance": 2174.962370572071, "coordinates": {"latitude": 40.81175, "longitude": -73.92484}, "alias": "bronx-art-space-west-bronx", "image_url": "https://s3-media3.fl.yelpcdn.com/bphoto/1E2YoLgdzgdS_m0OdHh5uw/o.jpg", "categories": [{"alias": "musicvenues", "title": "Music Venues"}, {"alias": "theater", "title": "Performing Arts"}], "display_phone": "(718) 401-8144", "phone": "+17184018144", "id": "3KQZA5zg8wTTdg9bBkIEng", "is_closed": false, "location": {"city": "West Bronx", "display_address": ["305 E 140th St", "West Bronx, NY 10454"], "country": "US", "address2": "", "address3": "", "state": "NY", "address1": "305 E 140th St", "zip_code": "10454"}}, {"rating": 3.0, "review_count": 4, "name": "Two Sha S", "transactions": [], "url": "https://www.yelp.com/biz/two-sha-s-west-bronx?adjust_creative=yhLoLzsNXKw40xZ5RCWPpA&utm_campaign=yelp_api_v3&utm_medium=api_v3_business_search&utm_source=yhLoLzsNXKw40xZ5RCWPpA", "price": "$$", "distance": 2280.369170243279, "coordinates": {"latitude": 40.81142, "longitude": -73.925987}, "alias": "two-sha-s-west-bronx", "image_url": "", "categories": [{"alias": "bars", "title": "Bars"}], "display_phone": "(718) 665-5428", "phone": "+17186655428", "id": "sDfnz43pduGhdRyrQY-BLg", "is_closed": false, "location": {"city": "West Bronx", "display_address": ["2576 3rd Ave", "West Bronx, NY 10454"], "country": "US", "address2": "", "address3": "", "state": "NY", "address1": "2576 3rd Ave", "zip_code": "10454"}}, {"rating": 4.5, "review_count": 72, "name": "Beatstro", "transactions": ["delivery", "pickup", "restaurant_reservation"], "url": "https://www.yelp.com/biz/beatstro-bronx?adjust_creative=yhLoLzsNXKw40xZ5RCWPpA&utm_campaign=yelp_api_v3&utm_medium=api_v3_business_search&utm_source=yhLoLzsNXKw40xZ5RCWPpA", "price": "$$", "distance": 2403.6630040382224, "coordinates": {"latitude": 40.80737, "longitude": -73.92752}, "alias": "beatstro-bronx", "image_url": "https://s3-media1.fl.yelpcdn.com/bphoto/1aDAmkaztpdSyeyrIH3ePQ/o.jpg", "categories": [{"alias": "tradamerican", "title": "American (Traditional)"}, {"alias": "speakeasies", "title": "Speakeasies"}], "display_phone": "(718) 489-9397", "phone": "+17184899397", "id": "g_Zz87qghqq9bKHiKyws0w", "is_closed": false, "location": {"city": "Bronx", "display_address": ["135 Alexander Ave", "Between 134 Street and Bruckner Blvd", "Bronx, NY 10454"], "country": "US", "address2": "Between 134 Street and Bruckner Blvd", "address3": null, "state": "NY", "address1": "135 Alexander Ave", "zip_code": "10454"}}, {"rating": 2.5, "review_count": 9, "name": "Wish 37", "transactions": [], "url": "https://www.yelp.com/biz/wish-37-bronx?adjust_creative=yhLoLzsNXKw40xZ5RCWPpA&utm_campaign=yelp_api_v3&utm_medium=api_v3_business_search&utm_source=yhLoLzsNXKw40xZ5RCWPpA", "price": "$$", "distance": 2406.2007860177, "coordinates": {"latitude": 40.8069024, "longitude": -73.9275591}, "alias": "wish-37-bronx", "image_url": "https://s3-media1.fl.yelpcdn.com/bphoto/i74i40uhRJLdHYSzx6VNSw/o.jpg", "categories": [{"alias": "newamerican", "title": "American (New)"}, {"alias": "italian", "title": "Italian"}, {"alias": "bars", "title": "Bars"}], "display_phone": "(917) 748-7224", "phone": "+19177487224", "id": "JWIyVonW2gxMLFOZNl6beA", "is_closed": false, "location": {"city": "Bronx", "display_address": ["37 Bruckner Blvd", "Bronx, NY 10454"], "country": "US", "address2": "", "address3": "", "state": "NY", "address1": "37 Bruckner Blvd", "zip_code": "10454"}}, {"rating": 2.0, "review_count": 7, "name": "Oze Tavern", "transactions": [], "url": "https://www.yelp.com/biz/oze-tavern-bronx-2?adjust_creative=yhLoLzsNXKw40xZ5RCWPpA&utm_campaign=yelp_api_v3&utm_medium=api_v3_business_search&utm_source=yhLoLzsNXKw40xZ5RCWPpA", "price": "$$", "distance": 2429.995736209947, "coordinates": {"latitude": 40.811194, "longitude": -73.927888}, "alias": "oze-tavern-bronx-2", "image_url": "https://s3-media4.fl.yelpcdn.com/bphoto/i81OitTC0o2Q-08B0ALS6g/o.jpg", "categories": [{"alias": "lounges", "title": "Lounges"}], "display_phone": "(718) 993-3032", "phone": "+17189933032", "id": "MGUKIn3GRGIqVdlH67JhMw", "is_closed": false, "location": {"city": "Bronx", "display_address": ["256 E 138th St", "Bronx, NY 10451"], "country": "US", "address2": null, "address3": null, "state": "NY", "address1": "256 E 138th St", "zip_code": "10451"}}, {"rating": 3.5, "review_count": 119, "name": "Electric Zoo Festival", "transactions": [], "url": "https://www.yelp.com/biz/electric-zoo-festival-new-york-3?adjust_creative=yhLoLzsNXKw40xZ5RCWPpA&utm_campaign=yelp_api_v3&utm_medium=api_v3_business_search&utm_source=yhLoLzsNXKw40xZ5RCWPpA", "price": "$$$", "distance": 2458.936665768173, "coordinates": {"latitude": 40.7958454887446, "longitude": -73.9223775251312}, "alias": "electric-zoo-festival-new-york-3", "image_url": "https://s3-media2.fl.yelpcdn.com/bphoto/tdmYWBuY2noF1_TRvFfrug/o.jpg", "categories": [{"alias": "musicvenues", "title": "Music Venues"}, {"alias": "festivals", "title": "Festivals"}], "display_phone": "(212) 830-7722", "phone": "+12128307722", "id": "zH3l1B-F6RAzTN7mNcA_wg", "is_closed": false, "location": {"city": "New York", "display_address": ["Randall's Island Park", "1 Randall's Island", "New York, NY 10035"], "country": "US", "address2": "", "address3": "1 Randall's Island", "state": "NY", "address1": "Randall's Island Park", "zip_code": "10035"}}, {"rating": 4.0, "review_count": 58, "name": "Gun Hill Tavern", "transactions": [], "url": "https://www.yelp.com/biz/gun-hill-tavern-new-york?adjust_creative=yhLoLzsNXKw40xZ5RCWPpA&utm_campaign=yelp_api_v3&utm_medium=api_v3_business_search&utm_source=yhLoLzsNXKw40xZ5RCWPpA", "price": "$$", "distance": 2465.0154300790787, "coordinates": {"latitude": 40.810612, "longitude": -73.928371}, "alias": "gun-hill-tavern-new-york", "image_url": "https://s3-media2.fl.yelpcdn.com/bphoto/tsi0cBr7E2VsQN6-Cdrwrw/o.jpg", "categories": [{"alias": "tradamerican", "title": "American (Traditional)"}, {"alias": "bars", "title": "Bars"}], "display_phone": "(718) 402-0808", "phone": "+17184020808", "id": "6QbDkxmiCl-d7MUXIdhBsA", "is_closed": false, "location": {"city": "New York", "display_address": ["2515 3rd Ave", "New York, NY 10451"], "country": "US", "address2": null, "address3": null, "state": "NY", "address1": "2515 3rd Ave", "zip_code": "10451"}}, {"rating": 1.5, "review_count": 3, "name": "Made in PuertoRico Bar & Lounge", "transactions": [], "url": "https://www.yelp.com/biz/made-in-puertorico-bar-and-lounge-bronx?adjust_creative=yhLoLzsNXKw40xZ5RCWPpA&utm_campaign=yelp_api_v3&utm_medium=api_v3_business_search&utm_source=yhLoLzsNXKw40xZ5RCWPpA", "distance": 2477.5622982460036, "coordinates": {"latitude": 40.80701, "longitude": -73.92829}, "alias": "made-in-puertorico-bar-and-lounge-bronx", "image_url": "", "categories": [{"alias": "latin", "title": "Latin American"}, {"alias": "lounges", "title": "Lounges"}], "display_phone": "(347) 271-4902", "phone": "+13472714902", "id": "I16AKU3myQ68O40fWCeIGQ", "is_closed": false, "location": {"city": "Bronx", "display_address": ["26 Bruckner Blvd", "Bronx, NY 10454"], "country": "US", "address2": "", "address3": null, "state": "NY", "address1": "26 Bruckner Blvd", "zip_code": "10454"}}, {"rating": 4.0, "review_count": 272, "name": "Charlie's Bar & Kitchen", "transactions": ["delivery", "pickup"], "url": "https://www.yelp.com/biz/charlies-bar-and-kitchen-bronx?adjust_creative=yhLoLzsNXKw40xZ5RCWPpA&utm_campaign=yelp_api_v3&utm_medium=api_v3_business_search&utm_source=yhLoLzsNXKw40xZ5RCWPpA", "price": "$$", "distance": 2530.908732873853, "coordinates": {"latitude": 40.807874991887, "longitude": -73.9291545436554}, "alias": "charlies-bar-and-kitchen-bronx", "image_url": "https://s3-media1.fl.yelpcdn.com/bphoto/ACm-dMU44kFM-8PvCiS8vw/o.jpg", "categories": [{"alias": "bars", "title": "Bars"}, {"alias": "tradamerican", "title": "American (Traditional)"}, {"alias": "salad", "title": "Salad"}], "display_phone": "(718) 684-2338", "phone": "+17186842338", "id": "fAQVVgDt88mW739YJgKQdQ", "is_closed": false, "location": {"city": "Bronx", "display_address": ["112 Lincoln Ave", "Bronx, NY 10454"], "country": "US", "address2": "", "address3": "", "state": "NY", "address1": "112 Lincoln Ave", "zip_code": "10454"}}, {"rating": 3.5, "review_count": 62, "name": "Sam's Soul Food Restaurant Bar & Lounge", "transactions": [], "url": "https://www.yelp.com/biz/sams-soul-food-restaurant-bar-and-lounge-bronx?adjust_creative=yhLoLzsNXKw40xZ5RCWPpA&utm_campaign=yelp_api_v3&utm_medium=api_v3_business_search&utm_source=yhLoLzsNXKw40xZ5RCWPpA", "price": "$$", "distance": 2568.0050448591423, "coordinates": {"latitude": 40.819665, "longitude": -73.92637}, "alias": "sams-soul-food-restaurant-bar-and-lounge-bronx", "image_url": "https://s3-media1.fl.yelpcdn.com/bphoto/cgoS9TaqotJSqZUxbcqubg/o.jpg", "categories": [{"alias": "soulfood", "title": "Soul Food"}, {"alias": "lounges", "title": "Lounges"}], "display_phone": "(718) 665-5341", "phone": "+17186655341", "id": "YxXu-Tx7ZpYNbMCeQ8092A", "is_closed": false, "location": {"city": "Bronx", "display_address": ["596-598 Grand Concourse", "Bronx, NY 10451"], "country": "US", "address2": "", "address3": "", "state": "NY", "address1": "596-598 Grand Concourse", "zip_code": "10451"}}, {"rating": 3.0, "review_count": 101, "name": "G-Bar", "transactions": [], "url": "https://www.yelp.com/biz/g-bar-bronx?adjust_creative=yhLoLzsNXKw40xZ5RCWPpA&utm_campaign=yelp_api_v3&utm_medium=api_v3_business_search&utm_source=yhLoLzsNXKw40xZ5RCWPpA", "price": "$$", "distance": 2606.9956244872155, "coordinates": {"latitude": 40.8194, "longitude": -73.927237}, "alias": "g-bar-bronx", "image_url": "https://s3-media3.fl.yelpcdn.com/bphoto/SuamjtBFDcssFEuKvuRndg/o.jpg", "categories": [{"alias": "lounges", "title": "Lounges"}, {"alias": "italian", "title": "Italian"}], "display_phone": "(718) 402-6996", "phone": "+17184026996", "id": "iK5SXhZj05XE2h7TrY7kIg", "is_closed": false, "location": {"city": "Bronx", "display_address": ["575 Grand Concourse", "Bronx, NY 10451"], "country": "US", "address2": "", "address3": "", "state": "NY", "address1": "575 Grand Concourse", "zip_code": "10451"}}, {"rating": 3.5, "review_count": 43, "name": "Vista Hermosa Restaurant", "transactions": ["delivery", "pickup"], "url": "https://www.yelp.com/biz/vista-hermosa-restaurant-bronx?adjust_creative=yhLoLzsNXKw40xZ5RCWPpA&utm_campaign=yelp_api_v3&utm_medium=api_v3_business_search&utm_source=yhLoLzsNXKw40xZ5RCWPpA", "price": "$$", "distance": 2628.998696292037, "coordinates": {"latitude": 40.8287, "longitude": -73.88123}, "alias": "vista-hermosa-restaurant-bronx", "image_url": "https://s3-media2.fl.yelpcdn.com/bphoto/_Y-flWh4nXZfCsYLIgKFfg/o.jpg", "categories": [{"alias": "mexican", "title": "Mexican"}, {"alias": "cocktailbars", "title": "Cocktail Bars"}], "display_phone": "(718) 860-9674", "phone": "+17188609674", "id": "Jvy_dhGSmiQM3Thf571FxA", "is_closed": false, "location": {"city": "Bronx", "display_address": ["1201 Evergreen Ave", "Bronx, NY 10472"], "country": "US", "address2": "", "address3": "", "state": "NY", "address1": "1201 Evergreen Ave", "zip_code": "10472"}}, {"rating": 3.5, "review_count": 165, "name": "Mott Haven Bar and Grill", "transactions": ["delivery", "pickup"], "url": "https://www.yelp.com/biz/mott-haven-bar-and-grill-bronx?adjust_creative=yhLoLzsNXKw40xZ5RCWPpA&utm_campaign=yelp_api_v3&utm_medium=api_v3_business_search&utm_source=yhLoLzsNXKw40xZ5RCWPpA", "price": "$$", "distance": 2637.3819652926886, "coordinates": {"latitude": 40.80826, "longitude": -73.93043}, "alias": "mott-haven-bar-and-grill-bronx", "image_url": "https://s3-media3.fl.yelpcdn.com/bphoto/8ohjQoHo6gClhJ8W_Va1TA/o.jpg", "categories": [{"alias": "bars", "title": "Bars"}, {"alias": "tradamerican", "title": "American (Traditional)"}], "display_phone": "(718) 665-2001", "phone": "+17186652001", "id": "FidqU8k0cBVAt_I_YLTOSQ", "is_closed": false, "location": {"city": "Bronx", "display_address": ["1 Bruckner Blvd", "Bronx, NY 10454"], "country": "US", "address2": "", "address3": "", "state": "NY", "address1": "1 Bruckner Blvd", "zip_code": "10454"}}, {"rating": 4.5, "review_count": 13, "name": "Glen Roy Bar", "transactions": ["delivery", "pickup"], "url": "https://www.yelp.com/biz/glen-roy-bar-bronx?adjust_creative=yhLoLzsNXKw40xZ5RCWPpA&utm_campaign=yelp_api_v3&utm_medium=api_v3_business_search&utm_source=yhLoLzsNXKw40xZ5RCWPpA", "price": "$", "distance": 2650.9049966392163, "coordinates": {"latitude": 40.81898, "longitude": -73.9279}, "alias": "glen-roy-bar-bronx", "image_url": "https://s3-media1.fl.yelpcdn.com/bphoto/1VPbhgSMj9yZZy3zkDNzmQ/o.jpg", "categories": [{"alias": "tradamerican", "title": "American (Traditional)"}, {"alias": "bars", "title": "Bars"}], "display_phone": "(718) 993-9804", "phone": "+17189939804", "id": "_UNgoCWZtfyL_8J-1OPxHQ", "is_closed": false, "location": {"city": "Bronx", "display_address": ["145 E 149th St", "Bronx, NY 10451"], "country": "US", "address2": "", "address3": "", "state": "NY", "address1": "145 E 149th St", "zip_code": "10451"}}, {"rating": 4.5, "review_count": 7, "name": "Glacken's Bar & Grill", "transactions": [], "url": "https://www.yelp.com/biz/glackens-bar-and-grill-bronx?adjust_creative=yhLoLzsNXKw40xZ5RCWPpA&utm_campaign=yelp_api_v3&utm_medium=api_v3_business_search&utm_source=yhLoLzsNXKw40xZ5RCWPpA", "distance": 2713.541217934344, "coordinates": {"latitude": 40.81904, "longitude": -73.92851}, "alias": "glackens-bar-and-grill-bronx", "image_url": "", "categories": [{"alias": "sportsbars", "title": "Sports Bars"}], "display_phone": "(718) 585-7082", "phone": "+17185857082", "id": "5d7WDwutkj0cYmjsEunlbw", "is_closed": false, "location": {"city": "Bronx", "display_address": ["135 E 149th St", "Ste 13", "Bronx, NY 10451"], "country": "US", "address2": "Ste 13", "address3": "", "state": "NY", "address1": "135 E 149th St", "zip_code": "10451"}}, {"rating": 2.5, "review_count": 89, "name": "Applebee's Grill + Bar", "transactions": ["delivery", "pickup"], "url": "https://www.yelp.com/biz/applebees-grill-bar-bronx-4?adjust_creative=yhLoLzsNXKw40xZ5RCWPpA&utm_campaign=yelp_api_v3&utm_medium=api_v3_business_search&utm_source=yhLoLzsNXKw40xZ5RCWPpA", "price": "$$", "distance": 2926.621685068964, "coordinates": {"latitude": 40.821669, "longitude": -73.929796}, "alias": "applebees-grill-bar-bronx-4", "image_url": "https://s3-media1.fl.yelpcdn.com/bphoto/1ZrmWdTPZpKZzHpyKr2aAg/o.jpg", "categories": [{"alias": "sportsbars", "title": "Sports Bars"}, {"alias": "burgers", "title": "Burgers"}, {"alias": "tradamerican", "title": "American (Traditional)"}], "display_phone": "(347) 226-5700", "phone": "+13472265700", "id": "7Smn3wAuZ0ZcS5eGiGi6RA", "is_closed": false, "location": {"city": "Bronx", "display_address": ["610 Exterior St", "Bronx, NY 10451"], "country": "US", "address2": "", "address3": "", "state": "NY", "address1": "610 Exterior St", "zip_code": "10451"}}, {"rating": 1.5, "review_count": 2, "name": "Star Billiards", "transactions": [], "url": "https://www.yelp.com/biz/star-billiards-bronx?adjust_creative=yhLoLzsNXKw40xZ5RCWPpA&utm_campaign=yelp_api_v3&utm_medium=api_v3_business_search&utm_source=yhLoLzsNXKw40xZ5RCWPpA", "price": "$", "distance": 2936.6813345916416, "coordinates": {"latitude": 40.828886, "longitude": -73.875713}, "alias": "star-billiards-bronx", "image_url": "https://s3-media4.fl.yelpcdn.com/bphoto/fMqns-4c18Jhd90XHTzdBQ/o.jpg", "categories": [{"alias": "poolhalls", "title": "Pool Halls"}], "display_phone": "(718) 893-4360", "phone": "+17188934360", "id": "tupeOKELvjmsaZtuu-JmAw", "is_closed": false, "location": {"city": "Bronx", "display_address": ["1590 Westchester Ave", "Bronx, NY 10472"], "country": "US", "address2": "", "address3": "", "state": "NY", "address1": "1590 Westchester Ave", "zip_code": "10472"}}, {"rating": 4.5, "review_count": 9, "name": "Stadium Sports Bar", "transactions": [], "url": "https://www.yelp.com/biz/stadium-sports-bar-bronx?adjust_creative=yhLoLzsNXKw40xZ5RCWPpA&utm_campaign=yelp_api_v3&utm_medium=api_v3_business_search&utm_source=yhLoLzsNXKw40xZ5RCWPpA", "price": "$", "distance": 2937.398528583276, "coordinates": {"latitude": 40.82559, "longitude": -73.92647}, "alias": "stadium-sports-bar-bronx", "image_url": "https://s3-media1.fl.yelpcdn.com/bphoto/bON3k9KfrLZhZlIL3cwooQ/o.jpg", "categories": [{"alias": "sportsbars", "title": "Sports Bars"}], "display_phone": "", "phone": "", "id": "7SejPQQCFX63LvHFSgM6OQ", "is_closed": false, "location": {"city": "Bronx", "display_address": ["113-115 E 157th St", "Bronx, NY 10451"], "country": "US", "address2": "", "address3": "", "state": "NY", "address1": "113-115 E 157th St", "zip_code": "10451"}}, {"rating": 2.5, "review_count": 69, "name": "Marisco Centro", "transactions": ["delivery", "pickup"], "url": "https://www.yelp.com/biz/marisco-centro-bronx?adjust_creative=yhLoLzsNXKw40xZ5RCWPpA&utm_campaign=yelp_api_v3&utm_medium=api_v3_business_search&utm_source=yhLoLzsNXKw40xZ5RCWPpA", "price": "$$", "distance": 2951.404551726729, "coordinates": {"latitude": 40.8197, "longitude": -73.93022}, "alias": "marisco-centro-bronx", "image_url": "https://s3-media2.fl.yelpcdn.com/bphoto/5ZNu_4OW3od9j_ISUqaxzg/o.jpg", "categories": [{"alias": "spanish", "title": "Spanish"}, {"alias": "bars", "title": "Bars"}, {"alias": "seafood", "title": "Seafood"}], "display_phone": "(718) 665-8686", "phone": "+17186658686", "id": "CXsRWwy_DXNKGqopxwpZdw", "is_closed": false, "location": {"city": "Bronx", "display_address": ["610 Exterior St", "Bronx, NY 10451"], "country": "US", "address2": "", "address3": "", "state": "NY", "address1": "610 Exterior St", "zip_code": "10451"}}, {"rating": 2.5, "review_count": 13, "name": "Panorama Music Festival", "transactions": [], "url": "https://www.yelp.com/biz/panorama-music-festival-new-york?adjust_creative=yhLoLzsNXKw40xZ5RCWPpA&utm_campaign=yelp_api_v3&utm_medium=api_v3_business_search&utm_source=yhLoLzsNXKw40xZ5RCWPpA", "price": "$$$", "distance": 2964.128899520945, "coordinates": {"latitude": 40.7916412641925, "longitude": -73.9255814437099}, "alias": "panorama-music-festival-new-york", "image_url": "https://s3-media4.fl.yelpcdn.com/bphoto/J1aU75ZZrjJAyjHKqVI2nA/o.jpg", "categories": [{"alias": "festivals", "title": "Festivals"}, {"alias": "musicvenues", "title": "Music Venues"}], "display_phone": "", "phone": "", "id": "dud6hXU1KV1qVhfxeyoisA", "is_closed": false, "location": {"city": "New York", "display_address": ["Randalls Island", "New York, NY"], "country": "US", "address2": "", "address3": null, "state": "NY", "address1": "Randalls Island", "zip_code": ""}}, {"rating": 3.5, "review_count": 89, "name": "Yankee Tavern", "transactions": [], "url": "https://www.yelp.com/biz/yankee-tavern-bronx?adjust_creative=yhLoLzsNXKw40xZ5RCWPpA&utm_campaign=yelp_api_v3&utm_medium=api_v3_business_search&utm_source=yhLoLzsNXKw40xZ5RCWPpA", "price": "$$", "distance": 2976.2615127039976, "coordinates": {"latitude": 40.8273023, "longitude": -73.9252554}, "alias": "yankee-tavern-bronx", "image_url": "https://s3-media2.fl.yelpcdn.com/bphoto/QpL6jB73z6wcHPiG-cgbyg/o.jpg", "categories": [{"alias": "sportsbars", "title": "Sports Bars"}, {"alias": "pubs", "title": "Pubs"}], "display_phone": "(718) 292-6130", "phone": "+17182926130", "id": "0PNqgljlrf1J3gCPY5NP8A", "is_closed": false, "location": {"city": "Bronx", "display_address": ["72 E 161st St", "Bronx, NY 10451"], "country": "US", "address2": "", "address3": "", "state": "NY", "address1": "72 E 161st St", "zip_code": "10451"}}, {"rating": 3.5, "review_count": 10, "name": "Vega Alta Tavern", "transactions": [], "url": "https://www.yelp.com/biz/vega-alta-tavern-bronx?adjust_creative=yhLoLzsNXKw40xZ5RCWPpA&utm_campaign=yelp_api_v3&utm_medium=api_v3_business_search&utm_source=yhLoLzsNXKw40xZ5RCWPpA", "price": "$", "distance": 2976.7709902031193, "coordinates": {"latitude": 40.82793, "longitude": -73.92455}, "alias": "vega-alta-tavern-bronx", "image_url": "https://s3-media3.fl.yelpcdn.com/bphoto/nA-S5kScOuUB21KzIRHyKA/o.jpg", "categories": [{"alias": "bars", "title": "Bars"}], "display_phone": "(718) 992-2445", "phone": "+17189922445", "id": "RMd1MhX0YDKrwowQFJJfqA", "is_closed": false, "location": {"city": "Bronx", "display_address": ["880 Gerard Ave", "Bronx, NY 10452"], "country": "US", "address2": "", "address3": "", "state": "NY", "address1": "880 Gerard Ave", "zip_code": "10452"}}, {"rating": 4.0, "review_count": 157, "name": "Bronx Drafthouse", "transactions": ["delivery", "pickup"], "url": "https://www.yelp.com/biz/bronx-drafthouse-bronx?adjust_creative=yhLoLzsNXKw40xZ5RCWPpA&utm_campaign=yelp_api_v3&utm_medium=api_v3_business_search&utm_source=yhLoLzsNXKw40xZ5RCWPpA", "price": "$$", "distance": 2980.0749790736163, "coordinates": {"latitude": 40.8278536, "longitude": -73.9245554}, "alias": "bronx-drafthouse-bronx", "image_url": "https://s3-media1.fl.yelpcdn.com/bphoto/HUIuHsAtxlKfI-DQxA4Yrg/o.jpg", "categories": [{"alias": "newamerican", "title": "American (New)"}, {"alias": "beerbar", "title": "Beer Bar"}, {"alias": "sportsbars", "title": "Sports Bars"}], "display_phone": "(929) 265-9759", "phone": "+19292659759", "id": "OKc49LvmOgteQoFqzzmv_A", "is_closed": false, "location": {"city": "Bronx", "display_address": ["884 Gerard Ave", "Bronx, NY 10452"], "country": "US", "address2": "", "address3": "", "state": "NY", "address1": "884 Gerard Ave", "zip_code": "10452"}}, {"rating": 5.0, "review_count": 2, "name": "Papa Juan Cigar Room Bronx", "transactions": [], "url": "https://www.yelp.com/biz/papa-juan-cigar-room-bronx-bronx?adjust_creative=yhLoLzsNXKw40xZ5RCWPpA&utm_campaign=yelp_api_v3&utm_medium=api_v3_business_search&utm_source=yhLoLzsNXKw40xZ5RCWPpA", "price": "$$", "distance": 2981.044622602736, "coordinates": {"latitude": 40.82805, "longitude": -73.92448}, "alias": "papa-juan-cigar-room-bronx-bronx", "image_url": "https://s3-media2.fl.yelpcdn.com/bphoto/sB1HzgTRST1LX_qzMZNGDg/o.jpg", "categories": [{"alias": "tobaccoshops", "title": "Tobacco Shops"}, {"alias": "lounges", "title": "Lounges"}], "display_phone": "(929) 265-9552", "phone": "+19292659552", "id": "YIt9GJx8v43JHrTMWblllA", "is_closed": false, "location": {"city": "Bronx", "display_address": ["886 Gerard Ave", "Bronx, NY 10452"], "country": "US", "address2": "", "address3": "", "state": "NY", "address1": "886 Gerard Ave", "zip_code": "10452"}}, {"rating": 3.5, "review_count": 117, "name": "Stan's Sports Bar", "transactions": [], "url": "https://www.yelp.com/biz/stans-sports-bar-bronx?adjust_creative=yhLoLzsNXKw40xZ5RCWPpA&utm_campaign=yelp_api_v3&utm_medium=api_v3_business_search&utm_source=yhLoLzsNXKw40xZ5RCWPpA", "price": "$$", "distance": 2994.630329551061, "coordinates": {"latitude": 40.8268203, "longitude": -73.9263982}, "alias": "stans-sports-bar-bronx", "image_url": "https://s3-media3.fl.yelpcdn.com/bphoto/ULqvletFU3IJlfsrhip0qg/o.jpg", "categories": [{"alias": "sportsbars", "title": "Sports Bars"}], "display_phone": "(718) 993-5548", "phone": "+17189935548", "id": "_QA8vFYCzqICqssRZ_5lhQ", "is_closed": false, "location": {"city": "Bronx", "display_address": ["836 River Ave", "Bronx, NY 10451"], "country": "US", "address2": "", "address3": "", "state": "NY", "address1": "836 River Ave", "zip_code": "10451"}}, {"rating": 2.5, "review_count": 127, "name": "Billy's Sports Bar", "transactions": [], "url": "https://www.yelp.com/biz/billys-sports-bar-bronx?adjust_creative=yhLoLzsNXKw40xZ5RCWPpA&utm_campaign=yelp_api_v3&utm_medium=api_v3_business_search&utm_source=yhLoLzsNXKw40xZ5RCWPpA", "price": "$$", "distance": 3055.2218667285424, "coordinates": {"latitude": 40.8277592, "longitude": -73.9259642}, "alias": "billys-sports-bar-bronx", "image_url": "https://s3-media2.fl.yelpcdn.com/bphoto/D4fC-aYHobToFTWvdMr_Xg/o.jpg", "categories": [{"alias": "sportsbars", "title": "Sports Bars"}, {"alias": "tradamerican", "title": "American (Traditional)"}], "display_phone": "(718) 665-6180", "phone": "+17186656180", "id": "3PBIlJRNjeJrbA8sn99EGw", "is_closed": false, "location": {"city": "Bronx", "display_address": ["856 River Ave", "Bronx, NY 10451"], "country": "US", "address2": "", "address3": "", "state": "NY", "address1": "856 River Ave", "zip_code": "10451"}}, {"rating": 3.5, "review_count": 55, "name": "The Dugout", "transactions": [], "url": "https://www.yelp.com/biz/the-dugout-bronx?adjust_creative=yhLoLzsNXKw40xZ5RCWPpA&utm_campaign=yelp_api_v3&utm_medium=api_v3_business_search&utm_source=yhLoLzsNXKw40xZ5RCWPpA", "price": "$", "distance": 3059.9185495405895, "coordinates": {"latitude": 40.828361, "longitude": -73.925178}, "alias": "the-dugout-bronx", "image_url": "https://s3-media2.fl.yelpcdn.com/bphoto/3a7ZhrDGLe4BVPUGt2NJMA/o.jpg", "categories": [{"alias": "sportsbars", "title": "Sports Bars"}], "display_phone": "(718) 588-6912", "phone": "+17185886912", "id": "9G8e2il1Cz9QZfKEReIB6A", "is_closed": false, "location": {"city": "Bronx", "display_address": ["880 River Ave", "Ste D", "Bronx, NY 10452"], "country": "US", "address2": "Ste D", "address3": "", "state": "NY", "address1": "880 River Ave", "zip_code": "10452"}}, {"rating": 3.5, "review_count": 121, "name": "Hard Rock Cafe", "transactions": [], "url": "https://www.yelp.com/biz/hard-rock-cafe-bronx?adjust_creative=yhLoLzsNXKw40xZ5RCWPpA&utm_campaign=yelp_api_v3&utm_medium=api_v3_business_search&utm_source=yhLoLzsNXKw40xZ5RCWPpA", "price": "$$", "distance": 3103.099934097434, "coordinates": {"latitude": 40.828502, "longitude": -73.925827}, "alias": "hard-rock-cafe-bronx", "image_url": "https://s3-media1.fl.yelpcdn.com/bphoto/CC-HWeEL6SA90S-R77_Rcg/o.jpg", "categories": [{"alias": "tradamerican", "title": "American (Traditional)"}, {"alias": "sportsbars", "title": "Sports Bars"}], "display_phone": "(646) 977-8888", "phone": "+16469778888", "id": "38xzwE1r5c3Rdow5BEVtHA", "is_closed": false, "location": {"city": "Bronx", "display_address": ["Yankee Stadium", "One E 161st St", "Bronx, NY 10451"], "country": "US", "address2": "", "address3": "One E 161st St", "state": "NY", "address1": "Yankee Stadium", "zip_code": "10451"}}, {"rating": 4.5, "review_count": 5, "name": "Fernandez Cigar Lounge", "transactions": [], "url": "https://www.yelp.com/biz/fernandez-cigar-lounge-new-york?adjust_creative=yhLoLzsNXKw40xZ5RCWPpA&utm_campaign=yelp_api_v3&utm_medium=api_v3_business_search&utm_source=yhLoLzsNXKw40xZ5RCWPpA", "price": "$", "distance": 3119.8589486422716, "coordinates": {"latitude": 40.8021658658981, "longitude": -73.9360946416855}, "alias": "fernandez-cigar-lounge-new-york", "image_url": "https://s3-media3.fl.yelpcdn.com/bphoto/FDCcEP2W0d2m14ZkJp5OLA/o.jpg", "categories": [{"alias": "tobaccoshops", "title": "Tobacco Shops"}, {"alias": "lounges", "title": "Lounges"}], "display_phone": "(917) 475-1491", "phone": "+19174751491", "id": "Pm46Rbk703Te9CEJV-XHTg", "is_closed": false, "location": {"city": "New York", "display_address": ["251 E 123rd St", "New York, NY 10035"], "country": "US", "address2": null, "address3": "", "state": "NY", "address1": "251 E 123rd St", "zip_code": "10035"}}, {"rating": 2.5, "review_count": 119, "name": "Applebee's Grill + Bar", "transactions": ["delivery", "pickup"], "url": "https://www.yelp.com/biz/applebees-grill-bar-new-york-4?adjust_creative=yhLoLzsNXKw40xZ5RCWPpA&utm_campaign=yelp_api_v3&utm_medium=api_v3_business_search&utm_source=yhLoLzsNXKw40xZ5RCWPpA", "price": "$$", "distance": 3148.561728909642, "coordinates": {"latitude": 40.795628, "longitude": -73.931935}, "alias": "applebees-grill-bar-new-york-4", "image_url": "https://s3-media4.fl.yelpcdn.com/bphoto/ZyPsLxjfHgYaDWPGdchHzw/o.jpg", "categories": [{"alias": "sportsbars", "title": "Sports Bars"}, {"alias": "burgers", "title": "Burgers"}, {"alias": "tradamerican", "title": "American (Traditional)"}], "display_phone": "(646) 896-2700", "phone": "+16468962700", "id": "kZysScUNGTaKRjOeMRlxag", "is_closed": false, "location": {"city": "New York", "display_address": ["509 E 117th St", "New York, NY 10035"], "country": "US", "address2": "", "address3": "", "state": "NY", "address1": "509 E 117th St", "zip_code": "10035"}}, {"rating": 5.0, "review_count": 35, "name": "Santiago's Beer Garden", "transactions": ["delivery", "pickup"], "url": "https://www.yelp.com/biz/santiagos-beer-garden-new-york?adjust_creative=yhLoLzsNXKw40xZ5RCWPpA&utm_campaign=yelp_api_v3&utm_medium=api_v3_business_search&utm_source=yhLoLzsNXKw40xZ5RCWPpA", "distance": 3156.433917454346, "coordinates": {"latitude": 40.79849, "longitude": -73.93382}, "alias": "santiagos-beer-garden-new-york", "image_url": "https://s3-media2.fl.yelpcdn.com/bphoto/twJaR8gyof0TpekGDq7NLQ/o.jpg", "categories": [{"alias": "dominican", "title": "Dominican"}, {"alias": "beergardens", "title": "Beer Gardens"}], "display_phone": "(212) 920-6165", "phone": "+12129206165", "id": "MtcgW0RCTm44PuA-HAq49g", "is_closed": false, "location": {"city": "New York", "display_address": ["2337 1st Ave", "New York, NY 10035"], "country": "US", "address2": null, "address3": "", "state": "NY", "address1": "2337 1st Ave", "zip_code": "10035"}}, {"rating": 4.0, "review_count": 28, "name": "Audi Yankees Club", "transactions": [], "url": "https://www.yelp.com/biz/audi-yankees-club-bronx?adjust_creative=yhLoLzsNXKw40xZ5RCWPpA&utm_campaign=yelp_api_v3&utm_medium=api_v3_business_search&utm_source=yhLoLzsNXKw40xZ5RCWPpA", "price": "$$$", "distance": 3172.6577341009834, "coordinates": {"latitude": 40.82954, "longitude": -73.92645}, "alias": "audi-yankees-club-bronx", "image_url": "https://s3-media1.fl.yelpcdn.com/bphoto/2H5VF_JdNRy76loclnkHVg/o.jpg", "categories": [{"alias": "sportsbars", "title": "Sports Bars"}], "display_phone": "(212) 926-5337", "phone": "+12129265337", "id": "Nskki61kJ41isvsaKYDGSA", "is_closed": false, "location": {"city": "Bronx", "display_address": ["1 E 161st St", "Bronx, NY 10451"], "country": "US", "address2": "", "address3": "", "state": "NY", "address1": "1 E 161st St", "zip_code": "10451"}}, {"rating": 3.0, "review_count": 16, "name": "Mohegan Sun Sports Bar", "transactions": [], "url": "https://www.yelp.com/biz/mohegan-sun-sports-bar-bronx?adjust_creative=yhLoLzsNXKw40xZ5RCWPpA&utm_campaign=yelp_api_v3&utm_medium=api_v3_business_search&utm_source=yhLoLzsNXKw40xZ5RCWPpA", "price": "$$$", "distance": 3197.060428884839, "coordinates": {"latitude": 40.8296352375865, "longitude": -73.9259234626788}, "alias": "mohegan-sun-sports-bar-bronx", "image_url": "https://s3-media2.fl.yelpcdn.com/bphoto/XoIVst2rcYhnjLS1ac4Myg/o.jpg", "categories": [{"alias": "sportsbars", "title": "Sports Bars"}], "display_phone": "(718) 293-6000", "phone": "+17182936000", "id": "PwiN2g8_WlT6cl2yhJlwgQ", "is_closed": false, "location": {"city": "Bronx", "display_address": ["1 E 161st St", "Yankees Stadium", "Bronx, NY 10451"], "country": "US", "address2": "Yankees Stadium", "address3": "", "state": "NY", "address1": "1 E 161st St", "zip_code": "10451"}}, {"rating": 4.5, "review_count": 13, "name": "Delta SKY360 Suites", "transactions": [], "url": "https://www.yelp.com/biz/delta-sky360-suites-bronx?adjust_creative=yhLoLzsNXKw40xZ5RCWPpA&utm_campaign=yelp_api_v3&utm_medium=api_v3_business_search&utm_source=yhLoLzsNXKw40xZ5RCWPpA", "price": "$$$", "distance": 3209.17281565373, "coordinates": {"latitude": 40.829532623291, "longitude": -73.9262619018555}, "alias": "delta-sky360-suites-bronx", "image_url": "https://s3-media4.fl.yelpcdn.com/bphoto/wTQwFmyeiqTkmclzaXfcxA/o.jpg", "categories": [{"alias": "sportsbars", "title": "Sports Bars"}], "display_phone": "(212) 926-5337", "phone": "+12129265337", "id": "g-N5mdr5BjvVabaUTU3yuA", "is_closed": false, "location": {"city": "Bronx", "display_address": ["1 East 161 St", "Yankee Stadium", "Bronx, NY 10452"], "country": "US", "address2": "", "address3": "Yankee Stadium", "state": "NY", "address1": "1 East 161 St", "zip_code": "10452"}}, {"rating": 5.0, "review_count": 1, "name": "SAP suites Yankee stadium", "transactions": [], "url": "https://www.yelp.com/biz/sap-suites-yankee-stadium-bronx?adjust_creative=yhLoLzsNXKw40xZ5RCWPpA&utm_campaign=yelp_api_v3&utm_medium=api_v3_business_search&utm_source=yhLoLzsNXKw40xZ5RCWPpA", "distance": 3212.5647213271027, "coordinates": {"latitude": 40.8296425821637, "longitude": -73.9261744916439}, "alias": "sap-suites-yankee-stadium-bronx", "image_url": "https://s3-media1.fl.yelpcdn.com/bphoto/aFBInKGCfi6ziWkgdsRLqg/o.jpg", "categories": [{"alias": "sportsbars", "title": "Sports Bars"}], "display_phone": "", "phone": "", "id": "Fx04LGh_EY4hMP--kZhv7g", "is_closed": false, "location": {"city": "Bronx", "display_address": ["1 E 161st St", "Bronx, NY 10451"], "country": "US", "address2": "", "address3": null, "state": "NY", "address1": "1 E 161st St", "zip_code": "10451"}}, {"rating": 3.0, "review_count": 12, "name": "Jim Beam Suite", "transactions": [], "url": "https://www.yelp.com/biz/jim-beam-suite-new-york?adjust_creative=yhLoLzsNXKw40xZ5RCWPpA&utm_campaign=yelp_api_v3&utm_medium=api_v3_business_search&utm_source=yhLoLzsNXKw40xZ5RCWPpA", "price": "$$$", "distance": 3264.738971535689, "coordinates": {"latitude": 40.8294545983504, "longitude": -73.9272809028625}, "alias": "jim-beam-suite-new-york", "image_url": "https://s3-media2.fl.yelpcdn.com/bphoto/Z-pfCKtXdIKzM43e2QgXgA/o.jpg", "categories": [{"alias": "sportsbars", "title": "Sports Bars"}, {"alias": "lounges", "title": "Lounges"}], "display_phone": "", "phone": "", "id": "aAAHxvIGFi3fqPy_XZmz6g", "is_closed": false, "location": {"city": "New York", "display_address": ["Macombs Dam Bridge", "New York, NY"], "country": "US", "address2": "", "address3": "", "state": "NY", "address1": "Macombs Dam Bridge", "zip_code": ""}}, {"rating": 4.0, "review_count": 16, "name": "Gussy's Bar", "transactions": [], "url": "https://www.yelp.com/biz/gussys-bar-astoria?adjust_creative=yhLoLzsNXKw40xZ5RCWPpA&utm_campaign=yelp_api_v3&utm_medium=api_v3_business_search&utm_source=yhLoLzsNXKw40xZ5RCWPpA", "price": "$", "distance": 3319.8503655040186, "coordinates": {"latitude": 40.780103, "longitude": -73.907712}, "alias": "gussys-bar-astoria", "image_url": "https://s3-media2.fl.yelpcdn.com/bphoto/DELqlATQHtH444ms_f6D1A/o.jpg", "categories": [{"alias": "musicvenues", "title": "Music Venues"}], "display_phone": "(917) 261-1494", "phone": "+19172611494", "id": "Os3xg_GW4EcjVgag31LZlQ", "is_closed": false, "location": {"city": "Astoria", "display_address": ["20-14 29th St", "Astoria, NY 11105"], "country": "US", "address2": "", "address3": "", "state": "NY", "address1": "20-14 29th St", "zip_code": "11105"}}, {"rating": 4.0, "review_count": 41, "name": "Sapoara Wood Roasting Grill & Bar", "transactions": ["delivery", "pickup"], "url": "https://www.yelp.com/biz/sapoara-wood-roasting-grill-and-bar-new-york-2?adjust_creative=yhLoLzsNXKw40xZ5RCWPpA&utm_campaign=yelp_api_v3&utm_medium=api_v3_business_search&utm_source=yhLoLzsNXKw40xZ5RCWPpA", "price": "$$", "distance": 3348.495712529705, "coordinates": {"latitude": 40.79615, "longitude": -73.93495}, "alias": "sapoara-wood-roasting-grill-and-bar-new-york-2", "image_url": "https://s3-media4.fl.yelpcdn.com/bphoto/TkfRsVnE8Z7YENwnTHTg6Q/o.jpg", "categories": [{"alias": "beerbar", "title": "Beer Bar"}, {"alias": "tradamerican", "title": "American (Traditional)"}], "display_phone": "(212) 256-0199", "phone": "+12122560199", "id": "3XMYQTqA3ZUliZ1Lw-9Bmg", "is_closed": false, "location": {"city": "New York", "display_address": ["2262 1st Ave", "New York, NY 10035"], "country": "US", "address2": null, "address3": "", "state": "NY", "address1": "2262 1st Ave", "zip_code": "10035"}}, {"rating": 4.0, "review_count": 14, "name": "The London Irish Pub", "transactions": ["delivery", "pickup"], "url": "https://www.yelp.com/biz/the-london-irish-pub-new-york?adjust_creative=yhLoLzsNXKw40xZ5RCWPpA&utm_campaign=yelp_api_v3&utm_medium=api_v3_business_search&utm_source=yhLoLzsNXKw40xZ5RCWPpA", "distance": 3389.6557782559753, "coordinates": {"latitude": 40.796424, "longitude": -73.935674}, "alias": "the-london-irish-pub-new-york", "image_url": "https://s3-media3.fl.yelpcdn.com/bphoto/XLzW-vE-lY7fydTJeY6sWQ/o.jpg", "categories": [{"alias": "irish_pubs", "title": "Irish Pub"}, {"alias": "tradamerican", "title": "American (Traditional)"}], "display_phone": "(212) 828-6723", "phone": "+12128286723", "id": "8XyN0EFUUieWKGt6-bSwEQ", "is_closed": false, "location": {"city": "New York", "display_address": ["355 E 116th St", "New York, NY 10029"], "country": "US", "address2": "", "address3": null, "state": "NY", "address1": "355 E 116th St", "zip_code": "10029"}}, {"rating": 2.5, "review_count": 2, "name": "Gravity Lounge And Restaurant", "transactions": [], "url": "https://www.yelp.com/biz/gravity-lounge-and-restaurant-claremont?adjust_creative=yhLoLzsNXKw40xZ5RCWPpA&utm_campaign=yelp_api_v3&utm_medium=api_v3_business_search&utm_source=yhLoLzsNXKw40xZ5RCWPpA", "distance": 3400.797884999531, "coordinates": {"latitude": 40.8394737303361, "longitude": -73.9052808722379}, "alias": "gravity-lounge-and-restaurant-claremont", "image_url": "https://s3-media4.fl.yelpcdn.com/bphoto/ZDXRx99cJs1vJulnHC3CXg/o.jpg", "categories": [{"alias": "lounges", "title": "Lounges"}], "display_phone": "(646) 225-8048", "phone": "+16462258048", "id": "n6vKNwu5Nd2O9vYk_ffvhw", "is_closed": false, "location": {"city": "Claremont", "display_address": ["1538 Webster Ave", "Claremont, NY 10457"], "country": "US", "address2": "", "address3": "", "state": "NY", "address1": "1538 Webster Ave", "zip_code": "10457"}}]}