{"region": {"center": {"latitude": 40.855959785, "longitude": -73.93066282}}, "total": 660, "businesses": [{"rating": 5.0, "review_count": 6, "name": "Gitana Hookah Lounge", "transactions": [], "url": "https://www.yelp.com/biz/gitana-hookah-lounge-new-york?adjust_creative=yhLoLzsNXKw40xZ5RCWPpA&utm_campaign=yelp_api_v3&utm_medium=api_v3_business_search&utm_source=yhLoLzsNXKw40xZ5RCWPpA", "distance": 146.6879588137046, "coordinates": {"latitude": 40.85536, "longitude": -73.92908}, "alias": "gitana-hookah-lounge-new-york", "image_url": "https://s3-media3.fl.yelpcdn.com/bphoto/8MDsUNJxcJeLBd81KDffxw/o.jpg", "categories": [{"alias": "hookah_bars", "title": "Hookah Bars"}], "display_phone": "(646) 494-1776", "phone": "+16464941776", "id": "vLWiqb1XMWynPQmCh9DH6A", "is_closed": false, "location": {"city": "New York", "display_address": ["1610 Saint Nicholas Ave", "New York, NY 10040"], "country": "US", "address2": "", "address3": null, "state": "NY", "address1": "1610 Saint Nicholas Ave", "zip_code": "10040"}}, {"rating": 2.5, "review_count": 20, "name": "Arka Room", "transactions": [], "url": "https://www.yelp.com/biz/arka-room-new-york?adjust_creative=yhLoLzsNXKw40xZ5RCWPpA&utm_campaign=yelp_api_v3&utm_medium=api_v3_business_search&utm_source=yhLoLzsNXKw40xZ5RCWPpA", "price": "$$$", "distance": 194.89939379727673, "coordinates": {"latitude": 40.85758, "longitude": -73.93178}, "alias": "arka-room-new-york", "image_url": "https://s3-media1.fl.yelpcdn.com/bphoto/rmFOuCAT4nD9yGi2TGqrBQ/o.jpg", "categories": [{"alias": "lounges", "title": "Lounges"}], "display_phone": "(917) 261-2365", "phone": "+19172612365", "id": "0RDkL49bW648ruGlYrZTSA", "is_closed": false, "location": {"city": "New York", "display_address": ["4484 Broadway", "New York, NY 10040"], "country": "US", "address2": "", "address3": null, "state": "NY", "address1": "4484 Broadway", "zip_code": "10040"}}, {"rating": 3.5, "review_count": 224, "name": "Buddha Beer Bar", "transactions": [], "url": "https://www.yelp.com/biz/buddha-beer-bar-new-york?adjust_creative=yhLoLzsNXKw40xZ5RCWPpA&utm_campaign=yelp_api_v3&utm_medium=api_v3_business_search&utm_source=yhLoLzsNXKw40xZ5RCWPpA", "price": "$$", "distance": 195.5163447698854, "coordinates": {"latitude": 40.8572686322995, "longitude": -73.9322152056469}, "alias": "buddha-beer-bar-new-york", "image_url": "https://s3-media1.fl.yelpcdn.com/bphoto/ioXBfM5Jx83efIgSRe5MUg/o.jpg", "categories": [{"alias": "beerbar", "title": "Beer Bar"}, {"alias": "tradamerican", "title": "American (Traditional)"}], "display_phone": "(646) 861-2595", "phone": "+16468612595", "id": "5ceyRQJOItktS3cSv3vScA", "is_closed": false, "location": {"city": "New York", "display_address": ["4476 Broadway", "New York, NY 10040"], "country": "US", "address2": "", "address3": "", "state": "NY", "address1": "4476 Broadway", "zip_code": "10040"}}, {"rating": 4.0, "review_count": 94, "name": "Wahi Oyster Bar & Restaurant", "transactions": ["restaurant_reservation"], "url": "https://www.yelp.com/biz/wahi-oyster-bar-and-restaurant-new-york?adjust_creative=yhLoLzsNXKw40xZ5RCWPpA&utm_campaign=yelp_api_v3&utm_medium=api_v3_business_search&utm_source=yhLoLzsNXKw40xZ5RCWPpA", "price": "$$", "distance": 200.91192553497518, "coordinates": {"latitude": 40.85757, "longitude": -73.93197}, "alias": "wahi-oyster-bar-and-restaurant-new-york", "image_url": "https://s3-media2.fl.yelpcdn.com/bphoto/lSd1snda76m5ORLNYjf50g/o.jpg", "categories": [{"alias": "seafood", "title": "Seafood"}, {"alias": "dominican", "title": "Dominican"}, {"alias": "cocktailbars", "title": "Cocktail Bars"}], "display_phone": "(212) 501-9244", "phone": "+12125019244", "id": "5KH5ax4FP40wWiAsJ00fmA", "is_closed": false, "location": {"city": "New York", "display_address": ["4486 Broadway", "New York, NY 10040"], "country": "US", "address2": "", "address3": null, "state": "NY", "address1": "4486 Broadway", "zip_code": "10040"}}, {"rating": 4.0, "review_count": 286, "name": "Locksmith Bar", "transactions": ["pickup", "delivery"], "url": "https://www.yelp.com/biz/locksmith-bar-new-york?adjust_creative=yhLoLzsNXKw40xZ5RCWPpA&utm_campaign=yelp_api_v3&utm_medium=api_v3_business_search&utm_source=yhLoLzsNXKw40xZ5RCWPpA", "price": "$$", "distance": 224.9008663749462, "coordinates": {"latitude": 40.8573807, "longitude": -73.9325659}, "alias": "locksmith-bar-new-york", "image_url": "https://s3-media1.fl.yelpcdn.com/bphoto/8I7Ix3V2oV0na8ATW4oKyg/o.jpg", "categories": [{"alias": "wine_bars", "title": "Wine Bars"}, {"alias": "burgers", "title": "Burgers"}], "display_phone": "(212) 304-9463", "phone": "+12123049463", "id": "zZpuUqF0iENnyYd2UYIX6w", "is_closed": false, "location": {"city": "New York", "display_address": ["4463 Broadway", "New York, NY 10040"], "country": "US", "address2": "", "address3": "", "state": "NY", "address1": "4463 Broadway", "zip_code": "10040"}}, {"rating": 4.5, "review_count": 8, "name": "Zoe Restaurant Bar", "transactions": [], "url": "https://www.yelp.com/biz/zoe-restaurant-bar-new-york?adjust_creative=yhLoLzsNXKw40xZ5RCWPpA&utm_campaign=yelp_api_v3&utm_medium=api_v3_business_search&utm_source=yhLoLzsNXKw40xZ5RCWPpA", "price": "$$", "distance": 251.48521977054602, "coordinates": {"latitude": 40.85357, "longitude": -73.93085}, "alias": "zoe-restaurant-bar-new-york", "image_url": "https://s3-media3.fl.yelpcdn.com/bphoto/lRg0uyzDoB_eDzGRbkdYsw/o.jpg", "categories": [{"alias": "italian", "title": "Italian"}, {"alias": "bars", "title": "Bars"}, {"alias": "caribbean", "title": "Caribbean"}], "display_phone": "(917) 265-8730", "phone": "+19172658730", "id": "S85UgKrCsTFdXaly3jNJWw", "is_closed": false, "location": {"city": "New York", "display_address": ["1559 St Nicholas Ave", "New York, NY 10040"], "country": "US", "address2": "", "address3": null, "state": "NY", "address1": "1559 St Nicholas Ave", "zip_code": "10040"}}, {"rating": 4.0, "review_count": 14, "name": "21 Bar", "transactions": [], "url": "https://www.yelp.com/biz/21-bar-new-york?adjust_creative=yhLoLzsNXKw40xZ5RCWPpA&utm_campaign=yelp_api_v3&utm_medium=api_v3_business_search&utm_source=yhLoLzsNXKw40xZ5RCWPpA", "price": "$", "distance": 561.1288749973527, "coordinates": {"latitude": 40.85192, "longitude": -73.93464}, "alias": "21-bar-new-york", "image_url": "https://s3-media4.fl.yelpcdn.com/bphoto/EQ2puOCA6Amqhj_MoLYNfQ/o.jpg", "categories": [{"alias": "bars", "title": "Bars"}], "display_phone": "", "phone": "", "id": "8xy2_nCRHDlnvBnF6UyiIw", "is_closed": false, "location": {"city": "New York", "display_address": ["4318 Broadway", "New York, NY 10033"], "country": "US", "address2": "", "address3": "", "state": "NY", "address1": "4318 Broadway", "zip_code": "10033"}}, {"rating": 3.5, "review_count": 85, "name": "Monkey Room", "transactions": ["pickup", "delivery"], "url": "https://www.yelp.com/biz/monkey-room-new-york?adjust_creative=yhLoLzsNXKw40xZ5RCWPpA&utm_campaign=yelp_api_v3&utm_medium=api_v3_business_search&utm_source=yhLoLzsNXKw40xZ5RCWPpA", "price": "$$", "distance": 563.2358542055347, "coordinates": {"latitude": 40.85494, "longitude": -73.9371199}, "alias": "monkey-room-new-york", "image_url": "https://s3-media2.fl.yelpcdn.com/bphoto/cAVlkAqdarZuur2ROPI15A/o.jpg", "categories": [{"alias": "latin", "title": "Latin American"}, {"alias": "lounges", "title": "Lounges"}], "display_phone": "(212) 543-9888", "phone": "+12125439888", "id": "VZHyAmdFDreQqL0BT-zdoA", "is_closed": false, "location": {"city": "New York", "display_address": ["589 Ft Washington Ave", "New York, NY 10033"], "country": "US", "address2": "", "address3": "", "state": "NY", "address1": "589 Ft Washington Ave", "zip_code": "10033"}}, {"rating": 3.5, "review_count": 467, "name": "New Leaf Restaurant", "transactions": [], "url": "https://www.yelp.com/biz/new-leaf-restaurant-new-york-2?adjust_creative=yhLoLzsNXKw40xZ5RCWPpA&utm_campaign=yelp_api_v3&utm_medium=api_v3_business_search&utm_source=yhLoLzsNXKw40xZ5RCWPpA", "price": "$$$", "distance": 569.3417445864038, "coordinates": {"latitude": 40.8634423765889, "longitude": -73.9324239545806}, "alias": "new-leaf-restaurant-new-york-2", "image_url": "https://s3-media3.fl.yelpcdn.com/bphoto/hyTXZGJ7v4ijDHmK0iFN4w/o.jpg", "categories": [{"alias": "bars", "title": "Bars"}, {"alias": "newamerican", "title": "American (New)"}, {"alias": "venues", "title": "Venues & Event Spaces"}], "display_phone": "(212) 568-5323", "phone": "+12125685323", "id": "beTK9xis0FPjcjXljwm3pQ", "is_closed": false, "location": {"city": "New York", "display_address": ["1 Margaret Corbin Dr", "New York, NY 10040"], "country": "US", "address2": "", "address3": "", "state": "NY", "address1": "1 Margaret Corbin Dr", "zip_code": "10040"}}, {"rating": 3.5, "review_count": 147, "name": "Las Tapas", "transactions": ["pickup", "delivery"], "url": "https://www.yelp.com/biz/las-tapas-new-york-6?adjust_creative=yhLoLzsNXKw40xZ5RCWPpA&utm_campaign=yelp_api_v3&utm_medium=api_v3_business_search&utm_source=yhLoLzsNXKw40xZ5RCWPpA", "price": "$$", "distance": 572.1087395954603, "coordinates": {"latitude": 40.8551227, "longitude": -73.9373564}, "alias": "las-tapas-new-york-6", "image_url": "https://s3-media4.fl.yelpcdn.com/bphoto/V0qR5IX-d8G3WOSaFPMERA/o.jpg", "categories": [{"alias": "tapasmallplates", "title": "Tapas/Small Plates"}, {"alias": "spanish", "title": "Spanish"}, {"alias": "bars", "title": "Bars"}], "display_phone": "(646) 590-0142", "phone": "+16465900142", "id": "F7TvlBEYxSVR0asrAxhY_A", "is_closed": false, "location": {"city": "New York", "display_address": ["808 W 187th St", "New York, NY 10033"], "country": "US", "address2": null, "address3": "", "state": "NY", "address1": "808 W 187th St", "zip_code": "10033"}}, {"rating": 4.0, "review_count": 94, "name": "The Pandering Pig", "transactions": [], "url": "https://www.yelp.com/biz/the-pandering-pig-new-york?adjust_creative=yhLoLzsNXKw40xZ5RCWPpA&utm_campaign=yelp_api_v3&utm_medium=api_v3_business_search&utm_source=yhLoLzsNXKw40xZ5RCWPpA", "price": "$$", "distance": 609.8049139654482, "coordinates": {"latitude": 40.855144, "longitude": -73.937599}, "alias": "the-pandering-pig-new-york", "image_url": "https://s3-media2.fl.yelpcdn.com/bphoto/M2yJE5O7lsaWak4jG7-GaQ/o.jpg", "categories": [{"alias": "newamerican", "title": "American (New)"}, {"alias": "french", "title": "French"}, {"alias": "wine_bars", "title": "Wine Bars"}], "display_phone": "(212) 781-3124", "phone": "+12127813124", "id": "WA6HwJ3UlGWWCeJdOTlLWw", "is_closed": false, "location": {"city": "New York", "display_address": ["209 Pinehurst Ave", "New York, NY 10033"], "country": "US", "address2": "", "address3": "", "state": "NY", "address1": "209 Pinehurst Ave", "zip_code": "10033"}}, {"rating": 2.5, "review_count": 6, "name": "Harmoni Bar & Grill", "transactions": [], "url": "https://www.yelp.com/biz/harmoni-bar-and-grill-new-york?adjust_creative=yhLoLzsNXKw40xZ5RCWPpA&utm_campaign=yelp_api_v3&utm_medium=api_v3_business_search&utm_source=yhLoLzsNXKw40xZ5RCWPpA", "price": "$", "distance": 695.825891824823, "coordinates": {"latitude": 40.86097, "longitude": -73.92568}, "alias": "harmoni-bar-and-grill-new-york", "image_url": "https://s3-media1.fl.yelpcdn.com/bphoto/AZrrj8kysM0MzFdT1mr-zA/o.jpg", "categories": [{"alias": "bars", "title": "Bars"}, {"alias": "bbq", "title": "Barbeque"}], "display_phone": "(646) 895-9888", "phone": "+16468959888", "id": "pDfX95e_UE207riyh7J0YA", "is_closed": false, "location": {"city": "NY", "display_address": ["151 Nagle Ave", "NY, NY 10040"], "country": "US", "address2": "", "address3": null, "state": "NY", "address1": "151 Nagle Ave", "zip_code": "10040"}}, {"rating": 4.0, "review_count": 197, "name": "809 Sangria Bar & Grill", "transactions": ["pickup"], "url": "https://www.yelp.com/biz/809-sangria-bar-and-grill-new-york?adjust_creative=yhLoLzsNXKw40xZ5RCWPpA&utm_campaign=yelp_api_v3&utm_medium=api_v3_business_search&utm_source=yhLoLzsNXKw40xZ5RCWPpA", "price": "$$", "distance": 807.5223628167038, "coordinates": {"latitude": 40.86196, "longitude": -73.9252}, "alias": "809-sangria-bar-and-grill-new-york", "image_url": "https://s3-media1.fl.yelpcdn.com/bphoto/GpnY2dCZjA0jG7flBzm8nA/o.jpg", "categories": [{"alias": "spanish", "title": "Spanish"}, {"alias": "bars", "title": "Bars"}, {"alias": "caribbean", "title": "Caribbean"}], "display_phone": "(212) 304-3800", "phone": "+12123043800", "id": "Qq_YecqcQ8dhC1P-SWXPOQ", "is_closed": false, "location": {"city": "New York", "display_address": ["112 Dyckman St", "New York, NY 10040"], "country": "US", "address2": "", "address3": "", "state": "NY", "address1": "112 Dyckman St", "zip_code": "10040"}}, {"rating": 3.0, "review_count": 32, "name": "Castro Bar", "transactions": [], "url": "https://www.yelp.com/biz/castro-bar-new-york?adjust_creative=yhLoLzsNXKw40xZ5RCWPpA&utm_campaign=yelp_api_v3&utm_medium=api_v3_business_search&utm_source=yhLoLzsNXKw40xZ5RCWPpA", "price": "$$", "distance": 815.672143878784, "coordinates": {"latitude": 40.8618729, "longitude": -73.9249231}, "alias": "castro-bar-new-york", "image_url": "https://s3-media2.fl.yelpcdn.com/bphoto/KLVOKEBOZFJNrZ1gc5-naA/o.jpg", "categories": [{"alias": "gaybars", "title": "Gay Bars"}], "display_phone": "(646) 918-7959", "phone": "+16469187959", "id": "Lm4lG0B43fC7cthem4qnpg", "is_closed": false, "location": {"city": "New York", "display_address": ["104 Dyckman St", "New York, NY 10040"], "country": "US", "address2": "", "address3": "", "state": "NY", "address1": "104 Dyckman St", "zip_code": "10040"}}, {"rating": 4.0, "review_count": 86, "name": "Bar180", "transactions": [], "url": "https://www.yelp.com/biz/bar180-new-york?adjust_creative=yhLoLzsNXKw40xZ5RCWPpA&utm_campaign=yelp_api_v3&utm_medium=api_v3_business_search&utm_source=yhLoLzsNXKw40xZ5RCWPpA", "price": "$$", "distance": 862.7713816825758, "coordinates": {"latitude": 40.8495175143563, "longitude": -73.9363799999983}, "alias": "bar180-new-york", "image_url": "https://s3-media2.fl.yelpcdn.com/bphoto/AvyvYEHfjU10ErtHY0Eyag/o.jpg", "categories": [{"alias": "newamerican", "title": "American (New)"}, {"alias": "bars", "title": "Bars"}], "display_phone": "(646) 928-3283", "phone": "+16469283283", "id": "7gqMugUq_VAUlPygIT-EVg", "is_closed": false, "location": {"city": "New York", "display_address": ["4241 Broadway", "New York, NY 10033"], "country": "US", "address2": "", "address3": null, "state": "NY", "address1": "4241 Broadway", "zip_code": "10033"}}, {"rating": 3.0, "review_count": 36, "name": "Viva Tapas Bar and Lounge", "transactions": [], "url": "https://www.yelp.com/biz/viva-tapas-bar-and-lounge-new-york?adjust_creative=yhLoLzsNXKw40xZ5RCWPpA&utm_campaign=yelp_api_v3&utm_medium=api_v3_business_search&utm_source=yhLoLzsNXKw40xZ5RCWPpA", "price": "$$", "distance": 865.864469181457, "coordinates": {"latitude": 40.8631406, "longitude": -73.9266804}, "alias": "viva-tapas-bar-and-lounge-new-york", "image_url": "https://s3-media3.fl.yelpcdn.com/bphoto/XqP1Md5VEhgBVpm4KC_O2A/o.jpg", "categories": [{"alias": "lounges", "title": "Lounges"}], "display_phone": "(212) 567-1084", "phone": "+12125671084", "id": "hWClwOPfkVaVw1AG9TyBWA", "is_closed": false, "location": {"city": "New York", "display_address": ["65 Sherman Ave", "New York, NY 10034"], "country": "US", "address2": "", "address3": "", "state": "NY", "address1": "65 Sherman Ave", "zip_code": "10034"}}, {"rating": 4.0, "review_count": 78, "name": "The Uptown Garrison", "transactions": ["pickup", "delivery"], "url": "https://www.yelp.com/biz/the-uptown-garrison-new-york-2?adjust_creative=yhLoLzsNXKw40xZ5RCWPpA&utm_campaign=yelp_api_v3&utm_medium=api_v3_business_search&utm_source=yhLoLzsNXKw40xZ5RCWPpA", "price": "$$", "distance": 895.5353125289281, "coordinates": {"latitude": 40.8512380090093, "longitude": -73.9392676530849}, "alias": "the-uptown-garrison-new-york-2", "image_url": "https://s3-media3.fl.yelpcdn.com/bphoto/MIBbLDpXkgy7Dt0hd8w1jA/o.jpg", "categories": [{"alias": "coffee", "title": "Coffee & Tea"}, {"alias": "pizza", "title": "Pizza"}, {"alias": "bars", "title": "Bars"}], "display_phone": "(917) 261-4680", "phone": "+19172614680", "id": "CdqIBnH7CYmBJd13Op855A", "is_closed": false, "location": {"city": "New York", "display_address": ["821 W 181st", "New York, NY 10033"], "country": "US", "address2": "", "address3": null, "state": "NY", "address1": "821 W 181st", "zip_code": "10033"}}, {"rating": 4.0, "review_count": 321, "name": "Le Ch\u00e9ile", "transactions": ["pickup", "delivery"], "url": "https://www.yelp.com/biz/le-ch%C3%A9ile-new-york-2?adjust_creative=yhLoLzsNXKw40xZ5RCWPpA&utm_campaign=yelp_api_v3&utm_medium=api_v3_business_search&utm_source=yhLoLzsNXKw40xZ5RCWPpA", "price": "$$", "distance": 927.7433929410621, "coordinates": {"latitude": 40.8514803804586, "longitude": -73.9399689480721}, "alias": "le-ch\u00e9ile-new-york-2", "image_url": "https://s3-media1.fl.yelpcdn.com/bphoto/CA4wt_IcXNyygWKKfj6hyQ/o.jpg", "categories": [{"alias": "irish", "title": "Irish"}, {"alias": "pubs", "title": "Pubs"}], "display_phone": "(212) 740-3111", "phone": "+12127403111", "id": "hpzm2ZMMccvsm3etCxnJEw", "is_closed": false, "location": {"city": "New York", "display_address": ["839 W 181st St", "New York, NY 10033"], "country": "US", "address2": "", "address3": "", "state": "NY", "address1": "839 W 181st St", "zip_code": "10033"}}, {"rating": 4.0, "review_count": 2, "name": "One Fifty One Dyckman", "transactions": [], "url": "https://www.yelp.com/biz/one-fifty-one-dyckman-manhattan?adjust_creative=yhLoLzsNXKw40xZ5RCWPpA&utm_campaign=yelp_api_v3&utm_medium=api_v3_business_search&utm_source=yhLoLzsNXKw40xZ5RCWPpA", "distance": 934.6667079664784, "coordinates": {"latitude": 40.86334, "longitude": -73.92563}, "alias": "one-fifty-one-dyckman-manhattan", "image_url": "https://s3-media2.fl.yelpcdn.com/bphoto/zPz_YvQPNlZto80u7KsgyA/o.jpg", "categories": [{"alias": "bars", "title": "Bars"}], "display_phone": "(212) 567-0151", "phone": "+12125670151", "id": "oYHE6QAAww5fJXH-tCPdfQ", "is_closed": false, "location": {"city": "Manhattan", "display_address": ["151 Dyckman St", "Manhattan, NY 10040"], "country": "US", "address2": "", "address3": null, "state": "NY", "address1": "151 Dyckman St", "zip_code": "10040"}}, {"rating": 2.5, "review_count": 132, "name": "Republica", "transactions": [], "url": "https://www.yelp.com/biz/republica-new-york?adjust_creative=yhLoLzsNXKw40xZ5RCWPpA&utm_campaign=yelp_api_v3&utm_medium=api_v3_business_search&utm_source=yhLoLzsNXKw40xZ5RCWPpA", "price": "$$", "distance": 935.5423599425945, "coordinates": {"latitude": 40.86375, "longitude": -73.92635}, "alias": "republica-new-york", "image_url": "https://s3-media2.fl.yelpcdn.com/bphoto/UqkCZ2AfOaceZn0P_BMuQw/o.jpg", "categories": [{"alias": "lounges", "title": "Lounges"}, {"alias": "dominican", "title": "Dominican"}], "display_phone": "(646) 895-9444", "phone": "+16468959444", "id": "AH2tDS58NyVBCwd3o8QKRw", "is_closed": false, "location": {"city": "New York", "display_address": ["160 Dyckman St", "New York, NY 10040"], "country": "US", "address2": "", "address3": "", "state": "NY", "address1": "160 Dyckman St", "zip_code": "10040"}}, {"rating": 4.5, "review_count": 35, "name": "Ca\u00f1ave", "transactions": [], "url": "https://www.yelp.com/biz/ca%C3%B1ave-new-york-2?adjust_creative=yhLoLzsNXKw40xZ5RCWPpA&utm_campaign=yelp_api_v3&utm_medium=api_v3_business_search&utm_source=yhLoLzsNXKw40xZ5RCWPpA", "distance": 964.1992606767054, "coordinates": {"latitude": 40.864528, "longitude": -73.9289005151705}, "alias": "ca\u00f1ave-new-york-2", "image_url": "https://s3-media4.fl.yelpcdn.com/bphoto/mHpiD76hF0bubdtrHbgyRw/o.jpg", "categories": [{"alias": "cocktailbars", "title": "Cocktail Bars"}, {"alias": "caribbean", "title": "Caribbean"}, {"alias": "mexican", "title": "Mexican"}], "display_phone": "", "phone": "", "id": "0gg9v2DnXapTA6YJm3JMkQ", "is_closed": false, "location": {"city": "New York", "display_address": ["4716 Broadway", "New York, NY 10040"], "country": "US", "address2": "", "address3": null, "state": "NY", "address1": "4716 Broadway", "zip_code": "10040"}}, {"rating": 4.5, "review_count": 29, "name": "Tannat Wine & Cheese", "transactions": [], "url": "https://www.yelp.com/biz/tannat-wine-and-cheese-new-york?adjust_creative=yhLoLzsNXKw40xZ5RCWPpA&utm_campaign=yelp_api_v3&utm_medium=api_v3_business_search&utm_source=yhLoLzsNXKw40xZ5RCWPpA", "price": "$$", "distance": 1002.5325775368922, "coordinates": {"latitude": 40.8649436583596, "longitude": -73.9282702747694}, "alias": "tannat-wine-and-cheese-new-york", "image_url": "https://s3-media4.fl.yelpcdn.com/bphoto/p05AegmKalPhrba3YomZNg/o.jpg", "categories": [{"alias": "wine_bars", "title": "Wine Bars"}, {"alias": "tapasmallplates", "title": "Tapas/Small Plates"}], "display_phone": "(212) 807-0672", "phone": "+12128070672", "id": "ZLkX44TyrF92pjRqBvpuig", "is_closed": false, "location": {"city": "New York", "display_address": ["4736 Broadway", "New York, NY 10040"], "country": "US", "address2": null, "address3": "", "state": "NY", "address1": "4736 Broadway", "zip_code": "10040"}}, {"rating": 4.5, "review_count": 74, "name": "Pop and Pour Cafe", "transactions": [], "url": "https://www.yelp.com/biz/pop-and-pour-cafe-new-york-2?adjust_creative=yhLoLzsNXKw40xZ5RCWPpA&utm_campaign=yelp_api_v3&utm_medium=api_v3_business_search&utm_source=yhLoLzsNXKw40xZ5RCWPpA", "price": "$$", "distance": 1024.4113078264404, "coordinates": {"latitude": 40.86477, "longitude": -73.92718}, "alias": "pop-and-pour-cafe-new-york-2", "image_url": "https://s3-media1.fl.yelpcdn.com/bphoto/rIGauscGewgRDfxojhIbxg/o.jpg", "categories": [{"alias": "wine_bars", "title": "Wine Bars"}, {"alias": "newamerican", "title": "American (New)"}, {"alias": "latin", "title": "Latin American"}], "display_phone": "(646) 998-3766", "phone": "+16469983766", "id": "k2xtXGmyMU1q49UTlws8tg", "is_closed": false, "location": {"city": "New York", "display_address": ["200 Dyckman St", "New York, NY 10040"], "country": "US", "address2": null, "address3": "", "state": "NY", "address1": "200 Dyckman St", "zip_code": "10040"}}, {"rating": 4.0, "review_count": 327, "name": "Tryon Public House", "transactions": ["pickup", "delivery"], "url": "https://www.yelp.com/biz/tryon-public-house-new-york?adjust_creative=yhLoLzsNXKw40xZ5RCWPpA&utm_campaign=yelp_api_v3&utm_medium=api_v3_business_search&utm_source=yhLoLzsNXKw40xZ5RCWPpA", "price": "$$", "distance": 1030.8821360060474, "coordinates": {"latitude": 40.8649821372469, "longitude": -73.927843119049}, "alias": "tryon-public-house-new-york", "image_url": "https://s3-media2.fl.yelpcdn.com/bphoto/fIduK1c2jPONoebmAtfgAA/o.jpg", "categories": [{"alias": "tradamerican", "title": "American (Traditional)"}, {"alias": "gastropubs", "title": "Gastropubs"}, {"alias": "bars", "title": "Bars"}], "display_phone": "(646) 918-7129", "phone": "+16469187129", "id": "ykXZyQBXxoOMoZfaZMnHmg", "is_closed": false, "location": {"city": "New York", "display_address": ["4740 Broadway", "New York, NY 10040"], "country": "US", "address2": "", "address3": "", "state": "NY", "address1": "4740 Broadway", "zip_code": "10040"}}, {"rating": 2.5, "review_count": 13, "name": "Taboga", "transactions": ["pickup", "delivery"], "url": "https://www.yelp.com/biz/taboga-new-york-2?adjust_creative=yhLoLzsNXKw40xZ5RCWPpA&utm_campaign=yelp_api_v3&utm_medium=api_v3_business_search&utm_source=yhLoLzsNXKw40xZ5RCWPpA", "price": "$$", "distance": 1040.1444980389492, "coordinates": {"latitude": 40.8610242944589, "longitude": -73.9202643411095}, "alias": "taboga-new-york-2", "image_url": "https://s3-media1.fl.yelpcdn.com/bphoto/oCm4qeqmh6G8ICxtN0SFRw/o.jpg", "categories": [{"alias": "barbers", "title": "Barbers"}, {"alias": "poolhalls", "title": "Pool Halls"}, {"alias": "spanish", "title": "Spanish"}], "display_phone": "(212) 304-0018", "phone": "+12123040018", "id": "AaGL6Q8AOSnvs3Wavk6fbg", "is_closed": false, "location": {"city": "New York", "display_address": ["421 W 202nd St", "New York, NY 10034"], "country": "US", "address2": "", "address3": null, "state": "NY", "address1": "421 W 202nd St", "zip_code": "10034"}}, {"rating": 1.5, "review_count": 32, "name": "Opus Lounge", "transactions": [], "url": "https://www.yelp.com/biz/opus-lounge-new-york?adjust_creative=yhLoLzsNXKw40xZ5RCWPpA&utm_campaign=yelp_api_v3&utm_medium=api_v3_business_search&utm_source=yhLoLzsNXKw40xZ5RCWPpA", "price": "$$", "distance": 1057.328726057605, "coordinates": {"latitude": 40.861088399796, "longitude": -73.9200759288771}, "alias": "opus-lounge-new-york", "image_url": "https://s3-media3.fl.yelpcdn.com/bphoto/WEqewOfJj72yKC4OV0uogg/o.jpg", "categories": [{"alias": "danceclubs", "title": "Dance Clubs"}], "display_phone": "(212) 304-0043", "phone": "+12123040043", "id": "X4VRe_2fJ-wf0flClsv2OA", "is_closed": false, "location": {"city": "New York", "display_address": ["417 W 202nd St", "New York, NY 10034"], "country": "US", "address2": "", "address3": "", "state": "NY", "address1": "417 W 202nd St", "zip_code": "10034"}}, {"rating": 3.0, "review_count": 224, "name": "Sushi Mambo", "transactions": ["pickup", "delivery", "restaurant_reservation"], "url": "https://www.yelp.com/biz/sushi-mambo-new-york-2?adjust_creative=yhLoLzsNXKw40xZ5RCWPpA&utm_campaign=yelp_api_v3&utm_medium=api_v3_business_search&utm_source=yhLoLzsNXKw40xZ5RCWPpA", "price": "$$", "distance": 1061.3508747566577, "coordinates": {"latitude": 40.86106, "longitude": -73.92036}, "alias": "sushi-mambo-new-york-2", "image_url": "https://s3-media4.fl.yelpcdn.com/bphoto/veg1W1WL2afQ6jPpVkwkgw/o.jpg", "categories": [{"alias": "sushi", "title": "Sushi Bars"}, {"alias": "japanese", "title": "Japanese"}, {"alias": "bars", "title": "Bars"}], "display_phone": "(347) 513-3649", "phone": "+13475133649", "id": "3sQPGzWl0PMi2ULZ4DbEAg", "is_closed": false, "location": {"city": "New York", "display_address": ["431 W 202nd St", "New York, NY 10034"], "country": "US", "address2": null, "address3": "", "state": "NY", "address1": "431 W 202nd St", "zip_code": "10034"}}, {"rating": 2.5, "review_count": 92, "name": "Vacca Grill & Lounge", "transactions": ["pickup", "delivery"], "url": "https://www.yelp.com/biz/vacca-grill-and-lounge-new-york?adjust_creative=yhLoLzsNXKw40xZ5RCWPpA&utm_campaign=yelp_api_v3&utm_medium=api_v3_business_search&utm_source=yhLoLzsNXKw40xZ5RCWPpA", "price": "$$", "distance": 1068.0484809623802, "coordinates": {"latitude": 40.861233, "longitude": -73.920048}, "alias": "vacca-grill-and-lounge-new-york", "image_url": "https://s3-media1.fl.yelpcdn.com/bphoto/kSIBMWDv9qEH3tIBVWOJGQ/o.jpg", "categories": [{"alias": "lounges", "title": "Lounges"}, {"alias": "newamerican", "title": "American (New)"}], "display_phone": "(212) 544-0070", "phone": "+12125440070", "id": "2Wgc35DK_4oom5-Grsx0pw", "is_closed": false, "location": {"city": "New York", "display_address": ["416 W 203rd St", "New York, NY 10034"], "country": "US", "address2": "", "address3": "", "state": "NY", "address1": "416 W 203rd St", "zip_code": "10034"}}, {"rating": 5.0, "review_count": 54, "name": "Terravita", "transactions": ["pickup", "delivery", "restaurant_reservation"], "url": "https://www.yelp.com/biz/terravita-new-york-3?adjust_creative=yhLoLzsNXKw40xZ5RCWPpA&utm_campaign=yelp_api_v3&utm_medium=api_v3_business_search&utm_source=yhLoLzsNXKw40xZ5RCWPpA", "price": "$$", "distance": 1072.9325154091687, "coordinates": {"latitude": 40.84807, "longitude": -73.93803}, "alias": "terravita-new-york-3", "image_url": "https://s3-media3.fl.yelpcdn.com/bphoto/QCMA9YVkQ16x5TlYYo3pYg/o.jpg", "categories": [{"alias": "breakfast_brunch", "title": "Breakfast & Brunch"}, {"alias": "tradamerican", "title": "American (Traditional)"}, {"alias": "wine_bars", "title": "Wine Bars"}], "display_phone": "(646) 370-4371", "phone": "+16463704371", "id": "5gcrlif2enGxj7eKAoz-5g", "is_closed": false, "location": {"city": "New York", "display_address": ["4193 Broadway", "New York, NY 10033"], "country": "US", "address2": "", "address3": null, "state": "NY", "address1": "4193 Broadway", "zip_code": "10033"}}, {"rating": 3.5, "review_count": 298, "name": "The Park View", "transactions": ["pickup", "delivery"], "url": "https://www.yelp.com/biz/the-park-view-new-york?adjust_creative=yhLoLzsNXKw40xZ5RCWPpA&utm_campaign=yelp_api_v3&utm_medium=api_v3_business_search&utm_source=yhLoLzsNXKw40xZ5RCWPpA", "price": "$$", "distance": 1128.152618093223, "coordinates": {"latitude": 40.865788, "longitude": -73.927333}, "alias": "the-park-view-new-york", "image_url": "https://s3-media4.fl.yelpcdn.com/bphoto/6q2zTjvvNUX-KUuPrBKf0Q/o.jpg", "categories": [{"alias": "newamerican", "title": "American (New)"}, {"alias": "tradamerican", "title": "American (Traditional)"}, {"alias": "wine_bars", "title": "Wine Bars"}], "display_phone": "(212) 544-9024", "phone": "+12125449024", "id": "l7E6lpov_VPbhrxjWT-76Q", "is_closed": false, "location": {"city": "New York", "display_address": ["219 Dyckman St", "New York, NY 10034"], "country": "US", "address2": "", "address3": "", "state": "NY", "address1": "219 Dyckman St", "zip_code": "10034"}}, {"rating": 3.0, "review_count": 61, "name": "Cocina Taller", "transactions": [], "url": "https://www.yelp.com/biz/cocina-taller-manhattan?adjust_creative=yhLoLzsNXKw40xZ5RCWPpA&utm_campaign=yelp_api_v3&utm_medium=api_v3_business_search&utm_source=yhLoLzsNXKw40xZ5RCWPpA", "price": "$$", "distance": 1129.6961736886117, "coordinates": {"latitude": 40.8613062, "longitude": -73.9192404}, "alias": "cocina-taller-manhattan", "image_url": "https://s3-media3.fl.yelpcdn.com/bphoto/BgyArNbqPjg8e3mT2rOSzA/o.jpg", "categories": [{"alias": "mediterranean", "title": "Mediterranean"}, {"alias": "champagne_bars", "title": "Champagne Bars"}], "display_phone": "(212) 304-0860", "phone": "+12123040860", "id": "53FfOCrQw8iGlBdT4aLaSQ", "is_closed": false, "location": {"city": "Manhattan", "display_address": ["416 B W 203rd St", "Manhattan, NY 10034"], "country": "US", "address2": "", "address3": "", "state": "NY", "address1": "416 B W 203rd St", "zip_code": "10034"}}, {"rating": 3.0, "review_count": 82, "name": "Dyckman Bar", "transactions": [], "url": "https://www.yelp.com/biz/dyckman-bar-new-york?adjust_creative=yhLoLzsNXKw40xZ5RCWPpA&utm_campaign=yelp_api_v3&utm_medium=api_v3_business_search&utm_source=yhLoLzsNXKw40xZ5RCWPpA", "price": "$$", "distance": 1132.1420340119203, "coordinates": {"latitude": 40.8658239146352, "longitude": -73.9273272142015}, "alias": "dyckman-bar-new-york", "image_url": "https://s3-media2.fl.yelpcdn.com/bphoto/1qtnhHP4CgB90NCMPsU1vg/o.jpg", "categories": [{"alias": "lounges", "title": "Lounges"}], "display_phone": "(646) 360-3018", "phone": "+16463603018", "id": "-2aI5Ylqdwq2uH2WVOTMcA", "is_closed": false, "location": {"city": "New York", "display_address": ["221 Dyckman St", "New York, NY 10034"], "country": "US", "address2": null, "address3": null, "state": "NY", "address1": "221 Dyckman St", "zip_code": "10034"}}, {"rating": 4.5, "review_count": 124, "name": "Pocion", "transactions": [], "url": "https://www.yelp.com/biz/pocion-new-york-6?adjust_creative=yhLoLzsNXKw40xZ5RCWPpA&utm_campaign=yelp_api_v3&utm_medium=api_v3_business_search&utm_source=yhLoLzsNXKw40xZ5RCWPpA", "price": "$$", "distance": 1138.491453839229, "coordinates": {"latitude": 40.8475749396196, "longitude": -73.9384309485114}, "alias": "pocion-new-york-6", "image_url": "https://s3-media4.fl.yelpcdn.com/bphoto/1y6exz_be5Qt0Xj4Zu_yfA/o.jpg", "categories": [{"alias": "vegan", "title": "Vegan"}, {"alias": "lounges", "title": "Lounges"}, {"alias": "cocktailbars", "title": "Cocktail Bars"}], "display_phone": "(917) 472-7336", "phone": "+19174727336", "id": "9wrSQVOzd-Jxa9wPltjVCw", "is_closed": false, "location": {"city": "New York", "display_address": ["704 W 177th St", "New York, NY 10033"], "country": "US", "address2": "", "address3": null, "state": "NY", "address1": "704 W 177th St", "zip_code": "10033"}}, {"rating": 3.5, "review_count": 28, "name": "Tabu Cafe and Wine", "transactions": [], "url": "https://www.yelp.com/biz/tabu-cafe-and-wine-new-york?adjust_creative=yhLoLzsNXKw40xZ5RCWPpA&utm_campaign=yelp_api_v3&utm_medium=api_v3_business_search&utm_source=yhLoLzsNXKw40xZ5RCWPpA", "price": "$$", "distance": 1147.5236562427297, "coordinates": {"latitude": 40.8659078, "longitude": -73.9274667}, "alias": "tabu-cafe-and-wine-new-york", "image_url": "https://s3-media2.fl.yelpcdn.com/bphoto/GUw1uru2jXo8LwGjATbB3w/o.jpg", "categories": [{"alias": "wine_bars", "title": "Wine Bars"}], "display_phone": "(212) 304-0144", "phone": "+12123040144", "id": "UdPy-58dsrPPJuQTkCK_jw", "is_closed": false, "location": {"city": "New York", "display_address": ["227 Dyckman St", "New York, NY 10034"], "country": "US", "address2": "", "address3": "", "state": "NY", "address1": "227 Dyckman St", "zip_code": "10034"}}, {"rating": 3.0, "review_count": 607, "name": "Mama Sushi", "transactions": ["pickup", "delivery"], "url": "https://www.yelp.com/biz/mama-sushi-new-york?adjust_creative=yhLoLzsNXKw40xZ5RCWPpA&utm_campaign=yelp_api_v3&utm_medium=api_v3_business_search&utm_source=yhLoLzsNXKw40xZ5RCWPpA", "price": "$$", "distance": 1161.0782352714646, "coordinates": {"latitude": 40.8661259, "longitude": -73.9277212}, "alias": "mama-sushi-new-york", "image_url": "https://s3-media2.fl.yelpcdn.com/bphoto/RbIasy0vumcZ3f5Wyvnx3Q/o.jpg", "categories": [{"alias": "sushi", "title": "Sushi Bars"}, {"alias": "japanese", "title": "Japanese"}, {"alias": "cocktailbars", "title": "Cocktail Bars"}], "display_phone": "(212) 544-0003", "phone": "+12125440003", "id": "8b7Nr6624zlBJTf8zYyrLw", "is_closed": false, "location": {"city": "New York", "display_address": ["237 Dyckman St", "New York, NY 10034"], "country": "US", "address2": "", "address3": "", "state": "NY", "address1": "237 Dyckman St", "zip_code": "10034"}}, {"rating": 4.0, "review_count": 236, "name": "Manolo Tapas", "transactions": [], "url": "https://www.yelp.com/biz/manolo-tapas-new-york?adjust_creative=yhLoLzsNXKw40xZ5RCWPpA&utm_campaign=yelp_api_v3&utm_medium=api_v3_business_search&utm_source=yhLoLzsNXKw40xZ5RCWPpA", "price": "$$", "distance": 1175.439939145659, "coordinates": {"latitude": 40.84713, "longitude": -73.93837}, "alias": "manolo-tapas-new-york", "image_url": "https://s3-media1.fl.yelpcdn.com/bphoto/RyB1FbGUk7k-P7OVdtq1eg/o.jpg", "categories": [{"alias": "tapas", "title": "Tapas Bars"}, {"alias": "spanish", "title": "Spanish"}, {"alias": "cocktailbars", "title": "Cocktail Bars"}], "display_phone": "(212) 923-9100", "phone": "+12129239100", "id": "Sq_rG-TCyxnajp6jae89SA", "is_closed": false, "location": {"city": "New York", "display_address": ["4165 Broadway", "New York, NY 10033"], "country": "US", "address2": "", "address3": "", "state": "NY", "address1": "4165 Broadway", "zip_code": "10033"}}, {"rating": 3.5, "review_count": 60, "name": "Pat'e Palo Bar & Grill", "transactions": ["pickup", "delivery"], "url": "https://www.yelp.com/biz/pate-palo-bar-and-grill-new-york?adjust_creative=yhLoLzsNXKw40xZ5RCWPpA&utm_campaign=yelp_api_v3&utm_medium=api_v3_business_search&utm_source=yhLoLzsNXKw40xZ5RCWPpA", "price": "$$", "distance": 1202.954335193683, "coordinates": {"latitude": 40.8666329129341, "longitude": -73.928326169827}, "alias": "pate-palo-bar-and-grill-new-york", "image_url": "https://s3-media2.fl.yelpcdn.com/bphoto/DLu2upFQ2xAjRK-YpDDQvg/o.jpg", "categories": [{"alias": "bars", "title": "Bars"}, {"alias": "tradamerican", "title": "American (Traditional)"}], "display_phone": "(646) 918-6242", "phone": "+16469186242", "id": "WvJzhvru8oenl6rwVIl0TQ", "is_closed": false, "location": {"city": "New York", "display_address": ["251 Dyckman St", "New York, NY 10034"], "country": "US", "address2": null, "address3": "", "state": "NY", "address1": "251 Dyckman St", "zip_code": "10034"}}, {"rating": 4.0, "review_count": 91, "name": "Seawalk Restaurant", "transactions": [], "url": "https://www.yelp.com/biz/seawalk-restaurant-new-york?adjust_creative=yhLoLzsNXKw40xZ5RCWPpA&utm_campaign=yelp_api_v3&utm_medium=api_v3_business_search&utm_source=yhLoLzsNXKw40xZ5RCWPpA", "price": "$$$", "distance": 1206.0736291162557, "coordinates": {"latitude": 40.86667, "longitude": -73.92837}, "alias": "seawalk-restaurant-new-york", "image_url": "https://s3-media1.fl.yelpcdn.com/bphoto/MGERcWWmCoIly8Qu6EtT_A/o.jpg", "categories": [{"alias": "seafood", "title": "Seafood"}, {"alias": "bars", "title": "Bars"}, {"alias": "breakfast_brunch", "title": "Breakfast & Brunch"}], "display_phone": "(212) 568-9014", "phone": "+12125689014", "id": "1g2MUmzPHrDPcPio62iV9w", "is_closed": false, "location": {"city": "New York", "display_address": ["261 Dyckman St", "New York, NY 10034"], "country": "US", "address2": "", "address3": null, "state": "NY", "address1": "261 Dyckman St", "zip_code": "10034"}}, {"rating": 2.5, "review_count": 19, "name": "Lola Lola Restaurant", "transactions": ["pickup", "delivery"], "url": "https://www.yelp.com/biz/lola-lola-restaurant-new-york?adjust_creative=yhLoLzsNXKw40xZ5RCWPpA&utm_campaign=yelp_api_v3&utm_medium=api_v3_business_search&utm_source=yhLoLzsNXKw40xZ5RCWPpA", "distance": 1229.3170416600728, "coordinates": {"latitude": 40.84568, "longitude": -73.93616}, "alias": "lola-lola-restaurant-new-york", "image_url": "https://s3-media3.fl.yelpcdn.com/bphoto/TxYMArvep2DfhNf5_8_e2A/o.jpg", "categories": [{"alias": "cocktailbars", "title": "Cocktail Bars"}, {"alias": "hookah_bars", "title": "Hookah Bars"}, {"alias": "seafood", "title": "Seafood"}], "display_phone": "(646) 686-7790", "phone": "+16466867790", "id": "KUTJmbxEpXUqpYQB-2xt0A", "is_closed": false, "location": {"city": "New York", "display_address": ["1306 Saint Nicholas Ave", "New York, NY 10033"], "country": "US", "address2": "", "address3": null, "state": "NY", "address1": "1306 Saint Nicholas Ave", "zip_code": "10033"}}, {"rating": 4.5, "review_count": 355, "name": "Beans and Vines", "transactions": ["pickup", "delivery"], "url": "https://www.yelp.com/biz/beans-and-vines-inwood?adjust_creative=yhLoLzsNXKw40xZ5RCWPpA&utm_campaign=yelp_api_v3&utm_medium=api_v3_business_search&utm_source=yhLoLzsNXKw40xZ5RCWPpA", "price": "$$", "distance": 1246.3235282652122, "coordinates": {"latitude": 40.86651, "longitude": -73.92549}, "alias": "beans-and-vines-inwood", "image_url": "https://s3-media1.fl.yelpcdn.com/bphoto/BYtdfaV3t7CJ-JP39F26mA/o.jpg", "categories": [{"alias": "newamerican", "title": "American (New)"}, {"alias": "sandwiches", "title": "Sandwiches"}, {"alias": "cocktailbars", "title": "Cocktail Bars"}], "display_phone": "(646) 928-0209", "phone": "+16469280209", "id": "HVeQNs_7zh3m-xCZ1ugslA", "is_closed": false, "location": {"city": "Inwood", "display_address": ["4799 Broadway", "Inwood, NY 10034"], "country": "US", "address2": "", "address3": "", "state": "NY", "address1": "4799 Broadway", "zip_code": "10034"}}, {"rating": 2.5, "review_count": 9, "name": "El Tina Bar", "transactions": [], "url": "https://www.yelp.com/biz/el-tina-bar-manhattan?adjust_creative=yhLoLzsNXKw40xZ5RCWPpA&utm_campaign=yelp_api_v3&utm_medium=api_v3_business_search&utm_source=yhLoLzsNXKw40xZ5RCWPpA", "price": "$$", "distance": 1317.7385261439847, "coordinates": {"latitude": 40.864233, "longitude": -73.919444}, "alias": "el-tina-bar-manhattan", "image_url": "https://s3-media3.fl.yelpcdn.com/bphoto/fmjSnlUn9NIo2Gkw1rITVw/o.jpg", "categories": [{"alias": "danceclubs", "title": "Dance Clubs"}, {"alias": "sportsbars", "title": "Sports Bars"}], "display_phone": "(212) 304-9810", "phone": "+12123049810", "id": "-4t1feyW_LXK4Ch9FmcAjA", "is_closed": false, "location": {"city": "Manhattan", "display_address": ["500 W 207th St", "Manhattan, NY 10034"], "country": "US", "address2": "", "address3": "", "state": "NY", "address1": "500 W 207th St", "zip_code": "10034"}}, {"rating": 4.5, "review_count": 219, "name": "Bocaditos Bistro", "transactions": ["pickup", "delivery"], "url": "https://www.yelp.com/biz/bocaditos-bistro-new-york?adjust_creative=yhLoLzsNXKw40xZ5RCWPpA&utm_campaign=yelp_api_v3&utm_medium=api_v3_business_search&utm_source=yhLoLzsNXKw40xZ5RCWPpA", "price": "$$", "distance": 1334.592946603117, "coordinates": {"latitude": 40.8668498343787, "longitude": -73.9239908382297}, "alias": "bocaditos-bistro-new-york", "image_url": "https://s3-media2.fl.yelpcdn.com/bphoto/mNvor_VwqrrJ74RyaiFu0g/o.jpg", "categories": [{"alias": "breakfast_brunch", "title": "Breakfast & Brunch"}, {"alias": "tapasmallplates", "title": "Tapas/Small Plates"}, {"alias": "wine_bars", "title": "Wine Bars"}], "display_phone": "(646) 649-4212", "phone": "+16466494212", "id": "Hoq8s-NePq6_3QxJhR7oNA", "is_closed": false, "location": {"city": "New York", "display_address": ["4863 Broadway", "New York, NY 10034"], "country": "US", "address2": "", "address3": null, "state": "NY", "address1": "4863 Broadway", "zip_code": "10034"}}, {"rating": 3.5, "review_count": 3, "name": "Krystal Bar & Lounge", "transactions": [], "url": "https://www.yelp.com/biz/krystal-bar-and-lounge-bronx?adjust_creative=yhLoLzsNXKw40xZ5RCWPpA&utm_campaign=yelp_api_v3&utm_medium=api_v3_business_search&utm_source=yhLoLzsNXKw40xZ5RCWPpA", "price": "$", "distance": 1362.800867609905, "coordinates": {"latitude": 40.8458016663918, "longitude": -73.9215973825076}, "alias": "krystal-bar-and-lounge-bronx", "image_url": "https://s3-media2.fl.yelpcdn.com/bphoto/Gs7dW1i7QPBbH7KPaL24AA/o.jpg", "categories": [{"alias": "latin", "title": "Latin American"}, {"alias": "danceclubs", "title": "Dance Clubs"}, {"alias": "lounges", "title": "Lounges"}], "display_phone": "(917) 471-9756", "phone": "+19174719756", "id": "2QWgPYpJ6HHWve5qeiF4JA", "is_closed": false, "location": {"city": "Bronx", "display_address": ["1534 University Ave", "Bronx, NY 10453"], "country": "US", "address2": null, "address3": "", "state": "NY", "address1": "1534 University Ave", "zip_code": "10453"}}, {"rating": 3.5, "review_count": 250, "name": "Inwood Bar and Grill", "transactions": ["pickup", "delivery", "restaurant_reservation"], "url": "https://www.yelp.com/biz/inwood-bar-and-grill-new-york?adjust_creative=yhLoLzsNXKw40xZ5RCWPpA&utm_campaign=yelp_api_v3&utm_medium=api_v3_business_search&utm_source=yhLoLzsNXKw40xZ5RCWPpA", "price": "$$", "distance": 1414.6712120048026, "coordinates": {"latitude": 40.8670387, "longitude": -73.9223929}, "alias": "inwood-bar-and-grill-new-york", "image_url": "https://s3-media2.fl.yelpcdn.com/bphoto/htH26-1VkWV7aAKNvWFsCw/o.jpg", "categories": [{"alias": "sportsbars", "title": "Sports Bars"}, {"alias": "venues", "title": "Venues & Event Spaces"}, {"alias": "steak", "title": "Steakhouses"}], "display_phone": "(212) 304-3704", "phone": "+12123043704", "id": "DCjRqV6kRPU0h-MaRRcVrQ", "is_closed": false, "location": {"city": "New York", "display_address": ["4892 Broadway", "New York, NY 10034"], "country": "US", "address2": "", "address3": "", "state": "NY", "address1": "4892 Broadway", "zip_code": "10034"}}, {"rating": 2.0, "review_count": 38, "name": "La Casa Del Mofongo", "transactions": [], "url": "https://www.yelp.com/biz/la-casa-del-mofongo-new-york-5?adjust_creative=yhLoLzsNXKw40xZ5RCWPpA&utm_campaign=yelp_api_v3&utm_medium=api_v3_business_search&utm_source=yhLoLzsNXKw40xZ5RCWPpA", "distance": 1428.3676308008498, "coordinates": {"latitude": 40.8657651086247, "longitude": -73.919690265255}, "alias": "la-casa-del-mofongo-new-york-5", "image_url": "https://s3-media2.fl.yelpcdn.com/bphoto/b1o9sM24Dczyn2eQ8GWe4g/o.jpg", "categories": [{"alias": "italian", "title": "Italian"}, {"alias": "tapasmallplates", "title": "Tapas/Small Plates"}, {"alias": "hookah_bars", "title": "Hookah Bars"}], "display_phone": "(212) 544-8888", "phone": "+12125448888", "id": "jptXnWKw4x4kHYihKLNbZA", "is_closed": false, "location": {"city": "New York", "display_address": ["546 W 207th St", "New York, NY 10034"], "country": "US", "address2": "", "address3": null, "state": "NY", "address1": "546 W 207th St", "zip_code": "10034"}}, {"rating": 1.5, "review_count": 8, "name": "Tette Club", "transactions": [], "url": "https://www.yelp.com/biz/tette-club-new-york?adjust_creative=yhLoLzsNXKw40xZ5RCWPpA&utm_campaign=yelp_api_v3&utm_medium=api_v3_business_search&utm_source=yhLoLzsNXKw40xZ5RCWPpA", "price": "$$$", "distance": 1431.7031689536186, "coordinates": {"latitude": 40.864991247654, "longitude": -73.9189881831408}, "alias": "tette-club-new-york", "image_url": "", "categories": [{"alias": "danceclubs", "title": "Dance Clubs"}, {"alias": "venues", "title": "Venues & Event Spaces"}, {"alias": "musicvenues", "title": "Music Venues"}], "display_phone": "(212) 567-2131", "phone": "+12125672131", "id": "b6NDDiknJ_Lex50PUfzReA", "is_closed": false, "location": {"city": "New York", "display_address": ["154 Post Ave", "New York, NY 10034"], "country": "US", "address2": "", "address3": "", "state": "NY", "address1": "154 Post Ave", "zip_code": "10034"}}, {"rating": 3.0, "review_count": 10, "name": "Post Billiards Cafe", "transactions": [], "url": "https://www.yelp.com/biz/post-billiards-cafe-new-york?adjust_creative=yhLoLzsNXKw40xZ5RCWPpA&utm_campaign=yelp_api_v3&utm_medium=api_v3_business_search&utm_source=yhLoLzsNXKw40xZ5RCWPpA", "price": "$$", "distance": 1441.548143364411, "coordinates": {"latitude": 40.865377, "longitude": -73.918882}, "alias": "post-billiards-cafe-new-york", "image_url": "https://s3-media1.fl.yelpcdn.com/bphoto/Q4VNvArU2-RdYtadU1QPFQ/o.jpg", "categories": [{"alias": "poolhalls", "title": "Pool Halls"}], "display_phone": "(212) 569-1840", "phone": "+12125691840", "id": "gdc3bA7EtPXXaKS_e6pAOg", "is_closed": false, "location": {"city": "New York", "display_address": ["154 Post Ave", "New York, NY 10034"], "country": "US", "address2": "", "address3": "", "state": "NY", "address1": "154 Post Ave", "zip_code": "10034"}}, {"rating": 1.0, "review_count": 3, "name": "Monaco Lounge", "transactions": [], "url": "https://www.yelp.com/biz/monaco-lounge-new-york?adjust_creative=yhLoLzsNXKw40xZ5RCWPpA&utm_campaign=yelp_api_v3&utm_medium=api_v3_business_search&utm_source=yhLoLzsNXKw40xZ5RCWPpA", "price": "$$", "distance": 1445.342437585422, "coordinates": {"latitude": 40.8662067876964, "longitude": -73.920088738957}, "alias": "monaco-lounge-new-york", "image_url": "https://s3-media2.fl.yelpcdn.com/bphoto/4SLYUnM-7BEY99t_TG2eVQ/o.jpg", "categories": [{"alias": "danceclubs", "title": "Dance Clubs"}, {"alias": "lounges", "title": "Lounges"}], "display_phone": "(646) 864-8778", "phone": "+16468648778", "id": "UIpx3zFNyHgvLjSK7M2aWQ", "is_closed": false, "location": {"city": "New York", "display_address": ["565 W 207th St", "New York, NY 10034"], "country": "US", "address2": "", "address3": null, "state": "NY", "address1": "565 W 207th St", "zip_code": "10034"}}, {"rating": 2.5, "review_count": 7, "name": "Melodia Lounge", "transactions": [], "url": "https://www.yelp.com/biz/melodia-lounge-new-york?adjust_creative=yhLoLzsNXKw40xZ5RCWPpA&utm_campaign=yelp_api_v3&utm_medium=api_v3_business_search&utm_source=yhLoLzsNXKw40xZ5RCWPpA", "distance": 1447.53084981676, "coordinates": {"latitude": 40.86518, "longitude": -73.91875}, "alias": "melodia-lounge-new-york", "image_url": "https://s3-media1.fl.yelpcdn.com/bphoto/Z6eXSZ3Y3rL9LYhOztVAfQ/o.jpg", "categories": [{"alias": "danceclubs", "title": "Dance Clubs"}], "display_phone": "(212) 304-0859", "phone": "+12123040859", "id": "ZgJIdrzSJ3qih7O70zkc3Q", "is_closed": false, "location": {"city": "New York", "display_address": ["154 Post Ave", "New York, NY 10034"], "country": "US", "address2": "", "address3": "", "state": "NY", "address1": "154 Post Ave", "zip_code": "10034"}}, {"rating": 4.0, "review_count": 104, "name": "Raices", "transactions": ["pickup", "delivery", "restaurant_reservation"], "url": "https://www.yelp.com/biz/raices-new-york?adjust_creative=yhLoLzsNXKw40xZ5RCWPpA&utm_campaign=yelp_api_v3&utm_medium=api_v3_business_search&utm_source=yhLoLzsNXKw40xZ5RCWPpA", "price": "$$", "distance": 1469.9593814610594, "coordinates": {"latitude": 40.86633, "longitude": -73.92016}, "alias": "raices-new-york", "image_url": "https://s3-media2.fl.yelpcdn.com/bphoto/PebPXj0iqwUy3asDLkiFQA/o.jpg", "categories": [{"alias": "bars", "title": "Bars"}, {"alias": "latin", "title": "Latin American"}], "display_phone": "(212) 729-3814", "phone": "+12127293814", "id": "8o-B_1q4XB48CmdaXdm2KQ", "is_closed": false, "location": {"city": "New York", "display_address": ["565 W 207th St", "New York, NY 10034"], "country": "US", "address2": null, "address3": "", "state": "NY", "address1": "565 W 207th St", "zip_code": "10034"}}]}