{"region": {"center": {"latitude": 40.7715626478, "longitude": -73.9557284006}}, "total": 3900, "businesses": [{"rating": 3.5, "review_count": 363, "name": "Vella Wine Bar + Kitchen", "transactions": ["pickup", "delivery"], "url": "https://www.yelp.com/biz/vella-wine-bar-kitchen-new-york?adjust_creative=yhLoLzsNXKw40xZ5RCWPpA&utm_campaign=yelp_api_v3&utm_medium=api_v3_business_search&utm_source=yhLoLzsNXKw40xZ5RCWPpA", "price": "$$", "distance": 51.69463951687133, "coordinates": {"latitude": 40.7720273830928, "longitude": -73.9557119831443}, "alias": "vella-wine-bar-kitchen-new-york", "image_url": "https://s3-media2.fl.yelpcdn.com/bphoto/v_vURetghed9qz7LUOhUrw/o.jpg", "categories": [{"alias": "wine_bars", "title": "Wine Bars"}, {"alias": "tapasmallplates", "title": "Tapas/Small Plates"}, {"alias": "breakfast_brunch", "title": "Breakfast & Brunch"}], "display_phone": "(212) 335-0456", "phone": "+12123350456", "id": "1urm6tDvUpn3lBs9dxXn_w", "is_closed": false, "location": {"city": "New York", "display_address": ["1480 2nd Ave", "New York, NY 10075"], "country": "US", "address2": "", "address3": "", "state": "NY", "address1": "1480 2nd Ave", "zip_code": "10075"}}, {"rating": 3.5, "review_count": 424, "name": "The Stumble Inn", "transactions": [], "url": "https://www.yelp.com/biz/the-stumble-inn-new-york?adjust_creative=yhLoLzsNXKw40xZ5RCWPpA&utm_campaign=yelp_api_v3&utm_medium=api_v3_business_search&utm_source=yhLoLzsNXKw40xZ5RCWPpA", "price": "$$", "distance": 62.58101831201351, "coordinates": {"latitude": 40.771146, "longitude": -73.956228}, "alias": "the-stumble-inn-new-york", "image_url": "https://s3-media3.fl.yelpcdn.com/bphoto/yIaeHoXhPnqrEOB0AZKwvg/o.jpg", "categories": [{"alias": "tradamerican", "title": "American (Traditional)"}, {"alias": "pubs", "title": "Pubs"}], "display_phone": "(212) 650-0561", "phone": "+12126500561", "id": "OtbPn7ePP9bikQ_jXKS28A", "is_closed": false, "location": {"city": "New York", "display_address": ["1454 2nd Ave", "New York, NY 10021"], "country": "US", "address2": "", "address3": "", "state": "NY", "address1": "1454 2nd Ave", "zip_code": "10021"}}, {"rating": 4.0, "review_count": 2099, "name": "Uva", "transactions": [], "url": "https://www.yelp.com/biz/uva-new-york?adjust_creative=yhLoLzsNXKw40xZ5RCWPpA&utm_campaign=yelp_api_v3&utm_medium=api_v3_business_search&utm_source=yhLoLzsNXKw40xZ5RCWPpA", "price": "$$", "distance": 68.16361658160612, "coordinates": {"latitude": 40.77216, "longitude": -73.95556}, "alias": "uva-new-york", "image_url": "https://s3-media3.fl.yelpcdn.com/bphoto/OKw0xxKFXVRPNTRFx6v2Dg/o.jpg", "categories": [{"alias": "italian", "title": "Italian"}, {"alias": "wine_bars", "title": "Wine Bars"}], "display_phone": "(212) 472-4552", "phone": "+12124724552", "id": "OAqsZMbjv66nOMqlimnYuQ", "is_closed": false, "location": {"city": "New York", "display_address": ["1486 2nd Ave", "New York, NY 10075"], "country": "US", "address2": null, "address3": "", "state": "NY", "address1": "1486 2nd Ave", "zip_code": "10075"}}, {"rating": 3.0, "review_count": 204, "name": "Iggy's", "transactions": [], "url": "https://www.yelp.com/biz/iggys-new-york?adjust_creative=yhLoLzsNXKw40xZ5RCWPpA&utm_campaign=yelp_api_v3&utm_medium=api_v3_business_search&utm_source=yhLoLzsNXKw40xZ5RCWPpA", "price": "$", "distance": 69.33503662491893, "coordinates": {"latitude": 40.771091, "longitude": -73.956291}, "alias": "iggys-new-york", "image_url": "https://s3-media2.fl.yelpcdn.com/bphoto/iAEFy8jdlelJCal2MTmBmA/o.jpg", "categories": [{"alias": "karaoke", "title": "Karaoke"}, {"alias": "sportsbars", "title": "Sports Bars"}, {"alias": "lounges", "title": "Lounges"}], "display_phone": "(212) 327-3043", "phone": "+12123273043", "id": "5JE1pUQ9EetQjY0hm1uj6A", "is_closed": false, "location": {"city": "New York", "display_address": ["1452 2nd Ave", "New York, NY 10021"], "country": "US", "address2": "", "address3": "", "state": "NY", "address1": "1452 2nd Ave", "zip_code": "10021"}}, {"rating": 3.5, "review_count": 245, "name": "Mel's Burger Bar", "transactions": ["pickup", "delivery"], "url": "https://www.yelp.com/biz/mels-burger-bar-new-york-3?adjust_creative=yhLoLzsNXKw40xZ5RCWPpA&utm_campaign=yelp_api_v3&utm_medium=api_v3_business_search&utm_source=yhLoLzsNXKw40xZ5RCWPpA", "price": "$$", "distance": 74.8885250810542, "coordinates": {"latitude": 40.771, "longitude": -73.95636}, "alias": "mels-burger-bar-new-york-3", "image_url": "https://s3-media1.fl.yelpcdn.com/bphoto/o7Pbq2hmiD8ydZ6iAXIyDw/o.jpg", "categories": [{"alias": "burgers", "title": "Burgers"}, {"alias": "sportsbars", "title": "Sports Bars"}, {"alias": "breakfast_brunch", "title": "Breakfast & Brunch"}], "display_phone": "(212) 452-1304", "phone": "+12124521304", "id": "eDfJOJcQynmEjSoVfmJkqg", "is_closed": false, "location": {"city": "New York", "display_address": ["1450 Second Ave", "New York, NY 10021"], "country": "US", "address2": "", "address3": "", "state": "NY", "address1": "1450 Second Ave", "zip_code": "10021"}}, {"rating": 3.5, "review_count": 226, "name": "Doc Watson's", "transactions": ["pickup", "delivery"], "url": "https://www.yelp.com/biz/doc-watsons-new-york?adjust_creative=yhLoLzsNXKw40xZ5RCWPpA&utm_campaign=yelp_api_v3&utm_medium=api_v3_business_search&utm_source=yhLoLzsNXKw40xZ5RCWPpA", "price": "$$", "distance": 82.10117841636084, "coordinates": {"latitude": 40.7722815, "longitude": -73.9555058}, "alias": "doc-watsons-new-york", "image_url": "https://s3-media2.fl.yelpcdn.com/bphoto/5Hc6NLajsP0PUpcbtQjUxg/o.jpg", "categories": [{"alias": "irish_pubs", "title": "Irish Pub"}, {"alias": "tradamerican", "title": "American (Traditional)"}], "display_phone": "(212) 988-5300", "phone": "+12129885300", "id": "iYmTPHpjcb3xtHn8DlkoWQ", "is_closed": false, "location": {"city": "New York", "display_address": ["1490 2nd Ave", "New York, NY 10075"], "country": "US", "address2": "", "address3": "", "state": "NY", "address1": "1490 2nd Ave", "zip_code": "10075"}}, {"rating": 4.5, "review_count": 2, "name": "Ed's Elbow Room", "transactions": [], "url": "https://www.yelp.com/biz/eds-elbow-room-new-york?adjust_creative=yhLoLzsNXKw40xZ5RCWPpA&utm_campaign=yelp_api_v3&utm_medium=api_v3_business_search&utm_source=yhLoLzsNXKw40xZ5RCWPpA", "distance": 89.34170609037629, "coordinates": {"latitude": 40.7723, "longitude": -73.95494}, "alias": "eds-elbow-room-new-york", "image_url": "https://s3-media1.fl.yelpcdn.com/bphoto/oTpi2iFMezInzHDBrt9OUw/o.jpg", "categories": [{"alias": "beerbar", "title": "Beer Bar"}, {"alias": "wine_bars", "title": "Wine Bars"}], "display_phone": "(646) 649-3764", "phone": "+16466493764", "id": "xXes1QfwrUSTNbzAg5AW6w", "is_closed": false, "location": {"city": "New York", "display_address": ["308 E 78th St", "New York, NY 10075"], "country": "US", "address2": "", "address3": null, "state": "NY", "address1": "308 E 78th St", "zip_code": "10075"}}, {"rating": 4.5, "review_count": 560, "name": "Heidi's House By The Side Of The Road", "transactions": [], "url": "https://www.yelp.com/biz/heidis-house-by-the-side-of-the-road-new-york-2?adjust_creative=yhLoLzsNXKw40xZ5RCWPpA&utm_campaign=yelp_api_v3&utm_medium=api_v3_business_search&utm_source=yhLoLzsNXKw40xZ5RCWPpA", "price": "$$", "distance": 91.21121152912502, "coordinates": {"latitude": 40.772189, "longitude": -73.955029}, "alias": "heidis-house-by-the-side-of-the-road-new-york-2", "image_url": "https://s3-media3.fl.yelpcdn.com/bphoto/X3Yt1SKN2mUO09c-zBrcAA/o.jpg", "categories": [{"alias": "wine_bars", "title": "Wine Bars"}, {"alias": "comfortfood", "title": "Comfort Food"}, {"alias": "gluten_free", "title": "Gluten-Free"}], "display_phone": "(212) 249-0069", "phone": "+12122490069", "id": "26E3j9l0XW_onVIUP-ThCw", "is_closed": false, "location": {"city": "New York", "display_address": ["308 E 78th St", "New York, NY 10075"], "country": "US", "address2": null, "address3": "", "state": "NY", "address1": "308 E 78th St", "zip_code": "10075"}}, {"rating": 4.5, "review_count": 76, "name": "Stax Sports Bar", "transactions": [], "url": "https://www.yelp.com/biz/stax-sports-bar-new-york?adjust_creative=yhLoLzsNXKw40xZ5RCWPpA&utm_campaign=yelp_api_v3&utm_medium=api_v3_business_search&utm_source=yhLoLzsNXKw40xZ5RCWPpA", "price": "$$", "distance": 92.19963280430377, "coordinates": {"latitude": 40.77231, "longitude": -73.95603}, "alias": "stax-sports-bar-new-york", "image_url": "https://s3-media2.fl.yelpcdn.com/bphoto/Xah5CfqPDqrpHYCJ9HurVg/o.jpg", "categories": [{"alias": "sportsbars", "title": "Sports Bars"}, {"alias": "burgers", "title": "Burgers"}], "display_phone": "(646) 998-3560", "phone": "+16469983560", "id": "3TxvN19eNGwsQCm8Za495g", "is_closed": false, "location": {"city": "New York", "display_address": ["1485 2nd Ave", "New York, NY 10075"], "country": "US", "address2": "", "address3": null, "state": "NY", "address1": "1485 2nd Ave", "zip_code": "10075"}}, {"rating": 4.0, "review_count": 165, "name": "Lusardi's", "transactions": ["pickup", "restaurant_reservation", "delivery"], "url": "https://www.yelp.com/biz/lusardis-new-york?adjust_creative=yhLoLzsNXKw40xZ5RCWPpA&utm_campaign=yelp_api_v3&utm_medium=api_v3_business_search&utm_source=yhLoLzsNXKw40xZ5RCWPpA", "price": "$$$", "distance": 94.571540626559, "coordinates": {"latitude": 40.7724199, "longitude": -73.9555}, "alias": "lusardis-new-york", "image_url": "https://s3-media1.fl.yelpcdn.com/bphoto/zMWAuAg8__KHjJ1FYk5PaQ/o.jpg", "categories": [{"alias": "italian", "title": "Italian"}, {"alias": "wine_bars", "title": "Wine Bars"}], "display_phone": "(212) 249-2020", "phone": "+12122492020", "id": "4eGCuMwKRCCrYHOobEsFpA", "is_closed": false, "location": {"city": "New York", "display_address": ["1494 2nd Ave", "New York, NY 10075"], "country": "US", "address2": "", "address3": "", "state": "NY", "address1": "1494 2nd Ave", "zip_code": "10075"}}, {"rating": 3.5, "review_count": 162, "name": "Quality Eats", "transactions": ["pickup", "delivery"], "url": "https://www.yelp.com/biz/quality-eats-new-york-3?adjust_creative=yhLoLzsNXKw40xZ5RCWPpA&utm_campaign=yelp_api_v3&utm_medium=api_v3_business_search&utm_source=yhLoLzsNXKw40xZ5RCWPpA", "price": "$$", "distance": 107.94984607113086, "coordinates": {"latitude": 40.7725103168192, "longitude": -73.9554501324892}, "alias": "quality-eats-new-york-3", "image_url": "https://s3-media3.fl.yelpcdn.com/bphoto/mGj_zBXEeOJMEUJRuq7Qbw/o.jpg", "categories": [{"alias": "bars", "title": "Bars"}, {"alias": "tradamerican", "title": "American (Traditional)"}], "display_phone": "(212) 256-9922", "phone": "+12122569922", "id": "fwH7iD4-xY2ABrlZznP8CA", "is_closed": false, "location": {"city": "New York", "display_address": ["1496 2nd Ave 78th St", "New York, NY 10075"], "country": "US", "address2": "", "address3": null, "state": "NY", "address1": "1496 2nd Ave 78th St", "zip_code": "10075"}}, {"rating": 4.0, "review_count": 499, "name": "Pil Pil", "transactions": [], "url": "https://www.yelp.com/biz/pil-pil-new-york?adjust_creative=yhLoLzsNXKw40xZ5RCWPpA&utm_campaign=yelp_api_v3&utm_medium=api_v3_business_search&utm_source=yhLoLzsNXKw40xZ5RCWPpA", "price": "$$", "distance": 142.65842062794545, "coordinates": {"latitude": 40.7728412, "longitude": -73.9558687}, "alias": "pil-pil-new-york", "image_url": "https://s3-media2.fl.yelpcdn.com/bphoto/iTBiEejqDbKrIJV6mLdavA/o.jpg", "categories": [{"alias": "tapas", "title": "Tapas Bars"}, {"alias": "breakfast_brunch", "title": "Breakfast & Brunch"}, {"alias": "wine_bars", "title": "Wine Bars"}], "display_phone": "(212) 988-3788", "phone": "+12129883788", "id": "nF-EOBd_H1fX50iT1EIVZA", "is_closed": false, "location": {"city": "New York", "display_address": ["265 E 78th St", "New York, NY 10075"], "country": "US", "address2": "", "address3": "", "state": "NY", "address1": "265 E 78th St", "zip_code": "10075"}}, {"rating": 4.0, "review_count": 96, "name": "American Trash", "transactions": [], "url": "https://www.yelp.com/biz/american-trash-new-york-2?adjust_creative=yhLoLzsNXKw40xZ5RCWPpA&utm_campaign=yelp_api_v3&utm_medium=api_v3_business_search&utm_source=yhLoLzsNXKw40xZ5RCWPpA", "price": "$", "distance": 154.74473761493226, "coordinates": {"latitude": 40.77091, "longitude": -73.95409}, "alias": "american-trash-new-york-2", "image_url": "https://s3-media4.fl.yelpcdn.com/bphoto/8XMUGTkmS_yrgobtX0QClA/o.jpg", "categories": [{"alias": "sportsbars", "title": "Sports Bars"}, {"alias": "pubs", "title": "Pubs"}, {"alias": "hotdog", "title": "Hot Dogs"}], "display_phone": "(212) 988-9008", "phone": "+12129889008", "id": "YnOLKAOE09BcsoU61ExlkA", "is_closed": false, "location": {"city": "New York", "display_address": ["1471 1st Ave", "New York, NY 10021"], "country": "US", "address2": "", "address3": "", "state": "NY", "address1": "1471 1st Ave", "zip_code": "10021"}}, {"rating": 4.0, "review_count": 386, "name": "B Cafe East", "transactions": ["pickup", "delivery"], "url": "https://www.yelp.com/biz/b-cafe-east-new-york?adjust_creative=yhLoLzsNXKw40xZ5RCWPpA&utm_campaign=yelp_api_v3&utm_medium=api_v3_business_search&utm_source=yhLoLzsNXKw40xZ5RCWPpA", "price": "$$", "distance": 171.78997892343668, "coordinates": {"latitude": 40.7709199, "longitude": -73.95759}, "alias": "b-cafe-east-new-york", "image_url": "https://s3-media3.fl.yelpcdn.com/bphoto/fplHxy4c7ZiVxafjXUC4uw/o.jpg", "categories": [{"alias": "bars", "title": "Bars"}, {"alias": "belgian", "title": "Belgian"}], "display_phone": "(212) 249-3300", "phone": "+12122493300", "id": "bOHWY14f1u8rR1t2ggmbYw", "is_closed": false, "location": {"city": "New York", "display_address": ["240 E 75th St", "New York, NY 10021"], "country": "US", "address2": "", "address3": "", "state": "NY", "address1": "240 E 75th St", "zip_code": "10021"}}, {"rating": 4.0, "review_count": 262, "name": "Bar-Coastal NYC", "transactions": [], "url": "https://www.yelp.com/biz/bar-coastal-nyc-new-york?adjust_creative=yhLoLzsNXKw40xZ5RCWPpA&utm_campaign=yelp_api_v3&utm_medium=api_v3_business_search&utm_source=yhLoLzsNXKw40xZ5RCWPpA", "price": "$$", "distance": 197.60293069493858, "coordinates": {"latitude": 40.77189, "longitude": -73.95342}, "alias": "bar-coastal-nyc-new-york", "image_url": "https://s3-media2.fl.yelpcdn.com/bphoto/fwNAWOsZaB50-ysZ2W9Vfg/o.jpg", "categories": [{"alias": "sportsbars", "title": "Sports Bars"}], "display_phone": "(212) 288-6635", "phone": "+12122886635", "id": "UjdqrYedKDokSPE2dDwFbA", "is_closed": false, "location": {"city": "New York", "display_address": ["1495 1st Ave", "New York, NY 10075"], "country": "US", "address2": "", "address3": "", "state": "NY", "address1": "1495 1st Ave", "zip_code": "10075"}}, {"rating": 5.0, "review_count": 1, "name": "Deejay Bravo", "transactions": [], "url": "https://www.yelp.com/biz/deejay-bravo-manhattan?adjust_creative=yhLoLzsNXKw40xZ5RCWPpA&utm_campaign=yelp_api_v3&utm_medium=api_v3_business_search&utm_source=yhLoLzsNXKw40xZ5RCWPpA", "distance": 218.97055609842764, "coordinates": {"latitude": 40.772591, "longitude": -73.957947}, "alias": "deejay-bravo-manhattan", "image_url": "", "categories": [{"alias": "musicvenues", "title": "Music Venues"}, {"alias": "djs", "title": "DJs"}], "display_phone": "(212) 920-4351", "phone": "+12129204351", "id": "tz7HeHlXl4NHJm2Cd-5LqQ", "is_closed": false, "location": {"city": "Manhattan", "display_address": ["202 E 77th St", "Manhattan, NY 10075"], "country": "US", "address2": null, "address3": "", "state": "NY", "address1": "202 E 77th St", "zip_code": "10075"}}, {"rating": 4.0, "review_count": 67, "name": "Mile 17 Bar & Restaurant", "transactions": ["pickup", "delivery"], "url": "https://www.yelp.com/biz/mile-17-bar-and-restaurant-new-york?adjust_creative=yhLoLzsNXKw40xZ5RCWPpA&utm_campaign=yelp_api_v3&utm_medium=api_v3_business_search&utm_source=yhLoLzsNXKw40xZ5RCWPpA", "price": "$$", "distance": 230.8673575481622, "coordinates": {"latitude": 40.769802, "longitude": -73.9542}, "alias": "mile-17-bar-and-restaurant-new-york", "image_url": "https://s3-media1.fl.yelpcdn.com/bphoto/YtcVQD4QC2AmG5sJebzMHQ/o.jpg", "categories": [{"alias": "sportsbars", "title": "Sports Bars"}, {"alias": "newamerican", "title": "American (New)"}, {"alias": "breakfast_brunch", "title": "Breakfast & Brunch"}], "display_phone": "(212) 772-1734", "phone": "+12127721734", "id": "wXCb19BZ1xEcd8JnYh-h3w", "is_closed": false, "location": {"city": "New York", "display_address": ["1446 1st Ave", "New York, NY 10021"], "country": "US", "address2": null, "address3": "", "state": "NY", "address1": "1446 1st Ave", "zip_code": "10021"}}, {"rating": 4.0, "review_count": 52, "name": "Quatorze Bis", "transactions": [], "url": "https://www.yelp.com/biz/quatorze-bis-new-york?adjust_creative=yhLoLzsNXKw40xZ5RCWPpA&utm_campaign=yelp_api_v3&utm_medium=api_v3_business_search&utm_source=yhLoLzsNXKw40xZ5RCWPpA", "price": "$$$", "distance": 233.74219393639225, "coordinates": {"latitude": 40.7730946, "longitude": -73.9538277}, "alias": "quatorze-bis-new-york", "image_url": "https://s3-media2.fl.yelpcdn.com/bphoto/nJsU9WMWHc4uuruBTCGddA/o.jpg", "categories": [{"alias": "french", "title": "French"}, {"alias": "wine_bars", "title": "Wine Bars"}, {"alias": "seafood", "title": "Seafood"}], "display_phone": "(212) 535-1414", "phone": "+12125351414", "id": "XDMtYVpUQag-uay9DHMm9A", "is_closed": false, "location": {"city": "New York", "display_address": ["323 E 79th St", "New York, NY 10075"], "country": "US", "address2": "", "address3": "", "state": "NY", "address1": "323 E 79th St", "zip_code": "10075"}}, {"rating": 4.0, "review_count": 331, "name": "The Pony Bar", "transactions": [], "url": "https://www.yelp.com/biz/the-pony-bar-new-york-2?adjust_creative=yhLoLzsNXKw40xZ5RCWPpA&utm_campaign=yelp_api_v3&utm_medium=api_v3_business_search&utm_source=yhLoLzsNXKw40xZ5RCWPpA", "price": "$$", "distance": 238.3667497666628, "coordinates": {"latitude": 40.76974, "longitude": -73.95425}, "alias": "the-pony-bar-new-york-2", "image_url": "https://s3-media4.fl.yelpcdn.com/bphoto/v61vycV2GKxKYIpEVJII2A/o.jpg", "categories": [{"alias": "bars", "title": "Bars"}], "display_phone": "(212) 288-0090", "phone": "+12122880090", "id": "Qg3J6XPrD22CEFAqEEhWpw", "is_closed": false, "location": {"city": "New York", "display_address": ["1444 1st Ave", "New York, NY 10021"], "country": "US", "address2": "", "address3": "", "state": "NY", "address1": "1444 1st Ave", "zip_code": "10021"}}, {"rating": 4.0, "review_count": 34, "name": "Workshop", "transactions": [], "url": "https://www.yelp.com/biz/workshop-new-york-7?adjust_creative=yhLoLzsNXKw40xZ5RCWPpA&utm_campaign=yelp_api_v3&utm_medium=api_v3_business_search&utm_source=yhLoLzsNXKw40xZ5RCWPpA", "price": "$$", "distance": 243.57537097743474, "coordinates": {"latitude": 40.77007, "longitude": -73.95778}, "alias": "workshop-new-york-7", "image_url": "https://s3-media4.fl.yelpcdn.com/bphoto/uVl7ZL4wm8s8cA96f-ZJhg/o.jpg", "categories": [{"alias": "sandwiches", "title": "Sandwiches"}, {"alias": "sportsbars", "title": "Sports Bars"}, {"alias": "breakfast_brunch", "title": "Breakfast & Brunch"}], "display_phone": "(646) 861-0999", "phone": "+16468610999", "id": "dfuedxl8OncQJuF_SWNKig", "is_closed": false, "location": {"city": "New York", "display_address": ["1415 2nd Ave", "New York, NY 10021"], "country": "US", "address2": null, "address3": "", "state": "NY", "address1": "1415 2nd Ave", "zip_code": "10021"}}, {"rating": 4.5, "review_count": 33, "name": "2nd Floor Bar & Essen", "transactions": [], "url": "https://www.yelp.com/biz/2nd-floor-bar-and-essen-new-york-2?adjust_creative=yhLoLzsNXKw40xZ5RCWPpA&utm_campaign=yelp_api_v3&utm_medium=api_v3_business_search&utm_source=yhLoLzsNXKw40xZ5RCWPpA", "price": "$$$", "distance": 252.71053796955826, "coordinates": {"latitude": 40.76954, "longitude": -73.95436}, "alias": "2nd-floor-bar-and-essen-new-york-2", "image_url": "https://s3-media2.fl.yelpcdn.com/bphoto/H-SF_1MY5k82q1v4jlBteQ/o.jpg", "categories": [{"alias": "cocktailbars", "title": "Cocktail Bars"}], "display_phone": "(212) 737-1700", "phone": "+12127371700", "id": "X7HV43qlSM-Y61LgTNBxPw", "is_closed": false, "location": {"city": "New York", "display_address": ["1442 1st Ave", "New York, NY 10021"], "country": "US", "address2": "", "address3": null, "state": "NY", "address1": "1442 1st Ave", "zip_code": "10021"}}, {"rating": 3.5, "review_count": 149, "name": "Cafe Evergreen", "transactions": ["pickup", "delivery"], "url": "https://www.yelp.com/biz/cafe-everghreen-new-york?adjust_creative=yhLoLzsNXKw40xZ5RCWPpA&utm_campaign=yelp_api_v3&utm_medium=api_v3_business_search&utm_source=yhLoLzsNXKw40xZ5RCWPpA", "price": "$$", "distance": 297.3362317017172, "coordinates": {"latitude": 40.76891, "longitude": -73.9556}, "alias": "cafe-everghreen-new-york", "image_url": "https://s3-media3.fl.yelpcdn.com/bphoto/oHFGulFKejno-nmOv2RiHg/o.jpg", "categories": [{"alias": "chinese", "title": "Chinese"}, {"alias": "lounges", "title": "Lounges"}], "display_phone": "(212) 744-3266", "phone": "+12127443266", "id": "bDsXyYwzk4I9_7l51D_gaA", "is_closed": false, "location": {"city": "New York", "display_address": ["1367 1st Ave", "New York, NY 10021"], "country": "US", "address2": "", "address3": "", "state": "NY", "address1": "1367 1st Ave", "zip_code": "10021"}}, {"rating": 3.5, "review_count": 419, "name": "Two Lizards Mexican Bar & Grill", "transactions": ["pickup", "delivery"], "url": "https://www.yelp.com/biz/two-lizards-mexican-bar-and-grill-new-york?adjust_creative=yhLoLzsNXKw40xZ5RCWPpA&utm_campaign=yelp_api_v3&utm_medium=api_v3_business_search&utm_source=yhLoLzsNXKw40xZ5RCWPpA", "price": "$$", "distance": 301.34597858963053, "coordinates": {"latitude": 40.768857, "longitude": -73.955524}, "alias": "two-lizards-mexican-bar-and-grill-new-york", "image_url": "https://s3-media2.fl.yelpcdn.com/bphoto/-bX6NilGr5_tOQg0-Lj9Ww/o.jpg", "categories": [{"alias": "mexican", "title": "Mexican"}, {"alias": "bars", "title": "Bars"}], "display_phone": "(212) 734-2447", "phone": "+12127342447", "id": "bHJWjEg_sGjrlSHIOX6Mqg", "is_closed": false, "location": {"city": "New York", "display_address": ["1365 1st Ave", "New York, NY 10021"], "country": "US", "address2": "", "address3": "", "state": "NY", "address1": "1365 1st Ave", "zip_code": "10021"}}, {"rating": 3.5, "review_count": 97, "name": "La Esquina UES", "transactions": ["pickup", "delivery"], "url": "https://www.yelp.com/biz/la-esquina-ues-new-york?adjust_creative=yhLoLzsNXKw40xZ5RCWPpA&utm_campaign=yelp_api_v3&utm_medium=api_v3_business_search&utm_source=yhLoLzsNXKw40xZ5RCWPpA", "price": "$$", "distance": 302.48970299900515, "coordinates": {"latitude": 40.7693091, "longitude": -73.9578192}, "alias": "la-esquina-ues-new-york", "image_url": "https://s3-media2.fl.yelpcdn.com/bphoto/VQO6MNYdM_lHXIOiCOLqvQ/o.jpg", "categories": [{"alias": "mexican", "title": "Mexican"}, {"alias": "cocktailbars", "title": "Cocktail Bars"}], "display_phone": "(646) 861-3356", "phone": "+16468613356", "id": "FeSZi6LBCcAIipoSua6dXg", "is_closed": false, "location": {"city": "New York", "display_address": ["1402 2nd Ave", "New York, NY 10021"], "country": "US", "address2": "", "address3": null, "state": "NY", "address1": "1402 2nd Ave", "zip_code": "10021"}}, {"rating": 3.5, "review_count": 1136, "name": "J.G. Melon", "transactions": [], "url": "https://www.yelp.com/biz/j-g-melon-new-york-4?adjust_creative=yhLoLzsNXKw40xZ5RCWPpA&utm_campaign=yelp_api_v3&utm_medium=api_v3_business_search&utm_source=yhLoLzsNXKw40xZ5RCWPpA", "price": "$$", "distance": 308.92258058171234, "coordinates": {"latitude": 40.77105, "longitude": -73.95931}, "alias": "j-g-melon-new-york-4", "image_url": "https://s3-media3.fl.yelpcdn.com/bphoto/b8zgBwV9_tJ6GQr0898mpg/o.jpg", "categories": [{"alias": "tradamerican", "title": "American (Traditional)"}, {"alias": "bars", "title": "Bars"}, {"alias": "salad", "title": "Salad"}], "display_phone": "(212) 744-0585", "phone": "+12127440585", "id": "77EedCTJY1biWIYSzAulCQ", "is_closed": false, "location": {"city": "New York", "display_address": ["1291 3rd Ave", "New York, NY 10021"], "country": "US", "address2": "", "address3": "", "state": "NY", "address1": "1291 3rd Ave", "zip_code": "10021"}}, {"rating": 3.5, "review_count": 98, "name": "Finnegan's Wake", "transactions": [], "url": "https://www.yelp.com/biz/finnegans-wake-new-york?adjust_creative=yhLoLzsNXKw40xZ5RCWPpA&utm_campaign=yelp_api_v3&utm_medium=api_v3_business_search&utm_source=yhLoLzsNXKw40xZ5RCWPpA", "price": "$$", "distance": 325.8605723203472, "coordinates": {"latitude": 40.76867, "longitude": -73.9556}, "alias": "finnegans-wake-new-york", "image_url": "https://s3-media3.fl.yelpcdn.com/bphoto/Q4KUXRLkAmobLGLp-oqw7A/o.jpg", "categories": [{"alias": "pubs", "title": "Pubs"}, {"alias": "newamerican", "title": "American (New)"}, {"alias": "tradamerican", "title": "American (Traditional)"}], "display_phone": "(212) 737-3664", "phone": "+12127373664", "id": "qD7Ttf8FSL6bplLBwjvXXg", "is_closed": false, "location": {"city": "New York", "display_address": ["1361 1st Ave", "New York, NY 10021"], "country": "US", "address2": "", "address3": "", "state": "NY", "address1": "1361 1st Ave", "zip_code": "10021"}}, {"rating": 2.0, "review_count": 1, "name": "The Cocktail Room", "transactions": [], "url": "https://www.yelp.com/biz/the-cocktail-room-new-york?adjust_creative=yhLoLzsNXKw40xZ5RCWPpA&utm_campaign=yelp_api_v3&utm_medium=api_v3_business_search&utm_source=yhLoLzsNXKw40xZ5RCWPpA", "distance": 333.00634195160086, "coordinates": {"latitude": 40.768577, "longitude": -73.956306}, "alias": "the-cocktail-room-new-york", "image_url": "", "categories": [{"alias": "cocktailbars", "title": "Cocktail Bars"}], "display_phone": "(212) 988-6100", "phone": "+12129886100", "id": "Sn8tvs6FxXPwY4isuf7g5A", "is_closed": false, "location": {"city": "New York", "display_address": ["334 E 73rd St Frnt", "New York, NY 10021"], "country": "US", "address2": "", "address3": "", "state": "NY", "address1": "334 E 73rd St Frnt", "zip_code": "10021"}}, {"rating": 4.5, "review_count": 47, "name": "Casa de Montecristo", "transactions": [], "url": "https://www.yelp.com/biz/casa-de-montecristo-new-york-2?adjust_creative=yhLoLzsNXKw40xZ5RCWPpA&utm_campaign=yelp_api_v3&utm_medium=api_v3_business_search&utm_source=yhLoLzsNXKw40xZ5RCWPpA", "price": "$$", "distance": 336.71877722492735, "coordinates": {"latitude": 40.768567, "longitude": -73.956313}, "alias": "casa-de-montecristo-new-york-2", "image_url": "https://s3-media2.fl.yelpcdn.com/bphoto/oPlXW5S5vKb372zSvlEFAw/o.jpg", "categories": [{"alias": "tobaccoshops", "title": "Tobacco Shops"}, {"alias": "cigarbars", "title": "Cigar Bars"}, {"alias": "lounges", "title": "Lounges"}], "display_phone": "(212) 717-7403", "phone": "+12127177403", "id": "S5NxEH57S_-7VCB_Ja80uQ", "is_closed": false, "location": {"city": "New York", "display_address": ["334 E 73rd St", "New York, NY 10021"], "country": "US", "address2": "", "address3": "", "state": "NY", "address1": "334 E 73rd St", "zip_code": "10021"}}, {"rating": 4.0, "review_count": 30, "name": "Vanguard Wine Bar", "transactions": [], "url": "https://www.yelp.com/biz/vanguard-wine-bar-new-york-3?adjust_creative=yhLoLzsNXKw40xZ5RCWPpA&utm_campaign=yelp_api_v3&utm_medium=api_v3_business_search&utm_source=yhLoLzsNXKw40xZ5RCWPpA", "price": "$$", "distance": 339.23756396133234, "coordinates": {"latitude": 40.7685437815422, "longitude": -73.9551467096273}, "alias": "vanguard-wine-bar-new-york-3", "image_url": "https://s3-media3.fl.yelpcdn.com/bphoto/3KSq9PQqIZ_5BWnGZWmmrg/o.jpg", "categories": [{"alias": "wine_bars", "title": "Wine Bars"}], "display_phone": "(212) 288-9463", "phone": "+12122889463", "id": "E2gIY7uWsmvpcUKItVOJoA", "is_closed": false, "location": {"city": "New York", "display_address": ["1372 1st Ave", "New York, NY 10021"], "country": "US", "address2": "", "address3": null, "state": "NY", "address1": "1372 1st Ave", "zip_code": "10021"}}, {"rating": 3.5, "review_count": 208, "name": "Session 73", "transactions": ["pickup", "delivery"], "url": "https://www.yelp.com/biz/session-73-new-york?adjust_creative=yhLoLzsNXKw40xZ5RCWPpA&utm_campaign=yelp_api_v3&utm_medium=api_v3_business_search&utm_source=yhLoLzsNXKw40xZ5RCWPpA", "price": "$$", "distance": 343.47151261988466, "coordinates": {"latitude": 40.768477, "longitude": -73.955916}, "alias": "session-73-new-york", "image_url": "https://s3-media2.fl.yelpcdn.com/bphoto/SZShKkl0akpxf82gjqr1Nw/o.jpg", "categories": [{"alias": "bars", "title": "Bars"}, {"alias": "tradamerican", "title": "American (Traditional)"}, {"alias": "musicvenues", "title": "Music Venues"}], "display_phone": "(212) 517-4445", "phone": "+12125174445", "id": "ahwsTJiv_pStXpkh3M-mFg", "is_closed": false, "location": {"city": "New York", "display_address": ["1359 1st Ave", "New York, NY 10021"], "country": "US", "address2": "", "address3": "", "state": "NY", "address1": "1359 1st Ave", "zip_code": "10021"}}, {"rating": 3.5, "review_count": 347, "name": "Cascabel Taqueria", "transactions": ["pickup", "delivery"], "url": "https://www.yelp.com/biz/cascabel-taqueria-new-york-4?adjust_creative=yhLoLzsNXKw40xZ5RCWPpA&utm_campaign=yelp_api_v3&utm_medium=api_v3_business_search&utm_source=yhLoLzsNXKw40xZ5RCWPpA", "price": "$$", "distance": 344.08112895927724, "coordinates": {"latitude": 40.7743636, "longitude": -73.9539916}, "alias": "cascabel-taqueria-new-york-4", "image_url": "https://s3-media2.fl.yelpcdn.com/bphoto/JBtiCisVxNsXOxwitBffyg/o.jpg", "categories": [{"alias": "mexican", "title": "Mexican"}, {"alias": "cocktailbars", "title": "Cocktail Bars"}], "display_phone": "(212) 717-8226", "phone": "+12127178226", "id": "qHbQ2V9K_GJqLaOaielk_Q", "is_closed": false, "location": {"city": "New York", "display_address": ["1556 2nd Ave", "New York, NY 10028"], "country": "US", "address2": "", "address3": "", "state": "NY", "address1": "1556 2nd Ave", "zip_code": "10028"}}, {"rating": 3.5, "review_count": 289, "name": "Jaiya", "transactions": [], "url": "https://www.yelp.com/biz/jaiya-new-york-4?adjust_creative=yhLoLzsNXKw40xZ5RCWPpA&utm_campaign=yelp_api_v3&utm_medium=api_v3_business_search&utm_source=yhLoLzsNXKw40xZ5RCWPpA", "price": "$$", "distance": 346.69104717883414, "coordinates": {"latitude": 40.774553, "longitude": -73.954563}, "alias": "jaiya-new-york-4", "image_url": "https://s3-media2.fl.yelpcdn.com/bphoto/2kAxKXmzy8Vcd0BYDiOi9g/o.jpg", "categories": [{"alias": "thai", "title": "Thai"}, {"alias": "asianfusion", "title": "Asian Fusion"}, {"alias": "bars", "title": "Bars"}], "display_phone": "(212) 717-8877", "phone": "+12127178877", "id": "Kyx9QFPJUzlC7dmM8SE1bw", "is_closed": false, "location": {"city": "New York", "display_address": ["1553 2nd Ave", "New York, NY 10075"], "country": "US", "address2": "", "address3": "", "state": "NY", "address1": "1553 2nd Ave", "zip_code": "10075"}}, {"rating": 3.0, "review_count": 121, "name": "Luke's Bar and Grill", "transactions": ["pickup", "delivery"], "url": "https://www.yelp.com/biz/lukes-bar-and-grill-new-york-2?adjust_creative=yhLoLzsNXKw40xZ5RCWPpA&utm_campaign=yelp_api_v3&utm_medium=api_v3_business_search&utm_source=yhLoLzsNXKw40xZ5RCWPpA", "price": "$$", "distance": 357.8948581120047, "coordinates": {"latitude": 40.774544, "longitude": -73.95733}, "alias": "lukes-bar-and-grill-new-york-2", "image_url": "https://s3-media2.fl.yelpcdn.com/bphoto/OEbIKKYDZPEG03TuNFE38w/o.jpg", "categories": [{"alias": "bars", "title": "Bars"}, {"alias": "tradamerican", "title": "American (Traditional)"}, {"alias": "burgers", "title": "Burgers"}], "display_phone": "(212) 249-7070", "phone": "+12122497070", "id": "OkhbpTKJMb5_osTuynmT9Q", "is_closed": false, "location": {"city": "New York", "display_address": ["1394 3rd Ave", "New York, NY 10075"], "country": "US", "address2": "", "address3": "", "state": "NY", "address1": "1394 3rd Ave", "zip_code": "10075"}}, {"rating": 2.5, "review_count": 13, "name": "Eli's Essentials", "transactions": [], "url": "https://www.yelp.com/biz/elis-essentials-new-york-9?adjust_creative=yhLoLzsNXKw40xZ5RCWPpA&utm_campaign=yelp_api_v3&utm_medium=api_v3_business_search&utm_source=yhLoLzsNXKw40xZ5RCWPpA", "price": "$$$$", "distance": 360.3540325510915, "coordinates": {"latitude": 40.7745, "longitude": -73.95741}, "alias": "elis-essentials-new-york-9", "image_url": "https://s3-media3.fl.yelpcdn.com/bphoto/L6vbl5SaTtHWt-DSR16Wpg/o.jpg", "categories": [{"alias": "burgers", "title": "Burgers"}, {"alias": "breakfast_brunch", "title": "Breakfast & Brunch"}, {"alias": "cocktailbars", "title": "Cocktail Bars"}], "display_phone": "(212) 879-7160", "phone": "+12128797160", "id": "OxOYw3pU5GIxfLIyzGjPgg", "is_closed": false, "location": {"city": "New York", "display_address": ["189 79th St At 3rd Ave", "New York, NY 10075"], "country": "US", "address2": "", "address3": "", "state": "NY", "address1": "189 79th St At 3rd Ave", "zip_code": "10075"}}, {"rating": 3.5, "review_count": 207, "name": "San Matteo Pizzeria e Cucina", "transactions": ["pickup", "delivery"], "url": "https://www.yelp.com/biz/san-matteo-pizzeria-e-cucina-new-york?adjust_creative=yhLoLzsNXKw40xZ5RCWPpA&utm_campaign=yelp_api_v3&utm_medium=api_v3_business_search&utm_source=yhLoLzsNXKw40xZ5RCWPpA", "price": "$$", "distance": 362.2308859603074, "coordinates": {"latitude": 40.7746799, "longitude": -73.95443}, "alias": "san-matteo-pizzeria-e-cucina-new-york", "image_url": "https://s3-media4.fl.yelpcdn.com/bphoto/7a3GFqx25LTilA6YYWxNqA/o.jpg", "categories": [{"alias": "pizza", "title": "Pizza"}, {"alias": "italian", "title": "Italian"}, {"alias": "wine_bars", "title": "Wine Bars"}], "display_phone": "(212) 861-2434", "phone": "+12128612434", "id": "FpgzHQMSNTTjagrKXxOw5A", "is_closed": false, "location": {"city": "New York", "display_address": ["1559 2nd Ave", "New York, NY 10028"], "country": "US", "address2": "", "address3": "", "state": "NY", "address1": "1559 2nd Ave", "zip_code": "10028"}}, {"rating": 3.5, "review_count": 220, "name": "Petaluma", "transactions": ["pickup", "delivery"], "url": "https://www.yelp.com/biz/petaluma-new-york-3?adjust_creative=yhLoLzsNXKw40xZ5RCWPpA&utm_campaign=yelp_api_v3&utm_medium=api_v3_business_search&utm_source=yhLoLzsNXKw40xZ5RCWPpA", "price": "$$", "distance": 369.83256660947364, "coordinates": {"latitude": 40.7682492, "longitude": -73.9553474}, "alias": "petaluma-new-york-3", "image_url": "https://s3-media2.fl.yelpcdn.com/bphoto/kzpZMA9_f1IkadkXqFFZQw/o.jpg", "categories": [{"alias": "italian", "title": "Italian"}, {"alias": "tradamerican", "title": "American (Traditional)"}, {"alias": "wine_bars", "title": "Wine Bars"}], "display_phone": "(212) 772-8800", "phone": "+12127728800", "id": "penftLPo6kx6qCtbsuyLog", "is_closed": false, "location": {"city": "New York", "display_address": ["1356 1st Ave", "New York, NY 10021"], "country": "US", "address2": "", "address3": "", "state": "NY", "address1": "1356 1st Ave", "zip_code": "10021"}}, {"rating": 4.5, "review_count": 58, "name": "Pitchounette81", "transactions": ["restaurant_reservation"], "url": "https://www.yelp.com/biz/pitchounette81-new-york?adjust_creative=yhLoLzsNXKw40xZ5RCWPpA&utm_campaign=yelp_api_v3&utm_medium=api_v3_business_search&utm_source=yhLoLzsNXKw40xZ5RCWPpA", "distance": 392.84808508549787, "coordinates": {"latitude": 40.77496, "longitude": -73.95437}, "alias": "pitchounette81-new-york", "image_url": "https://s3-media2.fl.yelpcdn.com/bphoto/cTfdQAhRyn_TMCBMBDqKGg/o.jpg", "categories": [{"alias": "wine_bars", "title": "Wine Bars"}, {"alias": "french", "title": "French"}, {"alias": "cocktailbars", "title": "Cocktail Bars"}], "display_phone": "(646) 707-0295", "phone": "+16467070295", "id": "JZvegz9gY9sJwAeDPNvMQA", "is_closed": false, "location": {"city": "New York", "display_address": ["245 East 81st St", "New York, NY 10028"], "country": "US", "address2": null, "address3": "", "state": "NY", "address1": "245 East 81st St", "zip_code": "10028"}}, {"rating": 3.5, "review_count": 221, "name": "Comic Strip Live", "transactions": [], "url": "https://www.yelp.com/biz/comic-strip-live-new-york-4?adjust_creative=yhLoLzsNXKw40xZ5RCWPpA&utm_campaign=yelp_api_v3&utm_medium=api_v3_business_search&utm_source=yhLoLzsNXKw40xZ5RCWPpA", "price": "$$", "distance": 393.6938125836444, "coordinates": {"latitude": 40.774787100239, "longitude": -73.9537973403931}, "alias": "comic-strip-live-new-york-4", "image_url": "https://s3-media1.fl.yelpcdn.com/bphoto/vHVQyw-SaQ4F1yMGGQ8BoA/o.jpg", "categories": [{"alias": "comedyclubs", "title": "Comedy Clubs"}], "display_phone": "(212) 861-9386", "phone": "+12128619386", "id": "WcFSkRTQ5pYqIppWeLVq2g", "is_closed": false, "location": {"city": "New York", "display_address": ["1568 2nd Ave", "New York, NY 10028"], "country": "US", "address2": "", "address3": "", "state": "NY", "address1": "1568 2nd Ave", "zip_code": "10028"}}, {"rating": 4.0, "review_count": 166, "name": "Eastfield's Kitchen & Bar", "transactions": ["pickup", "delivery"], "url": "https://www.yelp.com/biz/eastfields-kitchen-and-bar-new-york?adjust_creative=yhLoLzsNXKw40xZ5RCWPpA&utm_campaign=yelp_api_v3&utm_medium=api_v3_business_search&utm_source=yhLoLzsNXKw40xZ5RCWPpA", "price": "$$", "distance": 409.5082190065655, "coordinates": {"latitude": 40.7709264508638, "longitude": -73.950938590508}, "alias": "eastfields-kitchen-and-bar-new-york", "image_url": "https://s3-media1.fl.yelpcdn.com/bphoto/WhHIf2sRW5UMO9LTLvzHcw/o.jpg", "categories": [{"alias": "newamerican", "title": "American (New)"}, {"alias": "cocktailbars", "title": "Cocktail Bars"}, {"alias": "gastropubs", "title": "Gastropubs"}], "display_phone": "(646) 964-4918", "phone": "+16469644918", "id": "qYuWyqWH5zfKJfJ6obuh4g", "is_closed": false, "location": {"city": "New York", "display_address": ["1479 York Ave", "New York, NY 10075"], "country": "US", "address2": "", "address3": "", "state": "NY", "address1": "1479 York Ave", "zip_code": "10075"}}, {"rating": 3.5, "review_count": 399, "name": "Eats", "transactions": ["pickup", "delivery"], "url": "https://www.yelp.com/biz/eats-new-york?adjust_creative=yhLoLzsNXKw40xZ5RCWPpA&utm_campaign=yelp_api_v3&utm_medium=api_v3_business_search&utm_source=yhLoLzsNXKw40xZ5RCWPpA", "price": "$$", "distance": 420.4672555130159, "coordinates": {"latitude": 40.7722, "longitude": -73.96065}, "alias": "eats-new-york", "image_url": "https://s3-media4.fl.yelpcdn.com/bphoto/ILToZcsqbkG3zCdIjDg98g/o.jpg", "categories": [{"alias": "tradamerican", "title": "American (Traditional)"}, {"alias": "cocktailbars", "title": "Cocktail Bars"}, {"alias": "breakfast_brunch", "title": "Breakfast & Brunch"}], "display_phone": "(212) 396-3287", "phone": "+12123963287", "id": "bxju4seaE8hE-HpLrBomgw", "is_closed": false, "location": {"city": "New York", "display_address": ["1055 Lexington Ave", "New York, NY 10021"], "country": "US", "address2": "", "address3": "", "state": "NY", "address1": "1055 Lexington Ave", "zip_code": "10021"}}, {"rating": 5.0, "review_count": 14, "name": "Mexicue", "transactions": ["restaurant_reservation"], "url": "https://www.yelp.com/biz/mexicue-new-york-13?adjust_creative=yhLoLzsNXKw40xZ5RCWPpA&utm_campaign=yelp_api_v3&utm_medium=api_v3_business_search&utm_source=yhLoLzsNXKw40xZ5RCWPpA", "distance": 422.1194437239055, "coordinates": {"latitude": 40.77536, "longitude": -73.95628}, "alias": "mexicue-new-york-13", "image_url": "https://s3-media3.fl.yelpcdn.com/bphoto/dpumWWHHQS11ip4ZFfR08w/o.jpg", "categories": [{"alias": "mexican", "title": "Mexican"}, {"alias": "breakfast_brunch", "title": "Breakfast & Brunch"}, {"alias": "cocktailbars", "title": "Cocktail Bars"}], "display_phone": "(212) 988-4700", "phone": "+12129884700", "id": "zscLFr_wQUmSRGkup2YjpA", "is_closed": false, "location": {"city": "New York", "display_address": ["1429 3rd Ave", "New York, NY 10028"], "country": "US", "address2": "", "address3": null, "state": "NY", "address1": "1429 3rd Ave", "zip_code": "10028"}}, {"rating": 4.0, "review_count": 564, "name": "Mei Jin Ramen", "transactions": ["pickup", "delivery"], "url": "https://www.yelp.com/biz/mei-jin-ramen-new-york?adjust_creative=yhLoLzsNXKw40xZ5RCWPpA&utm_campaign=yelp_api_v3&utm_medium=api_v3_business_search&utm_source=yhLoLzsNXKw40xZ5RCWPpA", "price": "$$", "distance": 428.16981678211164, "coordinates": {"latitude": 40.775028, "longitude": -73.953491}, "alias": "mei-jin-ramen-new-york", "image_url": "https://s3-media2.fl.yelpcdn.com/bphoto/OjfhYz-Jq53RcjTzkvU2Qg/o.jpg", "categories": [{"alias": "ramen", "title": "Ramen"}, {"alias": "cocktailbars", "title": "Cocktail Bars"}], "display_phone": "(212) 327-2800", "phone": "+12123272800", "id": "W5RSIwNKBa7k0jeAs5KDYg", "is_closed": false, "location": {"city": "New York", "display_address": ["1574 2nd Ave", "New York, NY 10028"], "country": "US", "address2": "", "address3": "", "state": "NY", "address1": "1574 2nd Ave", "zip_code": "10028"}}, {"rating": 4.5, "review_count": 34, "name": "Meijin Sakaba", "transactions": ["pickup", "delivery"], "url": "https://www.yelp.com/biz/meijin-sakaba-new-york?adjust_creative=yhLoLzsNXKw40xZ5RCWPpA&utm_campaign=yelp_api_v3&utm_medium=api_v3_business_search&utm_source=yhLoLzsNXKw40xZ5RCWPpA", "price": "$$", "distance": 428.16981678211164, "coordinates": {"latitude": 40.775028, "longitude": -73.953491}, "alias": "meijin-sakaba-new-york", "image_url": "https://s3-media2.fl.yelpcdn.com/bphoto/NAmQr1w3MpTVaQoMPDjzUA/o.jpg", "categories": [{"alias": "bars", "title": "Bars"}], "display_phone": "(212) 327-2800", "phone": "+12123272800", "id": "7vkrAhVl3o--ir_Kh5ROBA", "is_closed": false, "location": {"city": "New York", "display_address": ["1574 Second Ave", "New York, NY 10028"], "country": "US", "address2": "", "address3": "", "state": "NY", "address1": "1574 Second Ave", "zip_code": "10028"}}, {"rating": 3.5, "review_count": 58, "name": "Brady's Bar", "transactions": [], "url": "https://www.yelp.com/biz/bradys-bar-new-york?adjust_creative=yhLoLzsNXKw40xZ5RCWPpA&utm_campaign=yelp_api_v3&utm_medium=api_v3_business_search&utm_source=yhLoLzsNXKw40xZ5RCWPpA", "price": "$", "distance": 464.8375673102804, "coordinates": {"latitude": 40.77548, "longitude": -73.9538}, "alias": "bradys-bar-new-york", "image_url": "https://s3-media2.fl.yelpcdn.com/bphoto/3oJYV9xbQ8R5eqctJbpwMQ/o.jpg", "categories": [{"alias": "bars", "title": "Bars"}], "display_phone": "(212) 861-6070", "phone": "+12128616070", "id": "qri1cY7RTYvz9CM_PCs83w", "is_closed": false, "location": {"city": "New York", "display_address": ["1583 2nd Ave", "New York, NY 10028"], "country": "US", "address2": "", "address3": "", "state": "NY", "address1": "1583 2nd Ave", "zip_code": "10028"}}, {"rating": 3.5, "review_count": 379, "name": "Wa Jeal Sichuan Chili House", "transactions": ["pickup", "delivery"], "url": "https://www.yelp.com/biz/wa-jeal-sichuan-chili-house-new-york?adjust_creative=yhLoLzsNXKw40xZ5RCWPpA&utm_campaign=yelp_api_v3&utm_medium=api_v3_business_search&utm_source=yhLoLzsNXKw40xZ5RCWPpA", "price": "$$", "distance": 475.04076269153364, "coordinates": {"latitude": 40.77536, "longitude": -73.95317}, "alias": "wa-jeal-sichuan-chili-house-new-york", "image_url": "https://s3-media3.fl.yelpcdn.com/bphoto/uiyBuZ_Rpje9LbnN_Vlc4Q/o.jpg", "categories": [{"alias": "chinese", "title": "Chinese"}, {"alias": "bars", "title": "Bars"}, {"alias": "seafood", "title": "Seafood"}], "display_phone": "(212) 396-3339", "phone": "+12123963339", "id": "RkcQl4uEJWblWf4xX8ssqQ", "is_closed": false, "location": {"city": "New York", "display_address": ["1588 2nd Ave", "New York, NY 10028"], "country": "US", "address2": null, "address3": "", "state": "NY", "address1": "1588 2nd Ave", "zip_code": "10028"}}, {"rating": 3.5, "review_count": 186, "name": "Bonjour Crepes & Wine", "transactions": ["pickup", "delivery"], "url": "https://www.yelp.com/biz/bonjour-crepes-and-wine-new-york?adjust_creative=yhLoLzsNXKw40xZ5RCWPpA&utm_campaign=yelp_api_v3&utm_medium=api_v3_business_search&utm_source=yhLoLzsNXKw40xZ5RCWPpA", "price": "$$", "distance": 479.81150350617816, "coordinates": {"latitude": 40.7755867003005, "longitude": -73.9536713689222}, "alias": "bonjour-crepes-and-wine-new-york", "image_url": "https://s3-media1.fl.yelpcdn.com/bphoto/TEw22WWHptzGkEINlQuGGg/o.jpg", "categories": [{"alias": "creperies", "title": "Creperies"}, {"alias": "wine_bars", "title": "Wine Bars"}, {"alias": "coffee", "title": "Coffee & Tea"}], "display_phone": "(212) 535-3140", "phone": "+12125353140", "id": "W4UAL78mPBHTdi8G_te9Ew", "is_closed": false, "location": {"city": "New York", "display_address": ["1585 2nd Ave 82nd St", "New York, NY 10028"], "country": "US", "address2": "", "address3": "", "state": "NY", "address1": "1585 2nd Ave 82nd St", "zip_code": "10028"}}, {"rating": 4.0, "review_count": 994, "name": "The Penrose", "transactions": [], "url": "https://www.yelp.com/biz/the-penrose-new-york?adjust_creative=yhLoLzsNXKw40xZ5RCWPpA&utm_campaign=yelp_api_v3&utm_medium=api_v3_business_search&utm_source=yhLoLzsNXKw40xZ5RCWPpA", "price": "$$", "distance": 488.41252673961185, "coordinates": {"latitude": 40.7755334102308, "longitude": -73.9532487460327}, "alias": "the-penrose-new-york", "image_url": "https://s3-media4.fl.yelpcdn.com/bphoto/qNLV1pybDp4Elzp3Ci_gzQ/o.jpg", "categories": [{"alias": "gastropubs", "title": "Gastropubs"}, {"alias": "bars", "title": "Bars"}, {"alias": "breakfast_brunch", "title": "Breakfast & Brunch"}], "display_phone": "(212) 203-2751", "phone": "+12122032751", "id": "mWS4umRg2AyykyAClMrIRw", "is_closed": false, "location": {"city": "New York", "display_address": ["1590 2nd Ave", "New York, NY 10028"], "country": "US", "address2": "", "address3": "", "state": "NY", "address1": "1590 2nd Ave", "zip_code": "10028"}}, {"rating": 4.0, "review_count": 34, "name": "Jack and Fanny's", "transactions": [], "url": "https://www.yelp.com/biz/jack-and-fannys-new-york?adjust_creative=yhLoLzsNXKw40xZ5RCWPpA&utm_campaign=yelp_api_v3&utm_medium=api_v3_business_search&utm_source=yhLoLzsNXKw40xZ5RCWPpA", "price": "$$", "distance": 498.1833020855008, "coordinates": {"latitude": 40.77577, "longitude": -73.95369}, "alias": "jack-and-fannys-new-york", "image_url": "https://s3-media3.fl.yelpcdn.com/bphoto/WKcStLBXLQFgKcdaxY88LA/o.jpg", "categories": [{"alias": "cocktailbars", "title": "Cocktail Bars"}], "display_phone": "(917) 259-0028", "phone": "+19172590028", "id": "eMoB_q8WIjgTogKaeNHKBA", "is_closed": false, "location": {"city": "New York", "display_address": ["1591 2nd Ave", "New York, NY 10028"], "country": "US", "address2": null, "address3": "", "state": "NY", "address1": "1591 2nd Ave", "zip_code": "10028"}}, {"rating": 3.5, "review_count": 237, "name": "Duke's", "transactions": ["pickup", "delivery"], "url": "https://www.yelp.com/biz/dukes-new-york-13?adjust_creative=yhLoLzsNXKw40xZ5RCWPpA&utm_campaign=yelp_api_v3&utm_medium=api_v3_business_search&utm_source=yhLoLzsNXKw40xZ5RCWPpA", "price": "$$", "distance": 508.5480556620243, "coordinates": {"latitude": 40.775647, "longitude": -73.953011}, "alias": "dukes-new-york-13", "image_url": "https://s3-media4.fl.yelpcdn.com/bphoto/fiIxVYFUjOphwjMsZM4YBg/o.jpg", "categories": [{"alias": "tradamerican", "title": "American (Traditional)"}, {"alias": "bars", "title": "Bars"}], "display_phone": "(212) 717-2020", "phone": "+12127172020", "id": "jPQWT232CbxOLU3yCpzdqw", "is_closed": false, "location": {"city": "New York", "display_address": ["1596 2nd Ave", "New York, NY 10028"], "country": "US", "address2": null, "address3": null, "state": "NY", "address1": "1596 2nd Ave", "zip_code": "10028"}}, {"rating": 4.0, "review_count": 280, "name": "Mad River Bar & Grille", "transactions": ["pickup", "delivery"], "url": "https://www.yelp.com/biz/mad-river-bar-and-grille-new-york-2?adjust_creative=yhLoLzsNXKw40xZ5RCWPpA&utm_campaign=yelp_api_v3&utm_medium=api_v3_business_search&utm_source=yhLoLzsNXKw40xZ5RCWPpA", "price": "$$", "distance": 512.6461419136381, "coordinates": {"latitude": 40.77614, "longitude": -73.95616}, "alias": "mad-river-bar-and-grille-new-york-2", "image_url": "https://s3-media2.fl.yelpcdn.com/bphoto/8wXBzeXQoNHpUXH7hapArw/o.jpg", "categories": [{"alias": "tradamerican", "title": "American (Traditional)"}, {"alias": "sportsbars", "title": "Sports Bars"}], "display_phone": "(646) 490-1678", "phone": "+16464901678", "id": "vJXswY5u9rcMRrYZukpMbQ", "is_closed": false, "location": {"city": "New York", "display_address": ["1442 3rd Ave", "New York, NY 10028"], "country": "US", "address2": "", "address3": "", "state": "NY", "address1": "1442 3rd Ave", "zip_code": "10028"}}]}