{"region": {"center": {"latitude": 40.7193639315, "longitude": -73.9861208707}}, "total": 4000, "businesses": [{"rating": 3.0, "review_count": 11, "name": "The Suffolk", "transactions": [], "url": "https://www.yelp.com/biz/the-suffolk-new-york?adjust_creative=yhLoLzsNXKw40xZ5RCWPpA&utm_campaign=yelp_api_v3&utm_medium=api_v3_business_search&utm_source=yhLoLzsNXKw40xZ5RCWPpA", "price": "$", "distance": 26.030114899298205, "coordinates": {"latitude": 40.71905, "longitude": -73.98618}, "alias": "the-suffolk-new-york", "image_url": "https://s3-media2.fl.yelpcdn.com/bphoto/U2lV2TOVaS9eI8ShhCSrNQ/o.jpg", "categories": [{"alias": "bars", "title": "Bars"}], "display_phone": "(212) 982-5008", "phone": "+12129825008", "id": "EEvsMs0okH28sS_E6gnnng", "is_closed": false, "location": {"city": "New York", "display_address": ["107 Suffolk St", "New York, NY 10002"], "country": "US", "address2": "", "address3": "", "state": "NY", "address1": "107 Suffolk St", "zip_code": "10002"}}, {"rating": 4.5, "review_count": 194, "name": "Yopparai", "transactions": [], "url": "https://www.yelp.com/biz/yopparai-new-york?adjust_creative=yhLoLzsNXKw40xZ5RCWPpA&utm_campaign=yelp_api_v3&utm_medium=api_v3_business_search&utm_source=yhLoLzsNXKw40xZ5RCWPpA", "price": "$$$", "distance": 42.188815944193124, "coordinates": {"latitude": 40.71919, "longitude": -73.98571}, "alias": "yopparai-new-york", "image_url": "https://s3-media2.fl.yelpcdn.com/bphoto/rz0D3mcGdQFBHhjUZUN_ag/o.jpg", "categories": [{"alias": "bars", "title": "Bars"}, {"alias": "izakaya", "title": "Izakaya"}], "display_phone": "(212) 777-7253", "phone": "+12127777253", "id": "kN3rkbjvqkY62CDRYUVz4g", "is_closed": false, "location": {"city": "New York", "display_address": ["151 Rivington St", "Fl 1", "New York, NY 10002"], "country": "US", "address2": "Fl 1", "address3": "", "state": "NY", "address1": "151 Rivington St", "zip_code": "10002"}}, {"rating": 4.0, "review_count": 1, "name": "One Fifity One", "transactions": [], "url": "https://www.yelp.com/biz/one-fifity-one-new-york?adjust_creative=yhLoLzsNXKw40xZ5RCWPpA&utm_campaign=yelp_api_v3&utm_medium=api_v3_business_search&utm_source=yhLoLzsNXKw40xZ5RCWPpA", "distance": 42.188815944193124, "coordinates": {"latitude": 40.719124, "longitude": -73.985733}, "alias": "one-fifity-one-new-york", "image_url": "", "categories": [{"alias": "cocktailbars", "title": "Cocktail Bars"}], "display_phone": "", "phone": "", "id": "LsMB2tsEqTTAHCzm9y7w1w", "is_closed": false, "location": {"city": "New York", "display_address": ["151 Rivington St", "New York, NY 10002"], "country": "US", "address2": "", "address3": "", "state": "NY", "address1": "151 Rivington St", "zip_code": "10002"}}, {"rating": 4.0, "review_count": 280, "name": "Nitecap", "transactions": [], "url": "https://www.yelp.com/biz/nitecap-new-york?adjust_creative=yhLoLzsNXKw40xZ5RCWPpA&utm_campaign=yelp_api_v3&utm_medium=api_v3_business_search&utm_source=yhLoLzsNXKw40xZ5RCWPpA", "price": "$$", "distance": 42.188815944193124, "coordinates": {"latitude": 40.719125, "longitude": -73.985732}, "alias": "nitecap-new-york", "image_url": "https://s3-media1.fl.yelpcdn.com/bphoto/ebbPQuhqhshVZXPynSJfIw/o.jpg", "categories": [{"alias": "cocktailbars", "title": "Cocktail Bars"}], "display_phone": "", "phone": "", "id": "iM3zYjjmnJ06VVmxvTo9eQ", "is_closed": false, "location": {"city": "New York", "display_address": ["151 Rivington St", "New York, NY 10002"], "country": "US", "address2": "", "address3": "", "state": "NY", "address1": "151 Rivington St", "zip_code": "10002"}}, {"rating": 4.0, "review_count": 358, "name": "Spreadhouse Cafe", "transactions": [], "url": "https://www.yelp.com/biz/spreadhouse-cafe-new-york-3?adjust_creative=yhLoLzsNXKw40xZ5RCWPpA&utm_campaign=yelp_api_v3&utm_medium=api_v3_business_search&utm_source=yhLoLzsNXKw40xZ5RCWPpA", "price": "$", "distance": 51.26311719814289, "coordinates": {"latitude": 40.71891, "longitude": -73.98585}, "alias": "spreadhouse-cafe-new-york-3", "image_url": "https://s3-media2.fl.yelpcdn.com/bphoto/YsBfwR-s2ZdfmCwqwAx_iQ/o.jpg", "categories": [{"alias": "cafes", "title": "Cafes"}, {"alias": "bars", "title": "Bars"}], "display_phone": "(646) 524-6353", "phone": "+16465246353", "id": "wTA00Dov2lFYXKnZ58eXAQ", "is_closed": false, "location": {"city": "New York", "display_address": ["116 Suffolk St", "New York, NY 10002"], "country": "US", "address2": "", "address3": "", "state": "NY", "address1": "116 Suffolk St", "zip_code": "10002"}}, {"rating": 2.5, "review_count": 5, "name": "Rothko", "transactions": [], "url": "https://www.yelp.com/biz/rothko-new-york?adjust_creative=yhLoLzsNXKw40xZ5RCWPpA&utm_campaign=yelp_api_v3&utm_medium=api_v3_business_search&utm_source=yhLoLzsNXKw40xZ5RCWPpA", "distance": 51.26311719814289, "coordinates": {"latitude": 40.71891, "longitude": -73.985847}, "alias": "rothko-new-york", "image_url": "", "categories": [{"alias": "nightlife", "title": "Nightlife"}], "display_phone": "(212) 475-7088", "phone": "+12124757088", "id": "hYYnV4KmiS5YOBdtJIdxcQ", "is_closed": false, "location": {"city": "New York", "display_address": ["116 Suffolk St", "New York, NY 10002"], "country": "US", "address2": "", "address3": "", "state": "NY", "address1": "116 Suffolk St", "zip_code": "10002"}}, {"rating": 4.5, "review_count": 125, "name": "Clancey", "transactions": ["delivery", "pickup"], "url": "https://www.yelp.com/biz/clancey-new-york?adjust_creative=yhLoLzsNXKw40xZ5RCWPpA&utm_campaign=yelp_api_v3&utm_medium=api_v3_business_search&utm_source=yhLoLzsNXKw40xZ5RCWPpA", "price": "$$", "distance": 86.76292420798369, "coordinates": {"latitude": 40.7190299, "longitude": -73.98521}, "alias": "clancey-new-york", "image_url": "https://s3-media1.fl.yelpcdn.com/bphoto/pX5_kB6loBoyIQ6ACGBEuw/o.jpg", "categories": [{"alias": "newamerican", "title": "American (New)"}, {"alias": "beerbar", "title": "Beer Bar"}, {"alias": "breakfast_brunch", "title": "Breakfast & Brunch"}], "display_phone": "(917) 388-3575", "phone": "+19173883575", "id": "7qtIemPU3LlNix8CVWdhwA", "is_closed": false, "location": {"city": "New York", "display_address": ["79 Clinton St", "New York, NY 10002"], "country": "US", "address2": "", "address3": null, "state": "NY", "address1": "79 Clinton St", "zip_code": "10002"}}, {"rating": 4.5, "review_count": 158, "name": "Garfunkel's", "transactions": ["restaurant_reservation"], "url": "https://www.yelp.com/biz/garfunkels-new-york?adjust_creative=yhLoLzsNXKw40xZ5RCWPpA&utm_campaign=yelp_api_v3&utm_medium=api_v3_business_search&utm_source=yhLoLzsNXKw40xZ5RCWPpA", "price": "$$", "distance": 87.91413638784685, "coordinates": {"latitude": 40.71941, "longitude": -73.98501}, "alias": "garfunkels-new-york", "image_url": "https://s3-media2.fl.yelpcdn.com/bphoto/gFeh87SUoxwRvljw0CULBQ/o.jpg", "categories": [{"alias": "cocktailbars", "title": "Cocktail Bars"}, {"alias": "speakeasies", "title": "Speakeasies"}], "display_phone": "(212) 529-6900", "phone": "+12125296900", "id": "ph-GkrDhM1pBwbs-pfvV1A", "is_closed": false, "location": {"city": "New York", "display_address": ["67 Clinton St", "New York, NY 10002"], "country": "US", "address2": "", "address3": "", "state": "NY", "address1": "67 Clinton St", "zip_code": "10002"}}, {"rating": 4.0, "review_count": 282, "name": "Nurse Bettie", "transactions": [], "url": "https://www.yelp.com/biz/nurse-bettie-new-york?adjust_creative=yhLoLzsNXKw40xZ5RCWPpA&utm_campaign=yelp_api_v3&utm_medium=api_v3_business_search&utm_source=yhLoLzsNXKw40xZ5RCWPpA", "price": "$$", "distance": 89.88066098143355, "coordinates": {"latitude": 40.71887, "longitude": -73.98701}, "alias": "nurse-bettie-new-york", "image_url": "https://s3-media3.fl.yelpcdn.com/bphoto/_Rh30dKwGjoR35CC5lrEmg/o.jpg", "categories": [{"alias": "bars", "title": "Bars"}], "display_phone": "(212) 477-7515", "phone": "+12124777515", "id": "vGMBMYwPP0Ae1DOsRcTVHg", "is_closed": false, "location": {"city": "New York", "display_address": ["106 Norfolk St", "New York, NY 10002"], "country": "US", "address2": "", "address3": "", "state": "NY", "address1": "106 Norfolk St", "zip_code": "10002"}}, {"rating": 4.5, "review_count": 135, "name": "Sunita Bar", "transactions": [], "url": "https://www.yelp.com/biz/sunita-bar-new-york?adjust_creative=yhLoLzsNXKw40xZ5RCWPpA&utm_campaign=yelp_api_v3&utm_medium=api_v3_business_search&utm_source=yhLoLzsNXKw40xZ5RCWPpA", "price": "$$", "distance": 91.33807057032959, "coordinates": {"latitude": 40.7188938, "longitude": -73.9870096}, "alias": "sunita-bar-new-york", "image_url": "https://s3-media2.fl.yelpcdn.com/bphoto/pvKuyUzl5Wo5mT2tuN_OFw/o.jpg", "categories": [{"alias": "bars", "title": "Bars"}], "display_phone": "(212) 253-8860", "phone": "+12122538860", "id": "gaPvARbMRDrJtbiLUjsKVQ", "is_closed": false, "location": {"city": "New York", "display_address": ["106 Norfolk St", "New York, NY 10002"], "country": "US", "address2": null, "address3": "", "state": "NY", "address1": "106 Norfolk St", "zip_code": "10002"}}, {"rating": 4.0, "review_count": 59, "name": "Davelle", "transactions": [], "url": "https://www.yelp.com/biz/davelle-new-york-2?adjust_creative=yhLoLzsNXKw40xZ5RCWPpA&utm_campaign=yelp_api_v3&utm_medium=api_v3_business_search&utm_source=yhLoLzsNXKw40xZ5RCWPpA", "price": "$$", "distance": 91.8934259444137, "coordinates": {"latitude": 40.71852, "longitude": -73.98605}, "alias": "davelle-new-york-2", "image_url": "https://s3-media3.fl.yelpcdn.com/bphoto/MOPVj-f0GjhCboacaQGgDA/o.jpg", "categories": [{"alias": "japanese", "title": "Japanese"}, {"alias": "bars", "title": "Bars"}, {"alias": "cafes", "title": "Cafes"}], "display_phone": "", "phone": "", "id": "PwrYnl3j3YCGzILX_5UHpw", "is_closed": false, "location": {"city": "New York", "display_address": ["102 Suffolk St", "New York, NY 10002"], "country": "US", "address2": "", "address3": null, "state": "NY", "address1": "102 Suffolk St", "zip_code": "10002"}}, {"rating": 3.5, "review_count": 811, "name": "The Back Room", "transactions": [], "url": "https://www.yelp.com/biz/the-back-room-new-york?adjust_creative=yhLoLzsNXKw40xZ5RCWPpA&utm_campaign=yelp_api_v3&utm_medium=api_v3_business_search&utm_source=yhLoLzsNXKw40xZ5RCWPpA", "price": "$$", "distance": 98.46626047951297, "coordinates": {"latitude": 40.71873, "longitude": -73.98691}, "alias": "the-back-room-new-york", "image_url": "https://s3-media4.fl.yelpcdn.com/bphoto/gj3wyaQz4hnDCmXse6BsIw/o.jpg", "categories": [{"alias": "lounges", "title": "Lounges"}, {"alias": "speakeasies", "title": "Speakeasies"}], "display_phone": "(212) 228-5098", "phone": "+12122285098", "id": "neHrnNsYPpRZqdXiemV-sg", "is_closed": false, "location": {"city": "New York", "display_address": ["102 Norfolk St", "New York, NY 10002"], "country": "US", "address2": null, "address3": "", "state": "NY", "address1": "102 Norfolk St", "zip_code": "10002"}}, {"rating": 4.5, "review_count": 642, "name": "La Contenta", "transactions": [], "url": "https://www.yelp.com/biz/la-contenta-new-york?adjust_creative=yhLoLzsNXKw40xZ5RCWPpA&utm_campaign=yelp_api_v3&utm_medium=api_v3_business_search&utm_source=yhLoLzsNXKw40xZ5RCWPpA", "price": "$$", "distance": 98.46626047951297, "coordinates": {"latitude": 40.71873, "longitude": -73.98691}, "alias": "la-contenta-new-york", "image_url": "https://s3-media2.fl.yelpcdn.com/bphoto/FwZAyPgdKdPGQ8aAGKh3-w/o.jpg", "categories": [{"alias": "mexican", "title": "Mexican"}, {"alias": "bars", "title": "Bars"}, {"alias": "breakfast_brunch", "title": "Breakfast & Brunch"}], "display_phone": "(212) 432-4180", "phone": "+12124324180", "id": "6Ct7OeTRn4caY9g0swFBsw", "is_closed": false, "location": {"city": "New York", "display_address": ["102 Norfolk St", "New York, NY 10002"], "country": "US", "address2": "", "address3": "", "state": "NY", "address1": "102 Norfolk St", "zip_code": "10002"}}, {"rating": 3.0, "review_count": 497, "name": "La Caverna", "transactions": [], "url": "https://www.yelp.com/biz/la-caverna-new-york?adjust_creative=yhLoLzsNXKw40xZ5RCWPpA&utm_campaign=yelp_api_v3&utm_medium=api_v3_business_search&utm_source=yhLoLzsNXKw40xZ5RCWPpA", "price": "$$", "distance": 99.4357834906353, "coordinates": {"latitude": 40.7198, "longitude": -73.98714}, "alias": "la-caverna-new-york", "image_url": "https://s3-media2.fl.yelpcdn.com/bphoto/J5CV_ubm4YAuRZxXEO-7cw/o.jpg", "categories": [{"alias": "newamerican", "title": "American (New)"}, {"alias": "lounges", "title": "Lounges"}, {"alias": "tapas", "title": "Tapas Bars"}], "display_phone": "(212) 475-2126", "phone": "+12124752126", "id": "mqzRBbxys-OCzXK5QCG33Q", "is_closed": false, "location": {"city": "New York", "display_address": ["122 Rivington St", "New York, NY 10002"], "country": "US", "address2": "", "address3": "", "state": "NY", "address1": "122 Rivington St", "zip_code": "10002"}}, {"rating": 3.5, "review_count": 328, "name": "Welcome to the Johnson's", "transactions": [], "url": "https://www.yelp.com/biz/welcome-to-the-johnsons-new-york?adjust_creative=yhLoLzsNXKw40xZ5RCWPpA&utm_campaign=yelp_api_v3&utm_medium=api_v3_business_search&utm_source=yhLoLzsNXKw40xZ5RCWPpA", "price": "$", "distance": 100.29394054737654, "coordinates": {"latitude": 40.71967, "longitude": -73.9873}, "alias": "welcome-to-the-johnsons-new-york", "image_url": "https://s3-media2.fl.yelpcdn.com/bphoto/gmrEvtP9qhq5_rSo7BKq5A/o.jpg", "categories": [{"alias": "divebars", "title": "Dive Bars"}, {"alias": "lounges", "title": "Lounges"}], "display_phone": "", "phone": "", "id": "vLphuclD-vQCHG97oftAcA", "is_closed": false, "location": {"city": "New York", "display_address": ["123 Rivington St", "New York, NY 10002"], "country": "US", "address2": "", "address3": "", "state": "NY", "address1": "123 Rivington St", "zip_code": "10002"}}, {"rating": 4.0, "review_count": 107, "name": "Azasu", "transactions": ["delivery", "pickup"], "url": "https://www.yelp.com/biz/azasu-new-york?adjust_creative=yhLoLzsNXKw40xZ5RCWPpA&utm_campaign=yelp_api_v3&utm_medium=api_v3_business_search&utm_source=yhLoLzsNXKw40xZ5RCWPpA", "price": "$$", "distance": 103.29036155919319, "coordinates": {"latitude": 40.719758, "longitude": -73.985011}, "alias": "azasu-new-york", "image_url": "https://s3-media3.fl.yelpcdn.com/bphoto/_A4zSBh2_zi8bnmD8_Ro7Q/o.jpg", "categories": [{"alias": "bars", "title": "Bars"}, {"alias": "izakaya", "title": "Izakaya"}], "display_phone": "(212) 777-7069", "phone": "+12127777069", "id": "AnrLdpW6G-tXQ7xhBYiA5g", "is_closed": false, "location": {"city": "New York", "display_address": ["49 Clinton St", "New York, NY 10002"], "country": "US", "address2": "", "address3": "", "state": "NY", "address1": "49 Clinton St", "zip_code": "10002"}}, {"rating": 4.0, "review_count": 142, "name": "Black Crescent", "transactions": [], "url": "https://www.yelp.com/biz/black-crescent-new-york?adjust_creative=yhLoLzsNXKw40xZ5RCWPpA&utm_campaign=yelp_api_v3&utm_medium=api_v3_business_search&utm_source=yhLoLzsNXKw40xZ5RCWPpA", "price": "$$", "distance": 103.4561369015346, "coordinates": {"latitude": 40.7189335809837, "longitude": -73.985032499371}, "alias": "black-crescent-new-york", "image_url": "https://s3-media2.fl.yelpcdn.com/bphoto/FD9EGd_i1VTquAA6BUlj1A/o.jpg", "categories": [{"alias": "cocktailbars", "title": "Cocktail Bars"}, {"alias": "seafood", "title": "Seafood"}], "display_phone": "(212) 477-1771", "phone": "+12124771771", "id": "oB4nOEmkpgJ7Z3JZC0qqBw", "is_closed": false, "location": {"city": "New York", "display_address": ["76 Clinton St", "New York, NY 10002"], "country": "US", "address2": "", "address3": "", "state": "NY", "address1": "76 Clinton St", "zip_code": "10002"}}, {"rating": 3.5, "review_count": 1822, "name": "Essex", "transactions": ["pickup"], "url": "https://www.yelp.com/biz/essex-new-york?adjust_creative=yhLoLzsNXKw40xZ5RCWPpA&utm_campaign=yelp_api_v3&utm_medium=api_v3_business_search&utm_source=yhLoLzsNXKw40xZ5RCWPpA", "price": "$$", "distance": 113.86232016126866, "coordinates": {"latitude": 40.7196975497428, "longitude": -73.9873982202378}, "alias": "essex-new-york", "image_url": "https://s3-media3.fl.yelpcdn.com/bphoto/TX4d3GvycGbPk1Kq080BGw/o.jpg", "categories": [{"alias": "bars", "title": "Bars"}, {"alias": "newamerican", "title": "American (New)"}], "display_phone": "(212) 533-9616", "phone": "+12125339616", "id": "hRZyaQ80R9s9ztEBDJqiuw", "is_closed": false, "location": {"city": "New York", "display_address": ["119 Rivington St", "New York, NY 10002"], "country": "US", "address2": "", "address3": "", "state": "NY", "address1": "119 Rivington St", "zip_code": "10002"}}, {"rating": 3.5, "review_count": 164, "name": "The Magician", "transactions": [], "url": "https://www.yelp.com/biz/the-magician-new-york?adjust_creative=yhLoLzsNXKw40xZ5RCWPpA&utm_campaign=yelp_api_v3&utm_medium=api_v3_business_search&utm_source=yhLoLzsNXKw40xZ5RCWPpA", "price": "$", "distance": 115.59268490798442, "coordinates": {"latitude": 40.71993, "longitude": -73.98726}, "alias": "the-magician-new-york", "image_url": "https://s3-media4.fl.yelpcdn.com/bphoto/d7YwEHaSYuZKEBRWtVaL7Q/o.jpg", "categories": [{"alias": "bars", "title": "Bars"}], "display_phone": "(212) 673-7851", "phone": "+12126737851", "id": "sAHHolV823rtvXdH0Fd3zg", "is_closed": false, "location": {"city": "New York", "display_address": ["118 Rivington St", "New York, NY 10002"], "country": "US", "address2": "", "address3": "", "state": "NY", "address1": "118 Rivington St", "zip_code": "10002"}}, {"rating": 4.5, "review_count": 9, "name": "Windmill", "transactions": [], "url": "https://www.yelp.com/biz/windmill-new-york?adjust_creative=yhLoLzsNXKw40xZ5RCWPpA&utm_campaign=yelp_api_v3&utm_medium=api_v3_business_search&utm_source=yhLoLzsNXKw40xZ5RCWPpA", "distance": 123.97044800019121, "coordinates": {"latitude": 40.71996, "longitude": -73.9849}, "alias": "windmill-new-york", "image_url": "https://s3-media4.fl.yelpcdn.com/bphoto/lRYHP5UDiLnpSbo6HY7JWA/o.jpg", "categories": [{"alias": "cocktailbars", "title": "Cocktail Bars"}, {"alias": "french", "title": "French"}], "display_phone": "", "phone": "", "id": "LyQbiCA-3mXqR6WhO-3s8A", "is_closed": false, "location": {"city": "New York", "display_address": ["43 Clinton St", "New York, NY 10002"], "country": "US", "address2": "", "address3": null, "state": "NY", "address1": "43 Clinton St", "zip_code": "10002"}}, {"rating": 5.0, "review_count": 8, "name": "Bar Alaska", "transactions": [], "url": "https://www.yelp.com/biz/bar-alaska-new-york?adjust_creative=yhLoLzsNXKw40xZ5RCWPpA&utm_campaign=yelp_api_v3&utm_medium=api_v3_business_search&utm_source=yhLoLzsNXKw40xZ5RCWPpA", "price": "$$", "distance": 142.83990134763704, "coordinates": {"latitude": 40.71899, "longitude": -73.9844899}, "alias": "bar-alaska-new-york", "image_url": "https://s3-media2.fl.yelpcdn.com/bphoto/XcFlblvOVI_zHW6dBTZcww/o.jpg", "categories": [{"alias": "cocktailbars", "title": "Cocktail Bars"}], "display_phone": "(646) 649-5545", "phone": "+16466495545", "id": "jve0o4_2_YIOPiVjKvXqTw", "is_closed": false, "location": {"city": "New York", "display_address": ["174 Rivington St", "New York, NY 10002"], "country": "US", "address2": null, "address3": "", "state": "NY", "address1": "174 Rivington St", "zip_code": "10002"}}, {"rating": 4.0, "review_count": 284, "name": "The Whiskey Ward", "transactions": [], "url": "https://www.yelp.com/biz/the-whiskey-ward-new-york?adjust_creative=yhLoLzsNXKw40xZ5RCWPpA&utm_campaign=yelp_api_v3&utm_medium=api_v3_business_search&utm_source=yhLoLzsNXKw40xZ5RCWPpA", "price": "$$", "distance": 151.61288686388502, "coordinates": {"latitude": 40.71966, "longitude": -73.98791}, "alias": "the-whiskey-ward-new-york", "image_url": "https://s3-media2.fl.yelpcdn.com/bphoto/IHbjfqes0koZc6U9odi-Nw/o.jpg", "categories": [{"alias": "whiskeybars", "title": "Whiskey Bars"}], "display_phone": "(212) 477-2998", "phone": "+12124772998", "id": "AuPyUM8XQAtSbiSsCT4x_A", "is_closed": false, "location": {"city": "New York", "display_address": ["121 Essex St", "New York, NY 10002"], "country": "US", "address2": "", "address3": "", "state": "NY", "address1": "121 Essex St", "zip_code": "10002"}}, {"rating": 4.5, "review_count": 136, "name": "Char Sue", "transactions": ["delivery", "pickup"], "url": "https://www.yelp.com/biz/char-sue-new-york?adjust_creative=yhLoLzsNXKw40xZ5RCWPpA&utm_campaign=yelp_api_v3&utm_medium=api_v3_business_search&utm_source=yhLoLzsNXKw40xZ5RCWPpA", "price": "$$", "distance": 153.4865052610984, "coordinates": {"latitude": 40.7196000924977, "longitude": -73.9879152551293}, "alias": "char-sue-new-york", "image_url": "https://s3-media2.fl.yelpcdn.com/bphoto/bTZi5FP0b6MDBqo6FgNi6g/o.jpg", "categories": [{"alias": "asianfusion", "title": "Asian Fusion"}, {"alias": "beerbar", "title": "Beer Bar"}], "display_phone": "(646) 484-9241", "phone": "+16464849241", "id": "-T_5QJwgPMxfXTeOmpImsA", "is_closed": false, "location": {"city": "New York", "display_address": ["119 Essex St", "New York, NY 10002"], "country": "US", "address2": "", "address3": null, "state": "NY", "address1": "119 Essex St", "zip_code": "10002"}}, {"rating": 3.5, "review_count": 152, "name": "Donnybrook", "transactions": [], "url": "https://www.yelp.com/biz/donnybrook-new-york?adjust_creative=yhLoLzsNXKw40xZ5RCWPpA&utm_campaign=yelp_api_v3&utm_medium=api_v3_business_search&utm_source=yhLoLzsNXKw40xZ5RCWPpA", "price": "$$", "distance": 156.0824799645022, "coordinates": {"latitude": 40.7201891322304, "longitude": -73.9846226613423}, "alias": "donnybrook-new-york", "image_url": "https://s3-media2.fl.yelpcdn.com/bphoto/hiZC6fVO5qYKsgxQQmvOyQ/o.jpg", "categories": [{"alias": "bars", "title": "Bars"}], "display_phone": "(212) 228-7733", "phone": "+12122287733", "id": "RzJQl1yBIRd_uRq0jHlP8Q", "is_closed": false, "location": {"city": "New York", "display_address": ["35 Clinton St", "New York, NY 10002"], "country": "US", "address2": "", "address3": null, "state": "NY", "address1": "35 Clinton St", "zip_code": "10002"}}, {"rating": 1.0, "review_count": 1, "name": "Boss Tweed's", "transactions": [], "url": "https://www.yelp.com/biz/boss-tweeds-new-york-3?adjust_creative=yhLoLzsNXKw40xZ5RCWPpA&utm_campaign=yelp_api_v3&utm_medium=api_v3_business_search&utm_source=yhLoLzsNXKw40xZ5RCWPpA", "distance": 160.95824793983408, "coordinates": {"latitude": 40.7195319911068, "longitude": -73.9880178496242}, "alias": "boss-tweeds-new-york-3", "image_url": "https://s3-media4.fl.yelpcdn.com/bphoto/gAgm2UvPiiNGUrelyuumjw/o.jpg", "categories": [{"alias": "lounges", "title": "Lounges"}], "display_phone": "(212) 475-9997", "phone": "+12124759997", "id": "CM_FxpXFWB06PquGm6nvrA", "is_closed": false, "location": {"city": "New York", "display_address": ["115 Essex St", "New York, NY 10002"], "country": "US", "address2": "", "address3": null, "state": "NY", "address1": "115 Essex St", "zip_code": "10002"}}, {"rating": 4.0, "review_count": 1345, "name": "Verlaine", "transactions": ["delivery", "pickup", "restaurant_reservation"], "url": "https://www.yelp.com/biz/verlaine-new-york-2?adjust_creative=yhLoLzsNXKw40xZ5RCWPpA&utm_campaign=yelp_api_v3&utm_medium=api_v3_business_search&utm_source=yhLoLzsNXKw40xZ5RCWPpA", "price": "$$", "distance": 161.21711378486006, "coordinates": {"latitude": 40.720079, "longitude": -73.987785}, "alias": "verlaine-new-york-2", "image_url": "https://s3-media4.fl.yelpcdn.com/bphoto/y4vNwC8bXt8kwEDyQgSlzw/o.jpg", "categories": [{"alias": "tapasmallplates", "title": "Tapas/Small Plates"}, {"alias": "lounges", "title": "Lounges"}, {"alias": "cocktailbars", "title": "Cocktail Bars"}], "display_phone": "(212) 614-2494", "phone": "+12126142494", "id": "XghOzJn16M-nvaKMOdC5og", "is_closed": false, "location": {"city": "New York", "display_address": ["110 Rivington St", "New York, NY 10002"], "country": "US", "address2": "", "address3": "", "state": "NY", "address1": "110 Rivington St", "zip_code": "10002"}}, {"rating": 3.0, "review_count": 53, "name": "Mazaar Lounge", "transactions": ["delivery", "pickup"], "url": "https://www.yelp.com/biz/mazaar-lounge-new-york?adjust_creative=yhLoLzsNXKw40xZ5RCWPpA&utm_campaign=yelp_api_v3&utm_medium=api_v3_business_search&utm_source=yhLoLzsNXKw40xZ5RCWPpA", "price": "$$", "distance": 165.9861996881957, "coordinates": {"latitude": 40.72033, "longitude": -73.98761}, "alias": "mazaar-lounge-new-york", "image_url": "https://s3-media4.fl.yelpcdn.com/bphoto/l5yRYP18pqQQl2ierW1yhA/o.jpg", "categories": [{"alias": "lounges", "title": "Lounges"}], "display_phone": "(212) 254-4440", "phone": "+12122544440", "id": "jaI-v4TJYW9Sm4k0h2vm5Q", "is_closed": false, "location": {"city": "New York", "display_address": ["137 Essex St", "New York, NY 10002"], "country": "US", "address2": null, "address3": "", "state": "NY", "address1": "137 Essex St", "zip_code": "10002"}}, {"rating": 4.0, "review_count": 231, "name": "Two-Bit's Retro Arcade", "transactions": [], "url": "https://www.yelp.com/biz/two-bits-retro-arcade-new-york?adjust_creative=yhLoLzsNXKw40xZ5RCWPpA&utm_campaign=yelp_api_v3&utm_medium=api_v3_business_search&utm_source=yhLoLzsNXKw40xZ5RCWPpA", "price": "$", "distance": 168.60694528163617, "coordinates": {"latitude": 40.7206434531628, "longitude": -73.9871944404755}, "alias": "two-bits-retro-arcade-new-york", "image_url": "https://s3-media2.fl.yelpcdn.com/bphoto/B4-a_cEsk21gvj9iHTsmCA/o.jpg", "categories": [{"alias": "arcades", "title": "Arcades"}, {"alias": "divebars", "title": "Dive Bars"}], "display_phone": "(212) 477-8161", "phone": "+12124778161", "id": "arEOjcGWE2GhIMAXywtiew", "is_closed": false, "location": {"city": "New York", "display_address": ["153 Essex St", "New York, NY 10002"], "country": "US", "address2": "", "address3": "", "state": "NY", "address1": "153 Essex St", "zip_code": "10002"}}, {"rating": 1.5, "review_count": 11, "name": "J I A", "transactions": [], "url": "https://www.yelp.com/biz/j-i-a-new-york?adjust_creative=yhLoLzsNXKw40xZ5RCWPpA&utm_campaign=yelp_api_v3&utm_medium=api_v3_business_search&utm_source=yhLoLzsNXKw40xZ5RCWPpA", "price": "$$", "distance": 168.67797712602575, "coordinates": {"latitude": 40.7197913049117, "longitude": -73.9880412963844}, "alias": "j-i-a-new-york", "image_url": "https://s3-media1.fl.yelpcdn.com/bphoto/Ex53SBaT3YIk4I3bd7AD2g/o.jpg", "categories": [{"alias": "cocktailbars", "title": "Cocktail Bars"}, {"alias": "lounges", "title": "Lounges"}], "display_phone": "(646) 882-0021", "phone": "+16468820021", "id": "oEKwNY91NifS_QekSe40ig", "is_closed": false, "location": {"city": "New York", "display_address": ["105 Rivington St", "New York, NY 10002"], "country": "US", "address2": null, "address3": null, "state": "NY", "address1": "105 Rivington St", "zip_code": "10002"}}, {"rating": 3.0, "review_count": 529, "name": "The Delancey", "transactions": [], "url": "https://www.yelp.com/biz/the-delancey-new-york?adjust_creative=yhLoLzsNXKw40xZ5RCWPpA&utm_campaign=yelp_api_v3&utm_medium=api_v3_business_search&utm_source=yhLoLzsNXKw40xZ5RCWPpA", "price": "$$", "distance": 168.95610746753317, "coordinates": {"latitude": 40.71791, "longitude": -73.9853399}, "alias": "the-delancey-new-york", "image_url": "https://s3-media4.fl.yelpcdn.com/bphoto/vwuUrsZJlCQXHG7uv1FrnA/o.jpg", "categories": [{"alias": "lounges", "title": "Lounges"}, {"alias": "danceclubs", "title": "Dance Clubs"}], "display_phone": "(212) 254-9920", "phone": "+12122549920", "id": "a3O2KzK6rh8VZNq1jhz81Q", "is_closed": false, "location": {"city": "New York", "display_address": ["168 Delancey St", "New York, NY 10002"], "country": "US", "address2": "", "address3": "", "state": "NY", "address1": "168 Delancey St", "zip_code": "10002"}}, {"rating": 2.5, "review_count": 26, "name": "CV", "transactions": [], "url": "https://www.yelp.com/biz/cv-new-york?adjust_creative=yhLoLzsNXKw40xZ5RCWPpA&utm_campaign=yelp_api_v3&utm_medium=api_v3_business_search&utm_source=yhLoLzsNXKw40xZ5RCWPpA", "price": "$$$", "distance": 173.69225665029782, "coordinates": {"latitude": 40.71982, "longitude": -73.98821}, "alias": "cv-new-york", "image_url": "https://s3-media2.fl.yelpcdn.com/bphoto/znlEu7lMqcrASOt8lANkzg/o.jpg", "categories": [{"alias": "lounges", "title": "Lounges"}], "display_phone": "(646) 202-9458", "phone": "+16462029458", "id": "H_4w5VM_DKEwsGs0SCNtpw", "is_closed": false, "location": {"city": "New York", "display_address": ["105 Rivington St", "Hotel Rivington", "New York, NY 10002"], "country": "US", "address2": "", "address3": "Hotel Rivington", "state": "NY", "address1": "105 Rivington St", "zip_code": "10002"}}, {"rating": 4.0, "review_count": 1034, "name": "Sons of Essex", "transactions": ["delivery", "pickup"], "url": "https://www.yelp.com/biz/sons-of-essex-new-york?adjust_creative=yhLoLzsNXKw40xZ5RCWPpA&utm_campaign=yelp_api_v3&utm_medium=api_v3_business_search&utm_source=yhLoLzsNXKw40xZ5RCWPpA", "price": "$$", "distance": 174.90987314175533, "coordinates": {"latitude": 40.720315, "longitude": -73.987774}, "alias": "sons-of-essex-new-york", "image_url": "https://s3-media4.fl.yelpcdn.com/bphoto/Q9PINdL3odzZLVoVqsabKA/o.jpg", "categories": [{"alias": "newamerican", "title": "American (New)"}, {"alias": "bars", "title": "Bars"}, {"alias": "breakfast_brunch", "title": "Breakfast & Brunch"}], "display_phone": "(212) 674-7100", "phone": "+12126747100", "id": "oopgHvduXbtgwNRmybEhgQ", "is_closed": false, "location": {"city": "New York", "display_address": ["133 Essex St", "New York, NY 10002"], "country": "US", "address2": "", "address3": "", "state": "NY", "address1": "133 Essex St", "zip_code": "10002"}}, {"rating": 4.0, "review_count": 2, "name": "Tico's Tequila Bar", "transactions": [], "url": "https://www.yelp.com/biz/ticos-tequila-bar-new-york?adjust_creative=yhLoLzsNXKw40xZ5RCWPpA&utm_campaign=yelp_api_v3&utm_medium=api_v3_business_search&utm_source=yhLoLzsNXKw40xZ5RCWPpA", "price": "$$$", "distance": 187.67349069297273, "coordinates": {"latitude": 40.7207565, "longitude": -73.9872284}, "alias": "ticos-tequila-bar-new-york", "image_url": "https://s3-media1.fl.yelpcdn.com/bphoto/7rYBX02RaKgA6f5hSjp1eA/o.jpg", "categories": [{"alias": "cocktailbars", "title": "Cocktail Bars"}], "display_phone": "(212) 219-2000", "phone": "+12122192000", "id": "dCUGRMLTI3Jc52aSw1aWFw", "is_closed": false, "location": {"city": "New York", "display_address": ["151 Essex St", "Underneath Tijuana Picnic", "New York, NY 10002"], "country": "US", "address2": "", "address3": "Underneath Tijuana Picnic", "state": "NY", "address1": "151 Essex St", "zip_code": "10002"}}, {"rating": 3.0, "review_count": 263, "name": "Tijuana Picnic", "transactions": ["delivery", "pickup"], "url": "https://www.yelp.com/biz/tijuana-picnic-new-york-2?adjust_creative=yhLoLzsNXKw40xZ5RCWPpA&utm_campaign=yelp_api_v3&utm_medium=api_v3_business_search&utm_source=yhLoLzsNXKw40xZ5RCWPpA", "price": "$$$", "distance": 187.67349069297273, "coordinates": {"latitude": 40.7207634, "longitude": -73.9873657}, "alias": "tijuana-picnic-new-york-2", "image_url": "https://s3-media1.fl.yelpcdn.com/bphoto/P4Dn5jRnmL8QFRuo2BUmGg/o.jpg", "categories": [{"alias": "mexican", "title": "Mexican"}, {"alias": "bars", "title": "Bars"}], "display_phone": "(212) 219-2000", "phone": "+12122192000", "id": "rPTtQ-FO_F9tMJDl3m50Bg", "is_closed": false, "location": {"city": "New York", "display_address": ["151 Essex St", "New York, NY 10002"], "country": "US", "address2": "", "address3": "", "state": "NY", "address1": "151 Essex St", "zip_code": "10002"}}, {"rating": 4.0, "review_count": 24, "name": "GR\u00dcNHAUS", "transactions": [], "url": "https://www.yelp.com/biz/gr%C3%BCnhaus-new-york-2?adjust_creative=yhLoLzsNXKw40xZ5RCWPpA&utm_campaign=yelp_api_v3&utm_medium=api_v3_business_search&utm_source=yhLoLzsNXKw40xZ5RCWPpA", "price": "$$", "distance": 192.1406033167782, "coordinates": {"latitude": 40.71997, "longitude": -73.98824}, "alias": "gr\u00fcnhaus-new-york-2", "image_url": "https://s3-media2.fl.yelpcdn.com/bphoto/gtY7Apdl_OTpMPvgk0raFQ/o.jpg", "categories": [{"alias": "german", "title": "German"}, {"alias": "beerbar", "title": "Beer Bar"}], "display_phone": "(212) 228-0027", "phone": "+12122280027", "id": "fD1-78xja9LaJN-Q1AgKKw", "is_closed": false, "location": {"city": "New York", "display_address": ["101 Rivington St", "New York, NY 10002"], "country": "US", "address2": "", "address3": null, "state": "NY", "address1": "101 Rivington St", "zip_code": "10002"}}, {"rating": 3.5, "review_count": 184, "name": "Iggy's Keltic Lounge", "transactions": [], "url": "https://www.yelp.com/biz/iggys-keltic-lounge-new-york?adjust_creative=yhLoLzsNXKw40xZ5RCWPpA&utm_campaign=yelp_api_v3&utm_medium=api_v3_business_search&utm_source=yhLoLzsNXKw40xZ5RCWPpA", "price": "$", "distance": 192.81861530528525, "coordinates": {"latitude": 40.7202, "longitude": -73.98819}, "alias": "iggys-keltic-lounge-new-york", "image_url": "https://s3-media4.fl.yelpcdn.com/bphoto/Kt3ikiqSweL9WrEP51oTZA/o.jpg", "categories": [{"alias": "divebars", "title": "Dive Bars"}, {"alias": "pubs", "title": "Pubs"}], "display_phone": "(212) 529-2731", "phone": "+12125292731", "id": "rHN0xEZn3JZYcWZfrJNXZQ", "is_closed": false, "location": {"city": "New York", "display_address": ["132 Ludlow St", "at Rivington", "New York, NY 10002"], "country": "US", "address2": "", "address3": "at Rivington", "state": "NY", "address1": "132 Ludlow St", "zip_code": "10002"}}, {"rating": 4.0, "review_count": 240, "name": "Local 138", "transactions": [], "url": "https://www.yelp.com/biz/local-138-new-york?adjust_creative=yhLoLzsNXKw40xZ5RCWPpA&utm_campaign=yelp_api_v3&utm_medium=api_v3_business_search&utm_source=yhLoLzsNXKw40xZ5RCWPpA", "price": "$", "distance": 196.28417615029974, "coordinates": {"latitude": 40.7204, "longitude": -73.98793}, "alias": "local-138-new-york", "image_url": "https://s3-media2.fl.yelpcdn.com/bphoto/Q0EFiSixjeuORp3uF-yVPg/o.jpg", "categories": [{"alias": "bars", "title": "Bars"}], "display_phone": "(212) 477-0280", "phone": "+12124770280", "id": "EDFfoyXTsHPBW6mNWLVoig", "is_closed": false, "location": {"city": "New York", "display_address": ["138 Ludlow St", "New York, NY 10002"], "country": "US", "address2": "", "address3": "", "state": "NY", "address1": "138 Ludlow St", "zip_code": "10002"}}, {"rating": 4.0, "review_count": 13, "name": "Caveat", "transactions": [], "url": "https://www.yelp.com/biz/caveat-new-york?adjust_creative=yhLoLzsNXKw40xZ5RCWPpA&utm_campaign=yelp_api_v3&utm_medium=api_v3_business_search&utm_source=yhLoLzsNXKw40xZ5RCWPpA", "distance": 199.42694052811925, "coordinates": {"latitude": 40.7206833, "longitude": -73.984427}, "alias": "caveat-new-york", "image_url": "https://s3-media1.fl.yelpcdn.com/bphoto/4NsSB1EO1qedXygQtZ38OQ/o.jpg", "categories": [{"alias": "comedyclubs", "title": "Comedy Clubs"}, {"alias": "theater", "title": "Performing Arts"}, {"alias": "musicvenues", "title": "Music Venues"}], "display_phone": "(212) 228-2100", "phone": "+12122282100", "id": "xO2qfPmCAZgv_Sx5ypaK2w", "is_closed": false, "location": {"city": "New York", "display_address": ["21 A Clinton St", "Basement", "New York, NY 10002"], "country": "US", "address2": "Basement", "address3": null, "state": "NY", "address1": "21 A Clinton St", "zip_code": "10002"}}, {"rating": 4.0, "review_count": 279, "name": "Cocoa Bar", "transactions": [], "url": "https://www.yelp.com/biz/cocoa-bar-new-york?adjust_creative=yhLoLzsNXKw40xZ5RCWPpA&utm_campaign=yelp_api_v3&utm_medium=api_v3_business_search&utm_source=yhLoLzsNXKw40xZ5RCWPpA", "price": "$$", "distance": 211.98734598697553, "coordinates": {"latitude": 40.7207104, "longitude": -73.9843401}, "alias": "cocoa-bar-new-york", "image_url": "https://s3-media2.fl.yelpcdn.com/bphoto/8HuyC7DRPHfAILmujL3KxQ/o.jpg", "categories": [{"alias": "wine_bars", "title": "Wine Bars"}, {"alias": "coffee", "title": "Coffee & Tea"}, {"alias": "cocktailbars", "title": "Cocktail Bars"}], "display_phone": "(212) 677-7417", "phone": "+12126777417", "id": "zF0mtAyEqhS5zMvV8MMJiw", "is_closed": false, "location": {"city": "New York", "display_address": ["21 Clinton St", "New York, NY 10002"], "country": "US", "address2": "", "address3": "", "state": "NY", "address1": "21 Clinton St", "zip_code": "10002"}}, {"rating": 3.0, "review_count": 46, "name": "Kind Regards", "transactions": [], "url": "https://www.yelp.com/biz/kind-regards-new-york?adjust_creative=yhLoLzsNXKw40xZ5RCWPpA&utm_campaign=yelp_api_v3&utm_medium=api_v3_business_search&utm_source=yhLoLzsNXKw40xZ5RCWPpA", "price": "$$", "distance": 214.95076387773264, "coordinates": {"latitude": 40.72084, "longitude": -73.98785}, "alias": "kind-regards-new-york", "image_url": "https://s3-media1.fl.yelpcdn.com/bphoto/QGNHl13gPluhaokZGgXeEA/o.jpg", "categories": [{"alias": "cafes", "title": "Cafes"}, {"alias": "cocktailbars", "title": "Cocktail Bars"}, {"alias": "lounges", "title": "Lounges"}], "display_phone": "(212) 253-0036", "phone": "+12122530036", "id": "8t4gQ-jrbE004hna6Q3uzw", "is_closed": false, "location": {"city": "New York", "display_address": ["152 Ludlow St", "New York, NY 10002"], "country": "US", "address2": "", "address3": null, "state": "NY", "address1": "152 Ludlow St", "zip_code": "10002"}}, {"rating": 4.5, "review_count": 603, "name": "Rizzo's Fine Pizza", "transactions": ["delivery", "pickup", "restaurant_reservation"], "url": "https://www.yelp.com/biz/rizzos-fine-pizza-new-york-4?adjust_creative=yhLoLzsNXKw40xZ5RCWPpA&utm_campaign=yelp_api_v3&utm_medium=api_v3_business_search&utm_source=yhLoLzsNXKw40xZ5RCWPpA", "price": "$$", "distance": 216.9445614072871, "coordinates": {"latitude": 40.720852, "longitude": -73.984456}, "alias": "rizzos-fine-pizza-new-york-4", "image_url": "https://s3-media3.fl.yelpcdn.com/bphoto/r4OPoXMhNig7p94wdW9yOA/o.jpg", "categories": [{"alias": "pizza", "title": "Pizza"}, {"alias": "wine_bars", "title": "Wine Bars"}, {"alias": "beerbar", "title": "Beer Bar"}], "display_phone": "(646) 454-1262", "phone": "+16464541262", "id": "nUpA3sY5b6dynC7aj0eV6A", "is_closed": false, "location": {"city": "New York", "display_address": ["17 Clinton St", "New York, NY 10002"], "country": "US", "address2": "", "address3": "", "state": "NY", "address1": "17 Clinton St", "zip_code": "10002"}}, {"rating": 3.5, "review_count": 67, "name": "Serafina", "transactions": ["delivery", "pickup"], "url": "https://www.yelp.com/biz/serafina-new-york-10?adjust_creative=yhLoLzsNXKw40xZ5RCWPpA&utm_campaign=yelp_api_v3&utm_medium=api_v3_business_search&utm_source=yhLoLzsNXKw40xZ5RCWPpA", "price": "$$", "distance": 221.2299417124794, "coordinates": {"latitude": 40.720205886879, "longitude": -73.9884993061423}, "alias": "serafina-new-york-10", "image_url": "https://s3-media2.fl.yelpcdn.com/bphoto/p9HQ3r_1zYJZ6ySLDpI7dg/o.jpg", "categories": [{"alias": "italian", "title": "Italian"}, {"alias": "pizza", "title": "Pizza"}, {"alias": "cocktailbars", "title": "Cocktail Bars"}], "display_phone": "(212) 358-9800", "phone": "+12123589800", "id": "bmcIFCtXLzkQIgLmDVXs3A", "is_closed": false, "location": {"city": "New York", "display_address": ["98 Rivington St", "New York, NY 10002"], "country": "US", "address2": "", "address3": null, "state": "NY", "address1": "98 Rivington St", "zip_code": "10002"}}, {"rating": 4.5, "review_count": 39, "name": "Izakaya Juraku", "transactions": ["delivery", "pickup", "restaurant_reservation"], "url": "https://www.yelp.com/biz/izakaya-juraku-new-york-2?adjust_creative=yhLoLzsNXKw40xZ5RCWPpA&utm_campaign=yelp_api_v3&utm_medium=api_v3_business_search&utm_source=yhLoLzsNXKw40xZ5RCWPpA", "price": "$$", "distance": 225.204248131172, "coordinates": {"latitude": 40.71967, "longitude": -73.98868}, "alias": "izakaya-juraku-new-york-2", "image_url": "https://s3-media3.fl.yelpcdn.com/bphoto/D-7ykiWun8SyAyR876JVOA/o.jpg", "categories": [{"alias": "beerbar", "title": "Beer Bar"}, {"alias": "izakaya", "title": "Izakaya"}, {"alias": "ramen", "title": "Ramen"}], "display_phone": "(212) 477-0100", "phone": "+12124770100", "id": "RYKGs45OjF-vlb2Ds2Jb_g", "is_closed": false, "location": {"city": "New York", "display_address": ["121 Ludlow St", "New York, NY 10002"], "country": "US", "address2": "", "address3": null, "state": "NY", "address1": "121 Ludlow St", "zip_code": "10002"}}, {"rating": 3.0, "review_count": 430, "name": "Libation", "transactions": [], "url": "https://www.yelp.com/biz/libation-new-york?adjust_creative=yhLoLzsNXKw40xZ5RCWPpA&utm_campaign=yelp_api_v3&utm_medium=api_v3_business_search&utm_source=yhLoLzsNXKw40xZ5RCWPpA", "price": "$$", "distance": 227.9138940105167, "coordinates": {"latitude": 40.72043, "longitude": -73.98844}, "alias": "libation-new-york", "image_url": "https://s3-media3.fl.yelpcdn.com/bphoto/BKALcF77XkAvtDTtoIhKWw/o.jpg", "categories": [{"alias": "newamerican", "title": "American (New)"}, {"alias": "danceclubs", "title": "Dance Clubs"}, {"alias": "lounges", "title": "Lounges"}], "display_phone": "(212) 529-2153", "phone": "+12125292153", "id": "dRrSB-1I5z9f4szxJ1Ol8Q", "is_closed": false, "location": {"city": "New York", "display_address": ["137 Ludlow St", "New York, NY 10002"], "country": "US", "address2": "", "address3": "", "state": "NY", "address1": "137 Ludlow St", "zip_code": "10002"}}, {"rating": 3.0, "review_count": 828, "name": "Pianos", "transactions": [], "url": "https://www.yelp.com/biz/pianos-new-york?adjust_creative=yhLoLzsNXKw40xZ5RCWPpA&utm_campaign=yelp_api_v3&utm_medium=api_v3_business_search&utm_source=yhLoLzsNXKw40xZ5RCWPpA", "price": "$$", "distance": 229.4702457817676, "coordinates": {"latitude": 40.72104, "longitude": -73.98775}, "alias": "pianos-new-york", "image_url": "https://s3-media1.fl.yelpcdn.com/bphoto/LgmKXn8uNx7xozqnJE_1QQ/o.jpg", "categories": [{"alias": "bars", "title": "Bars"}, {"alias": "musicvenues", "title": "Music Venues"}, {"alias": "tradamerican", "title": "American (Traditional)"}], "display_phone": "(212) 505-3733", "phone": "+12125053733", "id": "79vCbIPpegECCPrn3bNpiQ", "is_closed": false, "location": {"city": "New York", "display_address": ["158 Ludlow St", "New York, NY 10002"], "country": "US", "address2": "", "address3": "", "state": "NY", "address1": "158 Ludlow St", "zip_code": "10002"}}, {"rating": 3.5, "review_count": 362, "name": "Mehanata", "transactions": [], "url": "https://www.yelp.com/biz/mehanata-new-york?adjust_creative=yhLoLzsNXKw40xZ5RCWPpA&utm_campaign=yelp_api_v3&utm_medium=api_v3_business_search&utm_source=yhLoLzsNXKw40xZ5RCWPpA", "price": "$$", "distance": 235.7832969951036, "coordinates": {"latitude": 40.71949, "longitude": -73.98892}, "alias": "mehanata-new-york", "image_url": "https://s3-media2.fl.yelpcdn.com/bphoto/onEDRRdTYq7itQ8VzNYuOQ/o.jpg", "categories": [{"alias": "danceclubs", "title": "Dance Clubs"}, {"alias": "hookah_bars", "title": "Hookah Bars"}, {"alias": "bulgarian", "title": "Bulgarian"}], "display_phone": "(212) 625-0981", "phone": "+12126250981", "id": "PdCFnnSTjb7ZCt_cug-Eig", "is_closed": false, "location": {"city": "New York", "display_address": ["113 Ludlow St", "New York, NY 10002"], "country": "US", "address2": "", "address3": "", "state": "NY", "address1": "113 Ludlow St", "zip_code": "10002"}}, {"rating": 3.0, "review_count": 425, "name": "Los Feliz", "transactions": [], "url": "https://www.yelp.com/biz/los-feliz-new-york?adjust_creative=yhLoLzsNXKw40xZ5RCWPpA&utm_campaign=yelp_api_v3&utm_medium=api_v3_business_search&utm_source=yhLoLzsNXKw40xZ5RCWPpA", "price": "$$", "distance": 238.0901753814416, "coordinates": {"latitude": 40.71938, "longitude": -73.98882}, "alias": "los-feliz-new-york", "image_url": "https://s3-media1.fl.yelpcdn.com/bphoto/VGQUIQSaC6Z6EPbsFz5FwA/o.jpg", "categories": [{"alias": "mexican", "title": "Mexican"}, {"alias": "lounges", "title": "Lounges"}, {"alias": "danceclubs", "title": "Dance Clubs"}], "display_phone": "(212) 228-8383", "phone": "+12122288383", "id": "wtQHeGI3L04xCJ5jODsRlg", "is_closed": false, "location": {"city": "New York", "display_address": ["109 Ludlow St", "New York, NY 10002"], "country": "US", "address2": "", "address3": "", "state": "NY", "address1": "109 Ludlow St", "zip_code": "10002"}}, {"rating": 4.0, "review_count": 559, "name": "SakaMai", "transactions": [], "url": "https://www.yelp.com/biz/sakamai-new-york?adjust_creative=yhLoLzsNXKw40xZ5RCWPpA&utm_campaign=yelp_api_v3&utm_medium=api_v3_business_search&utm_source=yhLoLzsNXKw40xZ5RCWPpA", "price": "$$$", "distance": 245.40510722722152, "coordinates": {"latitude": 40.7209536656701, "longitude": -73.9881407239426}, "alias": "sakamai-new-york", "image_url": "https://s3-media3.fl.yelpcdn.com/bphoto/vD7NTJIZUtsfqqKpGGMbIQ/o.jpg", "categories": [{"alias": "japanese", "title": "Japanese"}, {"alias": "cocktailbars", "title": "Cocktail Bars"}, {"alias": "seafood", "title": "Seafood"}], "display_phone": "(646) 590-0684", "phone": "+16465900684", "id": "wcwftlB-61XG4ymGTR61aw", "is_closed": false, "location": {"city": "New York", "display_address": ["157 Ludlow St", "New York, NY 10002"], "country": "US", "address2": "", "address3": "", "state": "NY", "address1": "157 Ludlow St", "zip_code": "10002"}}, {"rating": 3.5, "review_count": 66, "name": "Boho Karaoke", "transactions": [], "url": "https://www.yelp.com/biz/boho-karaoke-new-york?adjust_creative=yhLoLzsNXKw40xZ5RCWPpA&utm_campaign=yelp_api_v3&utm_medium=api_v3_business_search&utm_source=yhLoLzsNXKw40xZ5RCWPpA", "price": "$$", "distance": 249.0615596147415, "coordinates": {"latitude": 40.72072, "longitude": -73.98864}, "alias": "boho-karaoke-new-york", "image_url": "https://s3-media1.fl.yelpcdn.com/bphoto/IyEnidtzS0NiKxeMz3c7tw/o.jpg", "categories": [{"alias": "karaoke", "title": "Karaoke"}, {"alias": "bars", "title": "Bars"}], "display_phone": "(212) 777-0102", "phone": "+12127770102", "id": "qW6QkQe6wt_Pog9hblxXPA", "is_closed": false, "location": {"city": "New York", "display_address": ["152 Orchard St", "New York, NY 10002"], "country": "US", "address2": "", "address3": "", "state": "NY", "address1": "152 Orchard St", "zip_code": "10002"}}, {"rating": 3.5, "review_count": 5, "name": "Cloak", "transactions": [], "url": "https://www.yelp.com/biz/cloak-new-york-3?adjust_creative=yhLoLzsNXKw40xZ5RCWPpA&utm_campaign=yelp_api_v3&utm_medium=api_v3_business_search&utm_source=yhLoLzsNXKw40xZ5RCWPpA", "price": "$$", "distance": 249.0615596147415, "coordinates": {"latitude": 40.720718, "longitude": -73.988639}, "alias": "cloak-new-york-3", "image_url": "https://s3-media4.fl.yelpcdn.com/bphoto/J_5_DC0HAovWETNJ52Mb8g/o.jpg", "categories": [{"alias": "lounges", "title": "Lounges"}], "display_phone": "(212) 673-3410", "phone": "+12126733410", "id": "t1x84qw1NFfGHltVk1QjUQ", "is_closed": false, "location": {"city": "New York", "display_address": ["152-A Orchard St", "New York, NY 10002"], "country": "US", "address2": "", "address3": "", "state": "NY", "address1": "152-A Orchard St", "zip_code": "10002"}}]}