{"region": {"center": {"latitude": 40.7171961843, "longitude": -74.0074196239}}, "total": 4000, "businesses": [{"rating": 4.0, "review_count": 510, "name": "Tiny's & the Bar Upstairs", "transactions": [], "url": "https://www.yelp.com/biz/tinys-and-the-bar-upstairs-new-york-2?adjust_creative=yhLoLzsNXKw40xZ5RCWPpA&utm_campaign=yelp_api_v3&utm_medium=api_v3_business_search&utm_source=yhLoLzsNXKw40xZ5RCWPpA", "price": "$$", "distance": 83.43983264995043, "coordinates": {"latitude": 40.716698, "longitude": -74.00816}, "alias": "tinys-and-the-bar-upstairs-new-york-2", "image_url": "https://s3-media3.fl.yelpcdn.com/bphoto/dgWztNWNPOofxlNJffcNtg/o.jpg", "categories": [{"alias": "bars", "title": "Bars"}, {"alias": "newamerican", "title": "American (New)"}], "display_phone": "(212) 374-1135", "phone": "+12123741135", "id": "BSv3awhABROYjjwlQaQ-Qw", "is_closed": false, "location": {"city": "New York", "display_address": ["135 W Broadway", "New York, NY 10013"], "country": "US", "address2": "", "address3": "", "state": "NY", "address1": "135 W Broadway", "zip_code": "10013"}}, {"rating": 3.5, "review_count": 212, "name": "Edward's", "transactions": ["delivery", "pickup", "restaurant_reservation"], "url": "https://www.yelp.com/biz/edwards-new-york?adjust_creative=yhLoLzsNXKw40xZ5RCWPpA&utm_campaign=yelp_api_v3&utm_medium=api_v3_business_search&utm_source=yhLoLzsNXKw40xZ5RCWPpA", "price": "$$", "distance": 83.50498271244064, "coordinates": {"latitude": 40.716972, "longitude": -74.008369}, "alias": "edwards-new-york", "image_url": "https://s3-media3.fl.yelpcdn.com/bphoto/eIBJUBrA9a_cGXSukLveuQ/o.jpg", "categories": [{"alias": "newamerican", "title": "American (New)"}, {"alias": "bars", "title": "Bars"}], "display_phone": "(212) 233-6436", "phone": "+12122336436", "id": "Rq7B5m9nYiRRRHa8CvPDTg", "is_closed": false, "location": {"city": "New York", "display_address": ["136 W Broadway", "New York, NY 10013"], "country": "US", "address2": "", "address3": "", "state": "NY", "address1": "136 W Broadway", "zip_code": "10013"}}, {"rating": 3.5, "review_count": 150, "name": "Weather Up", "transactions": [], "url": "https://www.yelp.com/biz/weather-up-new-york?adjust_creative=yhLoLzsNXKw40xZ5RCWPpA&utm_campaign=yelp_api_v3&utm_medium=api_v3_business_search&utm_source=yhLoLzsNXKw40xZ5RCWPpA", "price": "$$$", "distance": 118.7438803292877, "coordinates": {"latitude": 40.7168599, "longitude": -74.00872}, "alias": "weather-up-new-york", "image_url": "https://s3-media2.fl.yelpcdn.com/bphoto/LivHUpr-MR0obbxpe_I42g/o.jpg", "categories": [{"alias": "bars", "title": "Bars"}], "display_phone": "(212) 766-3202", "phone": "+12127663202", "id": "wE7xOQGyTlbtKlWLQlaXhA", "is_closed": false, "location": {"city": "New York", "display_address": ["159 Duane St", "New York, NY 10013"], "country": "US", "address2": "", "address3": "", "state": "NY", "address1": "159 Duane St", "zip_code": "10013"}}, {"rating": 3.0, "review_count": 18, "name": "A Summer Day Caf\u00e9", "transactions": [], "url": "https://www.yelp.com/biz/a-summer-day-caf%C3%A9-new-york-4?adjust_creative=yhLoLzsNXKw40xZ5RCWPpA&utm_campaign=yelp_api_v3&utm_medium=api_v3_business_search&utm_source=yhLoLzsNXKw40xZ5RCWPpA", "distance": 155.79734060090584, "coordinates": {"latitude": 40.71609, "longitude": -74.00856}, "alias": "a-summer-day-caf\u00e9-new-york-4", "image_url": "https://s3-media4.fl.yelpcdn.com/bphoto/aLe9aQYm1sQV1A4CZBhSMg/o.jpg", "categories": [{"alias": "cocktailbars", "title": "Cocktail Bars"}, {"alias": "seafood", "title": "Seafood"}, {"alias": "newamerican", "title": "American (New)"}], "display_phone": "(646) 882-0420", "phone": "+16468820420", "id": "bqk6HtH2MrXqILFdSy3pGQ", "is_closed": false, "location": {"city": "New York", "display_address": ["109 W Broadway", "New York, NY 10013"], "country": "US", "address2": null, "address3": "", "state": "NY", "address1": "109 W Broadway", "zip_code": "10013"}}, {"rating": 4.0, "review_count": 35, "name": "Holy Ground", "transactions": [], "url": "https://www.yelp.com/biz/holy-ground-new-york-4?adjust_creative=yhLoLzsNXKw40xZ5RCWPpA&utm_campaign=yelp_api_v3&utm_medium=api_v3_business_search&utm_source=yhLoLzsNXKw40xZ5RCWPpA", "distance": 157.23914279521452, "coordinates": {"latitude": 40.71601, "longitude": -74.00859}, "alias": "holy-ground-new-york-4", "image_url": "https://s3-media4.fl.yelpcdn.com/bphoto/785JQIHpdByghE4Yutj3hA/o.jpg", "categories": [{"alias": "steak", "title": "Steakhouses"}, {"alias": "tradamerican", "title": "American (Traditional)"}, {"alias": "cocktailbars", "title": "Cocktail Bars"}], "display_phone": "(646) 882-0666", "phone": "+16468820666", "id": "23grP9R1Bt2K_N6iCDU8EQ", "is_closed": false, "location": {"city": "New York", "display_address": ["112 Reade St", "New York, NY 10013"], "country": "US", "address2": null, "address3": "", "state": "NY", "address1": "112 Reade St", "zip_code": "10013"}}, {"rating": 4.0, "review_count": 1, "name": "Gorilla Club", "transactions": [], "url": "https://www.yelp.com/biz/gorilla-club-new-york?adjust_creative=yhLoLzsNXKw40xZ5RCWPpA&utm_campaign=yelp_api_v3&utm_medium=api_v3_business_search&utm_source=yhLoLzsNXKw40xZ5RCWPpA", "distance": 173.7323553630258, "coordinates": {"latitude": 40.717273, "longitude": -74.005401}, "alias": "gorilla-club-new-york", "image_url": "", "categories": [{"alias": "musicvenues", "title": "Music Venues"}], "display_phone": "", "phone": "", "id": "mES7fZAk9HHDgkQLQYDqOQ", "is_closed": false, "location": {"city": "New York", "display_address": ["74 Leonard St", "New York, NY 10013"], "country": "US", "address2": "", "address3": "", "state": "NY", "address1": "74 Leonard St", "zip_code": "10013"}}, {"rating": 3.5, "review_count": 249, "name": "Two Hands Restaurant & Bar", "transactions": [], "url": "https://www.yelp.com/biz/two-hands-restaurant-and-bar-new-york?adjust_creative=yhLoLzsNXKw40xZ5RCWPpA&utm_campaign=yelp_api_v3&utm_medium=api_v3_business_search&utm_source=yhLoLzsNXKw40xZ5RCWPpA", "price": "$$", "distance": 180.79162989749966, "coordinates": {"latitude": 40.71782, "longitude": -74.00547}, "alias": "two-hands-restaurant-and-bar-new-york", "image_url": "https://s3-media3.fl.yelpcdn.com/bphoto/HCdIC7MFv8ZarRQEneJMaA/o.jpg", "categories": [{"alias": "bars", "title": "Bars"}, {"alias": "cafes", "title": "Cafes"}], "display_phone": "", "phone": "", "id": "3cC6UcOj_-FMXRBYlsXFzA", "is_closed": false, "location": {"city": "New York", "display_address": ["251 Church St", "New York, NY 10013"], "country": "US", "address2": "", "address3": "", "state": "NY", "address1": "251 Church St", "zip_code": "10013"}}, {"rating": 4.5, "review_count": 156, "name": "1803", "transactions": ["delivery", "pickup", "restaurant_reservation"], "url": "https://www.yelp.com/biz/1803-new-york?adjust_creative=yhLoLzsNXKw40xZ5RCWPpA&utm_campaign=yelp_api_v3&utm_medium=api_v3_business_search&utm_source=yhLoLzsNXKw40xZ5RCWPpA", "price": "$$", "distance": 189.9241612839824, "coordinates": {"latitude": 40.715498, "longitude": -74.007178}, "alias": "1803-new-york", "image_url": "https://s3-media4.fl.yelpcdn.com/bphoto/KhxtNUk-2YXvlElPHK9zqA/o.jpg", "categories": [{"alias": "cajun", "title": "Cajun/Creole"}, {"alias": "seafood", "title": "Seafood"}, {"alias": "bars", "title": "Bars"}], "display_phone": "(212) 267-3000", "phone": "+12122673000", "id": "3xTQT7qjZJIxc-eBiFMerQ", "is_closed": false, "location": {"city": "New York", "display_address": ["82 Reade St", "New York, NY 10007"], "country": "US", "address2": null, "address3": "", "state": "NY", "address1": "82 Reade St", "zip_code": "10007"}}, {"rating": 4.0, "review_count": 424, "name": "Ward III", "transactions": [], "url": "https://www.yelp.com/biz/ward-iii-new-york?adjust_creative=yhLoLzsNXKw40xZ5RCWPpA&utm_campaign=yelp_api_v3&utm_medium=api_v3_business_search&utm_source=yhLoLzsNXKw40xZ5RCWPpA", "price": "$$", "distance": 196.48051143509147, "coordinates": {"latitude": 40.7157247, "longitude": -74.0087103}, "alias": "ward-iii-new-york", "image_url": "https://s3-media3.fl.yelpcdn.com/bphoto/KDSVc0Ui1J86yBbRmFFTWQ/o.jpg", "categories": [{"alias": "lounges", "title": "Lounges"}, {"alias": "cocktailbars", "title": "Cocktail Bars"}], "display_phone": "(212) 240-9194", "phone": "+12122409194", "id": "X_2RR5F7Bq3jos28dQuvlg", "is_closed": false, "location": {"city": "New York", "display_address": ["111 Reade St", "New York, NY 10013"], "country": "US", "address2": "", "address3": "", "state": "NY", "address1": "111 Reade St", "zip_code": "10013"}}, {"rating": 3.5, "review_count": 71, "name": "Tutto il Giorno", "transactions": ["delivery", "pickup"], "url": "https://www.yelp.com/biz/tutto-il-giorno-new-york?adjust_creative=yhLoLzsNXKw40xZ5RCWPpA&utm_campaign=yelp_api_v3&utm_medium=api_v3_business_search&utm_source=yhLoLzsNXKw40xZ5RCWPpA", "price": "$$$", "distance": 199.43594832367938, "coordinates": {"latitude": 40.7186352360374, "longitude": -74.0060071866319}, "alias": "tutto-il-giorno-new-york", "image_url": "https://s3-media1.fl.yelpcdn.com/bphoto/f3SS_fo-tyeal9Pzhybk6g/o.jpg", "categories": [{"alias": "cocktailbars", "title": "Cocktail Bars"}, {"alias": "italian", "title": "Italian"}], "display_phone": "(212) 274-8100", "phone": "+12122748100", "id": "hhqUkocxtcnILE4hKFCoPg", "is_closed": false, "location": {"city": "New York", "display_address": ["114 Franklin St.", "New York, NY 10013"], "country": "US", "address2": null, "address3": "", "state": "NY", "address1": "114 Franklin St.", "zip_code": "10013"}}, {"rating": 4.0, "review_count": 86, "name": "Puffy's Tavern", "transactions": [], "url": "https://www.yelp.com/biz/puffys-tavern-new-york?adjust_creative=yhLoLzsNXKw40xZ5RCWPpA&utm_campaign=yelp_api_v3&utm_medium=api_v3_business_search&utm_source=yhLoLzsNXKw40xZ5RCWPpA", "price": "$", "distance": 205.36144885656623, "coordinates": {"latitude": 40.718555, "longitude": -74.009078}, "alias": "puffys-tavern-new-york", "image_url": "https://s3-media2.fl.yelpcdn.com/bphoto/ppfp8p78akMQc7XuXsVZPg/o.jpg", "categories": [{"alias": "bars", "title": "Bars"}, {"alias": "sandwiches", "title": "Sandwiches"}], "display_phone": "(212) 227-3912", "phone": "+12122273912", "id": "5CXBrHdBfK7wnu-KXXmUrw", "is_closed": false, "location": {"city": "New York", "display_address": ["81 Hudson St", "New York, NY 10013"], "country": "US", "address2": "", "address3": "", "state": "NY", "address1": "81 Hudson St", "zip_code": "10013"}}, {"rating": 4.0, "review_count": 4, "name": "Primo's", "transactions": [], "url": "https://www.yelp.com/biz/primos-new-york?adjust_creative=yhLoLzsNXKw40xZ5RCWPpA&utm_campaign=yelp_api_v3&utm_medium=api_v3_business_search&utm_source=yhLoLzsNXKw40xZ5RCWPpA", "distance": 219.19576019074077, "coordinates": {"latitude": 40.7154633, "longitude": -74.0087929}, "alias": "primos-new-york", "image_url": "https://s3-media3.fl.yelpcdn.com/bphoto/S1TOqyJ2MNVk_VWdFrJyoA/o.jpg", "categories": [{"alias": "bars", "title": "Bars"}], "display_phone": "(917) 512-3432", "phone": "+19175123432", "id": "qn5iPOvPUgJmKe2AeaCjFw", "is_closed": false, "location": {"city": "New York", "display_address": ["129 Chambers St", "New York, NY 10007"], "country": "US", "address2": "", "address3": null, "state": "NY", "address1": "129 Chambers St", "zip_code": "10007"}}, {"rating": 4.0, "review_count": 737, "name": "Distilled", "transactions": ["delivery", "pickup", "restaurant_reservation"], "url": "https://www.yelp.com/biz/distilled-new-york?adjust_creative=yhLoLzsNXKw40xZ5RCWPpA&utm_campaign=yelp_api_v3&utm_medium=api_v3_business_search&utm_source=yhLoLzsNXKw40xZ5RCWPpA", "price": "$$", "distance": 221.6912973239687, "coordinates": {"latitude": 40.7189994, "longitude": -74.0062975}, "alias": "distilled-new-york", "image_url": "https://s3-media2.fl.yelpcdn.com/bphoto/gVcEO-8sCfI1R1s5gxGuFA/o.jpg", "categories": [{"alias": "newamerican", "title": "American (New)"}, {"alias": "cocktailbars", "title": "Cocktail Bars"}, {"alias": "breakfast_brunch", "title": "Breakfast & Brunch"}], "display_phone": "(646) 809-9490", "phone": "+16468099490", "id": "0EtZ1xhnXWp4-ysNVwItYA", "is_closed": false, "location": {"city": "New York", "display_address": ["211 W Broadway", "New York, NY 10013"], "country": "US", "address2": "", "address3": "", "state": "NY", "address1": "211 W Broadway", "zip_code": "10013"}}, {"rating": 3.5, "review_count": 88, "name": "Reade Street Pub & Kitchen", "transactions": [], "url": "https://www.yelp.com/biz/reade-street-pub-and-kitchen-new-york?adjust_creative=yhLoLzsNXKw40xZ5RCWPpA&utm_campaign=yelp_api_v3&utm_medium=api_v3_business_search&utm_source=yhLoLzsNXKw40xZ5RCWPpA", "price": "$$", "distance": 224.66019211504857, "coordinates": {"latitude": 40.716224, "longitude": -74.00975}, "alias": "reade-street-pub-and-kitchen-new-york", "image_url": "https://s3-media3.fl.yelpcdn.com/bphoto/jZZj7-gh1wuFnqrbdeeltw/o.jpg", "categories": [{"alias": "pubs", "title": "Pubs"}, {"alias": "newamerican", "title": "American (New)"}], "display_phone": "(212) 227-2295", "phone": "+12122272295", "id": "6ov60pYmUAjpuiMv-OsDzQ", "is_closed": false, "location": {"city": "New York", "display_address": ["135 Reade St", "New York, NY 10013"], "country": "US", "address2": "", "address3": "", "state": "NY", "address1": "135 Reade St", "zip_code": "10013"}}, {"rating": 3.5, "review_count": 94, "name": "The Hideaway", "transactions": [], "url": "https://www.yelp.com/biz/the-hideaway-new-york?adjust_creative=yhLoLzsNXKw40xZ5RCWPpA&utm_campaign=yelp_api_v3&utm_medium=api_v3_business_search&utm_source=yhLoLzsNXKw40xZ5RCWPpA", "price": "$$", "distance": 244.3811473052719, "coordinates": {"latitude": 40.717575, "longitude": -74.010276}, "alias": "the-hideaway-new-york", "image_url": "https://s3-media2.fl.yelpcdn.com/bphoto/9EdxNYTW9n1zsPoaoimc8w/o.jpg", "categories": [{"alias": "bars", "title": "Bars"}, {"alias": "newamerican", "title": "American (New)"}], "display_phone": "(212) 334-5775", "phone": "+12123345775", "id": "8ERDirrcagy6XNfVmeJt-g", "is_closed": false, "location": {"city": "New York", "display_address": ["185 Duane St", "New York, NY 10013"], "country": "US", "address2": "", "address3": "", "state": "NY", "address1": "185 Duane St", "zip_code": "10013"}}, {"rating": 4.5, "review_count": 28, "name": "Attraversa", "transactions": [], "url": "https://www.yelp.com/biz/attraversa-new-york-5?adjust_creative=yhLoLzsNXKw40xZ5RCWPpA&utm_campaign=yelp_api_v3&utm_medium=api_v3_business_search&utm_source=yhLoLzsNXKw40xZ5RCWPpA", "distance": 250.93534777926962, "coordinates": {"latitude": 40.71922, "longitude": -74.00603}, "alias": "attraversa-new-york-5", "image_url": "https://s3-media2.fl.yelpcdn.com/bphoto/Dw35B3hFvHuCshTF4QcDyg/o.jpg", "categories": [{"alias": "italian", "title": "Italian"}, {"alias": "wine_bars", "title": "Wine Bars"}], "display_phone": "(646) 630-8333", "phone": "+16466308333", "id": "IiDfrdwPZJHbiuHdjaSJKA", "is_closed": false, "location": {"city": "New York", "display_address": ["225 W Broadway", "New York, NY 10013"], "country": "US", "address2": "", "address3": null, "state": "NY", "address1": "225 W Broadway", "zip_code": "10013"}}, {"rating": 3.5, "review_count": 357, "name": "Mudville9", "transactions": ["delivery", "pickup", "restaurant_reservation"], "url": "https://www.yelp.com/biz/mudville9-new-york?adjust_creative=yhLoLzsNXKw40xZ5RCWPpA&utm_campaign=yelp_api_v3&utm_medium=api_v3_business_search&utm_source=yhLoLzsNXKw40xZ5RCWPpA", "price": "$$", "distance": 258.81359400849465, "coordinates": {"latitude": 40.71524, "longitude": -74.00889}, "alias": "mudville9-new-york", "image_url": "https://s3-media1.fl.yelpcdn.com/bphoto/unGxPVButGCMlGj3bAqqwQ/o.jpg", "categories": [{"alias": "tradamerican", "title": "American (Traditional)"}, {"alias": "pubs", "title": "Pubs"}], "display_phone": "(212) 964-9464", "phone": "+12129649464", "id": "L0g4PLqpgWz0OkpGFbUTZA", "is_closed": false, "location": {"city": "New York", "display_address": ["126 Chambers St", "New York, NY 10007"], "country": "US", "address2": "", "address3": "", "state": "NY", "address1": "126 Chambers St", "zip_code": "10007"}}, {"rating": 4.0, "review_count": 65, "name": "L' Angolo Tribeca", "transactions": ["delivery", "pickup"], "url": "https://www.yelp.com/biz/l-angolo-tribeca-new-york?adjust_creative=yhLoLzsNXKw40xZ5RCWPpA&utm_campaign=yelp_api_v3&utm_medium=api_v3_business_search&utm_source=yhLoLzsNXKw40xZ5RCWPpA", "price": "$$", "distance": 259.9713064933615, "coordinates": {"latitude": 40.71734, "longitude": -74.01044}, "alias": "l-angolo-tribeca-new-york", "image_url": "https://s3-media2.fl.yelpcdn.com/bphoto/kGYx6g6EYnh3YbKcaE4NdA/o.jpg", "categories": [{"alias": "italian", "title": "Italian"}, {"alias": "wine_bars", "title": "Wine Bars"}], "display_phone": "(212) 625-3333", "phone": "+12126253333", "id": "H_TGP2AgX3IUmzq8Aml79Q", "is_closed": false, "location": {"city": "New York", "display_address": ["190-A Duane St", "New York, NY 10013"], "country": "US", "address2": null, "address3": null, "state": "NY", "address1": "190-A Duane St", "zip_code": "10013"}}, {"rating": 4.0, "review_count": 319, "name": "Da Mikele by Luzzo's", "transactions": ["delivery", "pickup", "restaurant_reservation"], "url": "https://www.yelp.com/biz/da-mikele-by-luzzos-new-york?adjust_creative=yhLoLzsNXKw40xZ5RCWPpA&utm_campaign=yelp_api_v3&utm_medium=api_v3_business_search&utm_source=yhLoLzsNXKw40xZ5RCWPpA", "price": "$$", "distance": 262.5860473196306, "coordinates": {"latitude": 40.718477, "longitude": -74.004802}, "alias": "da-mikele-by-luzzos-new-york", "image_url": "https://s3-media2.fl.yelpcdn.com/bphoto/0Ld5H6Udi3PzS6trtb-b0g/o.jpg", "categories": [{"alias": "italian", "title": "Italian"}, {"alias": "pizza", "title": "Pizza"}, {"alias": "cocktailbars", "title": "Cocktail Bars"}], "display_phone": "(212) 925-8800", "phone": "+12129258800", "id": "6-ShONYFIM9K8HAUOhZVlw", "is_closed": false, "location": {"city": "New York", "display_address": ["275 Church St", "New York, NY 10013"], "country": "US", "address2": "", "address3": "", "state": "NY", "address1": "275 Church St", "zip_code": "10013"}}, {"rating": 4.5, "review_count": 15, "name": "Evening Bar", "transactions": [], "url": "https://www.yelp.com/biz/evening-bar-new-york?adjust_creative=yhLoLzsNXKw40xZ5RCWPpA&utm_campaign=yelp_api_v3&utm_medium=api_v3_business_search&utm_source=yhLoLzsNXKw40xZ5RCWPpA", "price": "$$$", "distance": 263.200712918654, "coordinates": {"latitude": 40.71521, "longitude": -74.00913}, "alias": "evening-bar-new-york", "image_url": "https://s3-media1.fl.yelpcdn.com/bphoto/J36Dw2Vt3FptzEE2JsYdPQ/o.jpg", "categories": [{"alias": "wine_bars", "title": "Wine Bars"}, {"alias": "cocktailbars", "title": "Cocktail Bars"}, {"alias": "tradamerican", "title": "American (Traditional)"}], "display_phone": "(212) 587-7000", "phone": "+12125877000", "id": "qkE8HdN6Kj32sUiq0amvzQ", "is_closed": false, "location": {"city": "New York", "display_address": ["85 W Broadway", "New York, NY 10007"], "country": "US", "address2": "", "address3": "", "state": "NY", "address1": "85 W Broadway", "zip_code": "10007"}}, {"rating": 4.0, "review_count": 343, "name": "B Flat", "transactions": [], "url": "https://www.yelp.com/biz/b-flat-new-york?adjust_creative=yhLoLzsNXKw40xZ5RCWPpA&utm_campaign=yelp_api_v3&utm_medium=api_v3_business_search&utm_source=yhLoLzsNXKw40xZ5RCWPpA", "price": "$$", "distance": 265.1145046331576, "coordinates": {"latitude": 40.7185644131449, "longitude": -74.0048434404755}, "alias": "b-flat-new-york", "image_url": "https://s3-media4.fl.yelpcdn.com/bphoto/w_PErQeA1p-QFJnSzf1mGg/o.jpg", "categories": [{"alias": "lounges", "title": "Lounges"}, {"alias": "jazzandblues", "title": "Jazz & Blues"}, {"alias": "japanese", "title": "Japanese"}], "display_phone": "(212) 219-2970", "phone": "+12122192970", "id": "sLxHi6kOAEV6iqr45jzb_Q", "is_closed": false, "location": {"city": "New York", "display_address": ["277 Church St", "New York, NY 10013"], "country": "US", "address2": "", "address3": "", "state": "NY", "address1": "277 Church St", "zip_code": "10013"}}, {"rating": 3.5, "review_count": 320, "name": "The Patriot Saloon", "transactions": [], "url": "https://www.yelp.com/biz/the-patriot-saloon-new-york?adjust_creative=yhLoLzsNXKw40xZ5RCWPpA&utm_campaign=yelp_api_v3&utm_medium=api_v3_business_search&utm_source=yhLoLzsNXKw40xZ5RCWPpA", "price": "$", "distance": 268.4835733934884, "coordinates": {"latitude": 40.714877, "longitude": -74.008306}, "alias": "the-patriot-saloon-new-york", "image_url": "https://s3-media1.fl.yelpcdn.com/bphoto/yo7YzCyIxd8JV9NJ7RnslQ/o.jpg", "categories": [{"alias": "divebars", "title": "Dive Bars"}], "display_phone": "(212) 748-1162", "phone": "+12127481162", "id": "8_xrOlewOeXMtZbgQL3UTA", "is_closed": false, "location": {"city": "New York", "display_address": ["110 Chambers St", "New York, NY 10007"], "country": "US", "address2": "", "address3": "", "state": "NY", "address1": "110 Chambers St", "zip_code": "10007"}}, {"rating": 4.0, "review_count": 87, "name": "Shigure", "transactions": [], "url": "https://www.yelp.com/biz/shigure-new-york?adjust_creative=yhLoLzsNXKw40xZ5RCWPpA&utm_campaign=yelp_api_v3&utm_medium=api_v3_business_search&utm_source=yhLoLzsNXKw40xZ5RCWPpA", "price": "$$$", "distance": 268.5613371036818, "coordinates": {"latitude": 40.71853, "longitude": -74.00477}, "alias": "shigure-new-york", "image_url": "https://s3-media2.fl.yelpcdn.com/bphoto/x-S2Mzh9WuW1zXk0eMKAOQ/o.jpg", "categories": [{"alias": "japanese", "title": "Japanese"}, {"alias": "cocktailbars", "title": "Cocktail Bars"}, {"alias": "tapas", "title": "Tapas Bars"}], "display_phone": "(212) 965-0200", "phone": "+12129650200", "id": "QmelPAXgkVLZfUb27diAEw", "is_closed": false, "location": {"city": "New York", "display_address": ["277 Church St", "New York, NY 10013"], "country": "US", "address2": "", "address3": "", "state": "NY", "address1": "277 Church St", "zip_code": "10013"}}, {"rating": 1.0, "review_count": 1, "name": "Fahrenheit", "transactions": [], "url": "https://www.yelp.com/biz/fahrenheit-new-york-2?adjust_creative=yhLoLzsNXKw40xZ5RCWPpA&utm_campaign=yelp_api_v3&utm_medium=api_v3_business_search&utm_source=yhLoLzsNXKw40xZ5RCWPpA", "distance": 269.62884271867927, "coordinates": {"latitude": 40.71705, "longitude": -74.0042}, "alias": "fahrenheit-new-york-2", "image_url": "", "categories": [{"alias": "danceclubs", "title": "Dance Clubs"}], "display_phone": "", "phone": "", "id": "h6TZhsUrnFdAcRyLMXeeZw", "is_closed": false, "location": {"city": "New York", "display_address": ["95 Leonard St", "New York, NY 10013"], "country": "US", "address2": "", "address3": "", "state": "NY", "address1": "95 Leonard St", "zip_code": "10013"}}, {"rating": 5.0, "review_count": 13, "name": "Noted Tribeca", "transactions": [], "url": "https://www.yelp.com/biz/noted-tribeca-new-york-2?adjust_creative=yhLoLzsNXKw40xZ5RCWPpA&utm_campaign=yelp_api_v3&utm_medium=api_v3_business_search&utm_source=yhLoLzsNXKw40xZ5RCWPpA", "distance": 275.490344031109, "coordinates": {"latitude": 40.71957, "longitude": -74.00836}, "alias": "noted-tribeca-new-york-2", "image_url": "https://s3-media3.fl.yelpcdn.com/bphoto/ZCR_EXkk-yfq7sE1jtx6ag/o.jpg", "categories": [{"alias": "cafes", "title": "Cafes"}, {"alias": "wine_bars", "title": "Wine Bars"}, {"alias": "cocktailbars", "title": "Cocktail Bars"}], "display_phone": "(636) 398-7807", "phone": "+16363987807", "id": "szyoiJXuX8shNnsm8-Bffg", "is_closed": false, "location": {"city": "New York", "display_address": ["112 Hudson St", "New York, NY 10013"], "country": "US", "address2": "", "address3": null, "state": "NY", "address1": "112 Hudson St", "zip_code": "10013"}}, {"rating": 4.0, "review_count": 276, "name": "Walker's", "transactions": ["delivery", "pickup"], "url": "https://www.yelp.com/biz/walkers-new-york-2?adjust_creative=yhLoLzsNXKw40xZ5RCWPpA&utm_campaign=yelp_api_v3&utm_medium=api_v3_business_search&utm_source=yhLoLzsNXKw40xZ5RCWPpA", "price": "$$", "distance": 278.74212427372066, "coordinates": {"latitude": 40.71972, "longitude": -74.00707}, "alias": "walkers-new-york-2", "image_url": "https://s3-media3.fl.yelpcdn.com/bphoto/1d6tD_RGOryT2496hAu6EQ/o.jpg", "categories": [{"alias": "diners", "title": "Diners"}, {"alias": "breakfast_brunch", "title": "Breakfast & Brunch"}, {"alias": "pubs", "title": "Pubs"}], "display_phone": "(212) 941-0142", "phone": "+12129410142", "id": "oV424-PaBMTE99BqGLotYQ", "is_closed": false, "location": {"city": "New York", "display_address": ["16 N Moore St", "New York, NY 10013"], "country": "US", "address2": "", "address3": "", "state": "NY", "address1": "16 N Moore St", "zip_code": "10013"}}, {"rating": 3.5, "review_count": 111, "name": "Maxwell's Bar & Restaurant", "transactions": ["delivery", "pickup"], "url": "https://www.yelp.com/biz/maxwells-bar-and-restaurant-new-york-2?adjust_creative=yhLoLzsNXKw40xZ5RCWPpA&utm_campaign=yelp_api_v3&utm_medium=api_v3_business_search&utm_source=yhLoLzsNXKw40xZ5RCWPpA", "price": "$$", "distance": 278.8012183454378, "coordinates": {"latitude": 40.7147585, "longitude": -74.0064063}, "alias": "maxwells-bar-and-restaurant-new-york-2", "image_url": "https://s3-media3.fl.yelpcdn.com/bphoto/txSbjnouAtEhwbJ-T2AscA/o.jpg", "categories": [{"alias": "tradamerican", "title": "American (Traditional)"}, {"alias": "bars", "title": "Bars"}], "display_phone": "(917) 261-6917", "phone": "+19172616917", "id": "xfpq6PpkYLAwIeFWQVkiGg", "is_closed": false, "location": {"city": "New York", "display_address": ["59 Reade St", "New York, NY 10007"], "country": "US", "address2": null, "address3": "", "state": "NY", "address1": "59 Reade St", "zip_code": "10007"}}, {"rating": 4.0, "review_count": 266, "name": "Terroir Tribeca", "transactions": [], "url": "https://www.yelp.com/biz/terroir-tribeca-new-york?adjust_creative=yhLoLzsNXKw40xZ5RCWPpA&utm_campaign=yelp_api_v3&utm_medium=api_v3_business_search&utm_source=yhLoLzsNXKw40xZ5RCWPpA", "price": "$$", "distance": 281.5140250243578, "coordinates": {"latitude": 40.718804998517, "longitude": -74.0099987815497}, "alias": "terroir-tribeca-new-york", "image_url": "https://s3-media4.fl.yelpcdn.com/bphoto/Vuwfta5iVpV3VM6RKb6Xwg/o.jpg", "categories": [{"alias": "wine_bars", "title": "Wine Bars"}, {"alias": "newamerican", "title": "American (New)"}], "display_phone": "(212) 625-9463", "phone": "+12126259463", "id": "ED2I3t5rOf81cddCsLA4tw", "is_closed": false, "location": {"city": "New York", "display_address": ["24 Harrison St", "New York, NY 10013"], "country": "US", "address2": "", "address3": "", "state": "NY", "address1": "24 Harrison St", "zip_code": "10013"}}, {"rating": 3.5, "review_count": 190, "name": "Mariachi's", "transactions": ["delivery", "pickup"], "url": "https://www.yelp.com/biz/mariachis-new-york-3?adjust_creative=yhLoLzsNXKw40xZ5RCWPpA&utm_campaign=yelp_api_v3&utm_medium=api_v3_business_search&utm_source=yhLoLzsNXKw40xZ5RCWPpA", "price": "$$", "distance": 285.4589642708376, "coordinates": {"latitude": 40.715751, "longitude": -74.010219}, "alias": "mariachis-new-york-3", "image_url": "https://s3-media4.fl.yelpcdn.com/bphoto/HZ9pP11W7Zevr-kwHahTQw/o.jpg", "categories": [{"alias": "mexican", "title": "Mexican"}, {"alias": "seafood", "title": "Seafood"}, {"alias": "musicvenues", "title": "Music Venues"}], "display_phone": "(212) 528-3175", "phone": "+12125283175", "id": "tKpTRuNe7JJD6IYFPVCXNg", "is_closed": false, "location": {"city": "New York", "display_address": ["156 Chambers St", "New York, NY 10007"], "country": "US", "address2": "", "address3": "", "state": "NY", "address1": "156 Chambers St", "zip_code": "10007"}}, {"rating": 3.5, "review_count": 108, "name": "Racines", "transactions": [], "url": "https://www.yelp.com/biz/racines-new-york?adjust_creative=yhLoLzsNXKw40xZ5RCWPpA&utm_campaign=yelp_api_v3&utm_medium=api_v3_business_search&utm_source=yhLoLzsNXKw40xZ5RCWPpA", "price": "$$$", "distance": 290.67771634829575, "coordinates": {"latitude": 40.71463, "longitude": -74.00752}, "alias": "racines-new-york", "image_url": "https://s3-media1.fl.yelpcdn.com/bphoto/mS73CAe3tRZitWyfIlWriA/o.jpg", "categories": [{"alias": "french", "title": "French"}, {"alias": "wine_bars", "title": "Wine Bars"}], "display_phone": "(212) 227-3400", "phone": "+12122273400", "id": "EOANRwg2TqxqAJ6O7e-YNA", "is_closed": false, "location": {"city": "New York", "display_address": ["94 Chambers St", "New York, NY 10007"], "country": "US", "address2": "", "address3": "", "state": "NY", "address1": "94 Chambers St", "zip_code": "10007"}}, {"rating": 3.0, "review_count": 154, "name": "Tribeca Tap House", "transactions": ["delivery", "pickup"], "url": "https://www.yelp.com/biz/tribeca-tap-house-new-york?adjust_creative=yhLoLzsNXKw40xZ5RCWPpA&utm_campaign=yelp_api_v3&utm_medium=api_v3_business_search&utm_source=yhLoLzsNXKw40xZ5RCWPpA", "price": "$$", "distance": 302.69001329371343, "coordinates": {"latitude": 40.71915, "longitude": -74.00994}, "alias": "tribeca-tap-house-new-york", "image_url": "https://s3-media1.fl.yelpcdn.com/bphoto/4WCRqI9klYnNes8tkXPWrQ/o.jpg", "categories": [{"alias": "sportsbars", "title": "Sports Bars"}, {"alias": "gastropubs", "title": "Gastropubs"}, {"alias": "burgers", "title": "Burgers"}], "display_phone": "(212) 510-8939", "phone": "+12125108939", "id": "nIvmMwAakw6y6AqHqkf7rw", "is_closed": false, "location": {"city": "New York", "display_address": ["363 Greenwich St", "New York, NY 10013"], "country": "US", "address2": null, "address3": "", "state": "NY", "address1": "363 Greenwich St", "zip_code": "10013"}}, {"rating": 3.5, "review_count": 142, "name": "Petrarca Cucina E Vino", "transactions": [], "url": "https://www.yelp.com/biz/petrarca-cucina-e-vino-new-york-2?adjust_creative=yhLoLzsNXKw40xZ5RCWPpA&utm_campaign=yelp_api_v3&utm_medium=api_v3_business_search&utm_source=yhLoLzsNXKw40xZ5RCWPpA", "price": "$$$", "distance": 307.45790324643644, "coordinates": {"latitude": 40.7189, "longitude": -74.00458}, "alias": "petrarca-cucina-e-vino-new-york-2", "image_url": "https://s3-media2.fl.yelpcdn.com/bphoto/yofcpDsVmRgGw8Sj6T8Mvg/o.jpg", "categories": [{"alias": "italian", "title": "Italian"}, {"alias": "wine_bars", "title": "Wine Bars"}, {"alias": "desserts", "title": "Desserts"}], "display_phone": "(212) 625-2800", "phone": "+12126252800", "id": "Tias1_QRB5L-gzoSNNhOMA", "is_closed": false, "location": {"city": "New York", "display_address": ["34 White St", "New York, NY 10013"], "country": "US", "address2": "", "address3": "", "state": "NY", "address1": "34 White St", "zip_code": "10013"}}, {"rating": 3.5, "review_count": 218, "name": "Tribeca Tavern & Cafe", "transactions": [], "url": "https://www.yelp.com/biz/tribeca-tavern-and-cafe-new-york?adjust_creative=yhLoLzsNXKw40xZ5RCWPpA&utm_campaign=yelp_api_v3&utm_medium=api_v3_business_search&utm_source=yhLoLzsNXKw40xZ5RCWPpA", "price": "$$", "distance": 320.2460717209591, "coordinates": {"latitude": 40.719703, "longitude": -74.005531}, "alias": "tribeca-tavern-and-cafe-new-york", "image_url": "https://s3-media3.fl.yelpcdn.com/bphoto/9DoFgVaBUmoya7vxvEHxUA/o.jpg", "categories": [{"alias": "pubs", "title": "Pubs"}], "display_phone": "(212) 941-7671", "phone": "+12129417671", "id": "Ya8R3poyNFgz7sIOyU1MMQ", "is_closed": false, "location": {"city": "New York", "display_address": ["247 W Broadway", "New York, NY 10013"], "country": "US", "address2": "", "address3": "", "state": "NY", "address1": "247 W Broadway", "zip_code": "10013"}}, {"rating": 4.0, "review_count": 550, "name": "Brandy Library", "transactions": ["restaurant_reservation"], "url": "https://www.yelp.com/biz/brandy-library-new-york?adjust_creative=yhLoLzsNXKw40xZ5RCWPpA&utm_campaign=yelp_api_v3&utm_medium=api_v3_business_search&utm_source=yhLoLzsNXKw40xZ5RCWPpA", "price": "$$$", "distance": 320.29861030012654, "coordinates": {"latitude": 40.720073, "longitude": -74.007227}, "alias": "brandy-library-new-york", "image_url": "https://s3-media4.fl.yelpcdn.com/bphoto/745pwDw2lJ7gENHEQlqwFA/o.jpg", "categories": [{"alias": "newamerican", "title": "American (New)"}, {"alias": "lounges", "title": "Lounges"}, {"alias": "wine_bars", "title": "Wine Bars"}], "display_phone": "(212) 226-5545", "phone": "+12122265545", "id": "RW-v9cm9rQZS9cSihuXfvw", "is_closed": false, "location": {"city": "New York", "display_address": ["25 N Moore St", "New York, NY 10013"], "country": "US", "address2": null, "address3": "", "state": "NY", "address1": "25 N Moore St", "zip_code": "10013"}}, {"rating": 5.0, "review_count": 1, "name": "The Dinner Detective", "transactions": [], "url": "https://www.yelp.com/biz/the-dinner-detective-new-york?adjust_creative=yhLoLzsNXKw40xZ5RCWPpA&utm_campaign=yelp_api_v3&utm_medium=api_v3_business_search&utm_source=yhLoLzsNXKw40xZ5RCWPpA", "distance": 322.6060493374277, "coordinates": {"latitude": 40.71423, "longitude": -74.00783}, "alias": "the-dinner-detective-new-york", "image_url": "https://s3-media4.fl.yelpcdn.com/bphoto/M7L1sgxaNmT768Vd-NfZDg/o.jpg", "categories": [{"alias": "theater", "title": "Performing Arts"}, {"alias": "dinnertheater", "title": "Dinner Theater"}, {"alias": "comedyclubs", "title": "Comedy Clubs"}], "display_phone": "(866) 496-0535", "phone": "+18664960535", "id": "n437tM4Zf0d6yAOyidcLGQ", "is_closed": false, "location": {"city": "New York", "display_address": ["22 Warren St", "The Hideout Downstairs", "New York, NY 10007"], "country": "US", "address2": "", "address3": "The Hideout Downstairs", "state": "NY", "address1": "22 Warren St", "zip_code": "10007"}}, {"rating": 3.5, "review_count": 79, "name": "The Django", "transactions": [], "url": "https://www.yelp.com/biz/the-django-new-york?adjust_creative=yhLoLzsNXKw40xZ5RCWPpA&utm_campaign=yelp_api_v3&utm_medium=api_v3_business_search&utm_source=yhLoLzsNXKw40xZ5RCWPpA", "price": "$$$", "distance": 324.4829076125835, "coordinates": {"latitude": 40.71936, "longitude": -74.00483}, "alias": "the-django-new-york", "image_url": "https://s3-media1.fl.yelpcdn.com/bphoto/Kj3I30ByQepASUB0oiTsQQ/o.jpg", "categories": [{"alias": "jazzandblues", "title": "Jazz & Blues"}, {"alias": "desserts", "title": "Desserts"}, {"alias": "beer_and_wine", "title": "Beer, Wine & Spirits"}], "display_phone": "(212) 519-6649", "phone": "+12125196649", "id": "-7Cc_VzuQQ-IlAKriaqMhQ", "is_closed": false, "location": {"city": "New York", "display_address": ["2 Avenue Of The Americas", "New York, NY 10013"], "country": "US", "address2": "", "address3": "", "state": "NY", "address1": "2 Avenue Of The Americas", "zip_code": "10013"}}, {"rating": 3.0, "review_count": 75, "name": "Church Lounge at Tribeca Grand Hotel", "transactions": [], "url": "https://www.yelp.com/biz/church-lounge-at-tribeca-grand-hotel-new-york?adjust_creative=yhLoLzsNXKw40xZ5RCWPpA&utm_campaign=yelp_api_v3&utm_medium=api_v3_business_search&utm_source=yhLoLzsNXKw40xZ5RCWPpA", "price": "$$$", "distance": 324.4829076125835, "coordinates": {"latitude": 40.7193603515625, "longitude": -74.0048446655273}, "alias": "church-lounge-at-tribeca-grand-hotel-new-york", "image_url": "https://s3-media3.fl.yelpcdn.com/bphoto/7QrOvHzMSRXa3vCJTjH10Q/o.jpg", "categories": [{"alias": "lounges", "title": "Lounges"}], "display_phone": "(212) 965-6664", "phone": "+12129656664", "id": "ciFzIPjdDDXeQEG3KNMcAQ", "is_closed": false, "location": {"city": "New York", "display_address": ["2 Avenue Of The Americas", "New York, NY 10013"], "country": "US", "address2": "", "address3": "", "state": "NY", "address1": "2 Avenue Of The Americas", "zip_code": "10013"}}, {"rating": 3.5, "review_count": 28, "name": "Tribeca Comedy Lounge", "transactions": [], "url": "https://www.yelp.com/biz/tribeca-comedy-lounge-new-york?adjust_creative=yhLoLzsNXKw40xZ5RCWPpA&utm_campaign=yelp_api_v3&utm_medium=api_v3_business_search&utm_source=yhLoLzsNXKw40xZ5RCWPpA", "price": "$$", "distance": 329.19519606540314, "coordinates": {"latitude": 40.714314, "longitude": -74.007774}, "alias": "tribeca-comedy-lounge-new-york", "image_url": "https://s3-media3.fl.yelpcdn.com/bphoto/0TghUi3EY4s7vbndBA4jIw/o.jpg", "categories": [{"alias": "comedyclubs", "title": "Comedy Clubs"}], "display_phone": "(646) 504-5653", "phone": "+16465045653", "id": "s01mcScCbGMxx-OPJ5uTgw", "is_closed": false, "location": {"city": "New York", "display_address": ["22 Warren St", "New York, NY 10007"], "country": "US", "address2": null, "address3": "", "state": "NY", "address1": "22 Warren St", "zip_code": "10007"}}, {"rating": 2.5, "review_count": 39, "name": "Paul's Cocktail Lounge", "transactions": [], "url": "https://www.yelp.com/biz/pauls-cocktail-lounge-new-york?adjust_creative=yhLoLzsNXKw40xZ5RCWPpA&utm_campaign=yelp_api_v3&utm_medium=api_v3_business_search&utm_source=yhLoLzsNXKw40xZ5RCWPpA", "price": "$$$", "distance": 331.9880998597612, "coordinates": {"latitude": 40.7194177, "longitude": -74.0047878}, "alias": "pauls-cocktail-lounge-new-york", "image_url": "https://s3-media1.fl.yelpcdn.com/bphoto/IM_ML6sMTVASvDZMxbhehQ/o.jpg", "categories": [{"alias": "lounges", "title": "Lounges"}], "display_phone": "(212) 519-6681", "phone": "+12125196681", "id": "VKTRY50N3sNbht-aAgeJzw", "is_closed": false, "location": {"city": "New York", "display_address": ["2 Ave Of The Americas", "New York, NY 10013"], "country": "US", "address2": "", "address3": "", "state": "NY", "address1": "2 Ave Of The Americas", "zip_code": "10013"}}, {"rating": 3.5, "review_count": 571, "name": "Tribeca Grill", "transactions": ["delivery", "pickup"], "url": "https://www.yelp.com/biz/tribeca-grill-new-york-2?adjust_creative=yhLoLzsNXKw40xZ5RCWPpA&utm_campaign=yelp_api_v3&utm_medium=api_v3_business_search&utm_source=yhLoLzsNXKw40xZ5RCWPpA", "price": "$$$", "distance": 335.3222176799656, "coordinates": {"latitude": 40.71961, "longitude": -74.00991}, "alias": "tribeca-grill-new-york-2", "image_url": "https://s3-media2.fl.yelpcdn.com/bphoto/VEE9XRS3aAY27QcVPdz-JQ/o.jpg", "categories": [{"alias": "newamerican", "title": "American (New)"}, {"alias": "tradamerican", "title": "American (Traditional)"}, {"alias": "wine_bars", "title": "Wine Bars"}], "display_phone": "(212) 941-3900", "phone": "+12129413900", "id": "vtKxYnrZld4w6wG82Vm4pg", "is_closed": false, "location": {"city": "New York", "display_address": ["375 Greenwich St", "New York, NY 10013"], "country": "US", "address2": "", "address3": "", "state": "NY", "address1": "375 Greenwich St", "zip_code": "10013"}}, {"rating": 4.0, "review_count": 148, "name": "Anotheroom", "transactions": [], "url": "https://www.yelp.com/biz/anotheroom-new-york?adjust_creative=yhLoLzsNXKw40xZ5RCWPpA&utm_campaign=yelp_api_v3&utm_medium=api_v3_business_search&utm_source=yhLoLzsNXKw40xZ5RCWPpA", "price": "$$", "distance": 337.4713549867569, "coordinates": {"latitude": 40.7197516, "longitude": -74.0056772}, "alias": "anotheroom-new-york", "image_url": "https://s3-media1.fl.yelpcdn.com/bphoto/0jG9yhXiSJD4xPYw3fsl_w/o.jpg", "categories": [{"alias": "lounges", "title": "Lounges"}], "display_phone": "(212) 226-1418", "phone": "+12122261418", "id": "JnT3w2BDpaQpbBP76pyYew", "is_closed": false, "location": {"city": "New York", "display_address": ["249 W Broadway", "New York, NY 10013"], "country": "US", "address2": "", "address3": "", "state": "NY", "address1": "249 W Broadway", "zip_code": "10013"}}, {"rating": 3.5, "review_count": 2, "name": "NY Fun Music Tour", "transactions": [], "url": "https://www.yelp.com/biz/ny-fun-music-tour-new-york?adjust_creative=yhLoLzsNXKw40xZ5RCWPpA&utm_campaign=yelp_api_v3&utm_medium=api_v3_business_search&utm_source=yhLoLzsNXKw40xZ5RCWPpA", "distance": 339.33713618515645, "coordinates": {"latitude": null, "longitude": null}, "alias": "ny-fun-music-tour-new-york", "image_url": "https://s3-media1.fl.yelpcdn.com/bphoto/2HnhlwdWlZQrIuGvrneyRg/o.jpg", "categories": [{"alias": "tours", "title": "Tours"}, {"alias": "musicvenues", "title": "Music Venues"}], "display_phone": "(347) 581-8119", "phone": "+13475818119", "id": "NPP94yheaXTy8EHgTaCQEA", "is_closed": false, "location": {"city": "New York", "display_address": ["New York, NY"], "country": "US", "address2": "", "address3": "", "state": "NY", "address1": "", "zip_code": ""}}, {"rating": 5.0, "review_count": 1, "name": "Gavin Brown's Enterprise", "transactions": [], "url": "https://www.yelp.com/biz/gavin-browns-enterprise-new-york-2?adjust_creative=yhLoLzsNXKw40xZ5RCWPpA&utm_campaign=yelp_api_v3&utm_medium=api_v3_business_search&utm_source=yhLoLzsNXKw40xZ5RCWPpA", "distance": 339.33713618515645, "coordinates": {"latitude": 40.71424, "longitude": -74.00642}, "alias": "gavin-browns-enterprise-new-york-2", "image_url": "", "categories": [{"alias": "bars", "title": "Bars"}], "display_phone": "", "phone": "", "id": "rkgtzbd_9v6sBKiIArMqoQ", "is_closed": false, "location": {"city": "New York", "display_address": ["436 W 15th St", "New York, NY 10079"], "country": "US", "address2": null, "address3": "", "state": "NY", "address1": "436 W 15th St", "zip_code": "10079"}}, {"rating": 5.0, "review_count": 1, "name": "Barcrawls", "transactions": [], "url": "https://www.yelp.com/biz/barcrawls-new-york?adjust_creative=yhLoLzsNXKw40xZ5RCWPpA&utm_campaign=yelp_api_v3&utm_medium=api_v3_business_search&utm_source=yhLoLzsNXKw40xZ5RCWPpA", "distance": 339.33713618515645, "coordinates": {"latitude": 40.71424, "longitude": -74.00642}, "alias": "barcrawls-new-york", "image_url": "", "categories": [{"alias": "bars", "title": "Bars"}], "display_phone": "(212) 255-4223", "phone": "+12122554223", "id": "YeyK9wu5UxeVOyi7dpHh7A", "is_closed": false, "location": {"city": "New York", "display_address": ["New York, NY"], "country": "US", "address2": "", "address3": "", "state": "NY", "address1": "", "zip_code": ""}}, {"rating": 3.0, "review_count": 3, "name": "D-Lounge", "transactions": [], "url": "https://www.yelp.com/biz/d-lounge-new-york?adjust_creative=yhLoLzsNXKw40xZ5RCWPpA&utm_campaign=yelp_api_v3&utm_medium=api_v3_business_search&utm_source=yhLoLzsNXKw40xZ5RCWPpA", "distance": 339.33713618515645, "coordinates": {"latitude": 40.71424, "longitude": -74.00642}, "alias": "d-lounge-new-york", "image_url": "https://s3-media1.fl.yelpcdn.com/bphoto/ItWg-Q6kloLJQhQ-YLdKlA/o.jpg", "categories": [{"alias": "lounges", "title": "Lounges"}, {"alias": "theater", "title": "Performing Arts"}], "display_phone": "(212) 375-1110", "phone": "+12123751110", "id": "oS5KCIS0aqF90bX7YdSTwA", "is_closed": false, "location": {"city": "New York", "display_address": ["101 East 15th St", "Off Union Square East", "New York, NY 10079"], "country": "US", "address2": "", "address3": "Off Union Square East", "state": "NY", "address1": "101 East 15th St", "zip_code": "10079"}}, {"rating": 3.0, "review_count": 172, "name": "Warren 77", "transactions": ["delivery", "pickup"], "url": "https://www.yelp.com/biz/warren-77-new-york-2?adjust_creative=yhLoLzsNXKw40xZ5RCWPpA&utm_campaign=yelp_api_v3&utm_medium=api_v3_business_search&utm_source=yhLoLzsNXKw40xZ5RCWPpA", "price": "$$", "distance": 347.63440039406936, "coordinates": {"latitude": 40.71513, "longitude": -74.01031}, "alias": "warren-77-new-york-2", "image_url": "https://s3-media3.fl.yelpcdn.com/bphoto/AQarhi8cwhElrPQsOK3gpw/o.jpg", "categories": [{"alias": "sportsbars", "title": "Sports Bars"}, {"alias": "tradamerican", "title": "American (Traditional)"}], "display_phone": "(212) 227-8994", "phone": "+12122278994", "id": "0wsA6vaHKbIuCt9yUxc8Jg", "is_closed": false, "location": {"city": "New York", "display_address": ["77 Warren St", "New York, NY 10007"], "country": "US", "address2": "", "address3": "", "state": "NY", "address1": "77 Warren St", "zip_code": "10007"}}, {"rating": 3.5, "review_count": 7, "name": "Abajo", "transactions": [], "url": "https://www.yelp.com/biz/abajo-new-york?adjust_creative=yhLoLzsNXKw40xZ5RCWPpA&utm_campaign=yelp_api_v3&utm_medium=api_v3_business_search&utm_source=yhLoLzsNXKw40xZ5RCWPpA", "distance": 352.43877183230154, "coordinates": {"latitude": 40.7191772, "longitude": -74.0043869}, "alias": "abajo-new-york", "image_url": "https://s3-media2.fl.yelpcdn.com/bphoto/T9O1e4lzcrC-KGob29XsjA/o.jpg", "categories": [{"alias": "bars", "title": "Bars"}, {"alias": "mexican", "title": "Mexican"}], "display_phone": "(212) 920-6270", "phone": "+12129206270", "id": "JRiHG5F7Dc3Ce1YKBet3wA", "is_closed": false, "location": {"city": "New York", "display_address": ["301 Church St", "New York, NY 10013"], "country": "US", "address2": "", "address3": "", "state": "NY", "address1": "301 Church St", "zip_code": "10013"}}, {"rating": 4.0, "review_count": 298, "name": "Woodrow's", "transactions": ["pickup"], "url": "https://www.yelp.com/biz/woodrows-new-york?adjust_creative=yhLoLzsNXKw40xZ5RCWPpA&utm_campaign=yelp_api_v3&utm_medium=api_v3_business_search&utm_source=yhLoLzsNXKw40xZ5RCWPpA", "price": "$$", "distance": 358.65562563075804, "coordinates": {"latitude": 40.7141113, "longitude": -74.009201}, "alias": "woodrows-new-york", "image_url": "https://s3-media1.fl.yelpcdn.com/bphoto/6M8jWrCMklwGZ8Fal4cCcA/o.jpg", "categories": [{"alias": "tradamerican", "title": "American (Traditional)"}, {"alias": "pubs", "title": "Pubs"}], "display_phone": "(212) 676-0300", "phone": "+12126760300", "id": "j8DFd-bxnvM_UfHnDLIA0g", "is_closed": false, "location": {"city": "New York", "display_address": ["43 Murray St", "New York, NY 10007"], "country": "US", "address2": "", "address3": "", "state": "NY", "address1": "43 Murray St", "zip_code": "10007"}}, {"rating": 5.0, "review_count": 2, "name": "Vin Sur Vingt", "transactions": [], "url": "https://www.yelp.com/biz/vin-sur-vingt-new-york-8?adjust_creative=yhLoLzsNXKw40xZ5RCWPpA&utm_campaign=yelp_api_v3&utm_medium=api_v3_business_search&utm_source=yhLoLzsNXKw40xZ5RCWPpA", "distance": 360.4902207447919, "coordinates": {"latitude": 40.71466, "longitude": -74.01009}, "alias": "vin-sur-vingt-new-york-8", "image_url": "https://s3-media1.fl.yelpcdn.com/bphoto/6ZXVMocZCSve7eHqF27emQ/o.jpg", "categories": [{"alias": "wine_bars", "title": "Wine Bars"}, {"alias": "french", "title": "French"}], "display_phone": "(917) 265-8678", "phone": "+19172658678", "id": "uzOHuCmbnctOfttjNC7wDg", "is_closed": false, "location": {"city": "New York", "display_address": ["66 W Broadway", "New York, NY 10007"], "country": "US", "address2": null, "address3": "", "state": "NY", "address1": "66 W Broadway", "zip_code": "10007"}}, {"rating": 4.5, "review_count": 31, "name": "Monk Mcginn's", "transactions": ["delivery", "pickup", "restaurant_reservation"], "url": "https://www.yelp.com/biz/monk-mcginns-new-york?adjust_creative=yhLoLzsNXKw40xZ5RCWPpA&utm_campaign=yelp_api_v3&utm_medium=api_v3_business_search&utm_source=yhLoLzsNXKw40xZ5RCWPpA", "distance": 361.6462913759702, "coordinates": {"latitude": 40.71432, "longitude": -74.00972}, "alias": "monk-mcginns-new-york", "image_url": "https://s3-media1.fl.yelpcdn.com/bphoto/ircvXTAPB6emGuy8bo00wA/o.jpg", "categories": [{"alias": "newamerican", "title": "American (New)"}, {"alias": "breakfast_brunch", "title": "Breakfast & Brunch"}, {"alias": "cocktailbars", "title": "Cocktail Bars"}], "display_phone": "(917) 265-8961", "phone": "+19172658961", "id": "F-QQCnbsw48dfx4qVf-WoQ", "is_closed": false, "location": {"city": "New York", "display_address": ["57 Murray St", "New York, NY 10007"], "country": "US", "address2": "", "address3": null, "state": "NY", "address1": "57 Murray St", "zip_code": "10007"}}]}