{"region": {"center": {"latitude": 40.5907459273, "longitude": -74.1433240115}}, "total": 181, "businesses": [{"rating": 5.0, "review_count": 2, "name": "Castleton Corners Pub", "transactions": [], "url": "https://www.yelp.com/biz/castleton-corners-pub-staten-island?adjust_creative=yhLoLzsNXKw40xZ5RCWPpA&utm_campaign=yelp_api_v3&utm_medium=api_v3_business_search&utm_source=yhLoLzsNXKw40xZ5RCWPpA", "price": "$", "distance": 1690.6585260072393, "coordinates": {"latitude": 40.605271, "longitude": -74.149243}, "alias": "castleton-corners-pub-staten-island", "image_url": "https://s3-media1.fl.yelpcdn.com/bphoto/C0MTYTToo1OyRgKTW9qIKQ/o.jpg", "categories": [{"alias": "pubs", "title": "Pubs"}], "display_phone": "(718) 309-2878", "phone": "+17183092878", "id": "AE0bXB5PkzX19PHzb3187Q", "is_closed": false, "location": {"city": "Staten Island", "display_address": ["Staten Island, NY 10314"], "country": "US", "address2": "", "address3": "", "state": "NY", "address1": "", "zip_code": "10314"}}, {"rating": 4.0, "review_count": 36, "name": "1001 Nights Cafe & Lounge", "transactions": [], "url": "https://www.yelp.com/biz/1001-nights-cafe-and-lounge-staten-island-2?adjust_creative=yhLoLzsNXKw40xZ5RCWPpA&utm_campaign=yelp_api_v3&utm_medium=api_v3_business_search&utm_source=yhLoLzsNXKw40xZ5RCWPpA", "price": "$$", "distance": 1776.3273581272829, "coordinates": {"latitude": 40.598235, "longitude": -74.161907}, "alias": "1001-nights-cafe-and-lounge-staten-island-2", "image_url": "https://s3-media2.fl.yelpcdn.com/bphoto/WTYatATXCG5l8vfhO4tnHA/o.jpg", "categories": [{"alias": "cafes", "title": "Cafes"}, {"alias": "hookah_bars", "title": "Hookah Bars"}], "display_phone": "(718) 370-8080", "phone": "+17183708080", "id": "S4I4gRJDH_w-w5s5kzxNkw", "is_closed": false, "location": {"city": "Staten Island", "display_address": ["2025 Richmond Ave", "Staten Island, NY 10314"], "country": "US", "address2": "", "address3": "", "state": "NY", "address1": "2025 Richmond Ave", "zip_code": "10314"}}, {"rating": 5.0, "review_count": 4, "name": "Kasbah Restaurant and Hookah Lounge", "transactions": [], "url": "https://www.yelp.com/biz/kasbah-restaurant-and-hookah-lounge-staten-island?adjust_creative=yhLoLzsNXKw40xZ5RCWPpA&utm_campaign=yelp_api_v3&utm_medium=api_v3_business_search&utm_source=yhLoLzsNXKw40xZ5RCWPpA", "price": "$$", "distance": 1944.118126853521, "coordinates": {"latitude": 40.60054, "longitude": -74.16262}, "alias": "kasbah-restaurant-and-hookah-lounge-staten-island", "image_url": "https://s3-media3.fl.yelpcdn.com/bphoto/fvepWLtY8nQ9D698LVYrZA/o.jpg", "categories": [{"alias": "hookah_bars", "title": "Hookah Bars"}, {"alias": "moroccan", "title": "Moroccan"}], "display_phone": "(646) 752-0529", "phone": "+16467520529", "id": "c5JUY1oBKEsTQV70r0YBlA", "is_closed": false, "location": {"city": "Staten Island", "display_address": ["1949 Richmond Ave", "Staten Island, NY 10314"], "country": "US", "address2": null, "address3": "", "state": "NY", "address1": "1949 Richmond Ave", "zip_code": "10314"}}, {"rating": 2.0, "review_count": 49, "name": "Applebee's Grill + Bar", "transactions": [], "url": "https://www.yelp.com/biz/applebees-grill-bar-staten-island?adjust_creative=yhLoLzsNXKw40xZ5RCWPpA&utm_campaign=yelp_api_v3&utm_medium=api_v3_business_search&utm_source=yhLoLzsNXKw40xZ5RCWPpA", "price": "$$", "distance": 2096.805156348471, "coordinates": {"latitude": 40.5811976, "longitude": -74.164736}, "alias": "applebees-grill-bar-staten-island", "image_url": "https://s3-media3.fl.yelpcdn.com/bphoto/f2qtIquSX8NX9Ff5ZVToDw/o.jpg", "categories": [{"alias": "tradamerican", "title": "American (Traditional)"}, {"alias": "sportsbars", "title": "Sports Bars"}, {"alias": "burgers", "title": "Burgers"}], "display_phone": "(718) 370-3529", "phone": "+17183703529", "id": "HHEI8ZqDfnUx-axQxrmgOg", "is_closed": false, "location": {"city": "Staten Island", "display_address": ["2655 Richmond Ave", "Staten Island, NY 10314"], "country": "US", "address2": "", "address3": null, "state": "NY", "address1": "2655 Richmond Ave", "zip_code": "10314"}}, {"rating": 4.0, "review_count": 51, "name": "Tommy's Tavern + Tap", "transactions": [], "url": "https://www.yelp.com/biz/tommys-tavern-tap-staten-island?adjust_creative=yhLoLzsNXKw40xZ5RCWPpA&utm_campaign=yelp_api_v3&utm_medium=api_v3_business_search&utm_source=yhLoLzsNXKw40xZ5RCWPpA", "distance": 2154.3708196041216, "coordinates": {"latitude": 40.581152, "longitude": -74.1654888}, "alias": "tommys-tavern-tap-staten-island", "image_url": "https://s3-media3.fl.yelpcdn.com/bphoto/Zr0tx5FfAiaVaEKp8Pgp6A/o.jpg", "categories": [{"alias": "pizza", "title": "Pizza"}, {"alias": "bars", "title": "Bars"}, {"alias": "tradamerican", "title": "American (Traditional)"}], "display_phone": "(718) 489-2201", "phone": "+17184892201", "id": "CExfaNN6avB7U_JSRXK0Jw", "is_closed": false, "location": {"city": "Staten Island", "display_address": ["2655 Richmond Ave", "Staten Island, NY 10314"], "country": "US", "address2": "", "address3": null, "state": "NY", "address1": "2655 Richmond Ave", "zip_code": "10314"}}, {"rating": 2.5, "review_count": 190, "name": "Z-one Diner & Lounge", "transactions": ["pickup", "delivery"], "url": "https://www.yelp.com/biz/z-one-diner-and-lounge-staten-island?adjust_creative=yhLoLzsNXKw40xZ5RCWPpA&utm_campaign=yelp_api_v3&utm_medium=api_v3_business_search&utm_source=yhLoLzsNXKw40xZ5RCWPpA", "price": "$$", "distance": 2183.3445606805262, "coordinates": {"latitude": 40.6042956747132, "longitude": -74.1620398207974}, "alias": "z-one-diner-and-lounge-staten-island", "image_url": "https://s3-media3.fl.yelpcdn.com/bphoto/vnkU49AAiDDzM1SzWq62-A/o.jpg", "categories": [{"alias": "lounges", "title": "Lounges"}, {"alias": "diners", "title": "Diners"}], "display_phone": "(718) 494-9100", "phone": "+17184949100", "id": "Q-tDhNaMdsu4Ut1miSe41g", "is_closed": false, "location": {"city": "Staten Island", "display_address": ["1821 Richmond Ave", "Staten Island, NY 10314"], "country": "US", "address2": "", "address3": "", "state": "NY", "address1": "1821 Richmond Ave", "zip_code": "10314"}}, {"rating": 2.5, "review_count": 86, "name": "Dave & Buster's", "transactions": [], "url": "https://www.yelp.com/biz/dave-and-busters-staten-island-3?adjust_creative=yhLoLzsNXKw40xZ5RCWPpA&utm_campaign=yelp_api_v3&utm_medium=api_v3_business_search&utm_source=yhLoLzsNXKw40xZ5RCWPpA", "price": "$$", "distance": 2202.196452559636, "coordinates": {"latitude": 40.5825696506763, "longitude": -74.1670766677368}, "alias": "dave-and-busters-staten-island-3", "image_url": "https://s3-media2.fl.yelpcdn.com/bphoto/YgE4CT8xZG3Z4OR3fQrwQQ/o.jpg", "categories": [{"alias": "arcades", "title": "Arcades"}, {"alias": "tradamerican", "title": "American (Traditional)"}, {"alias": "bars", "title": "Bars"}], "display_phone": "(929) 464-2700", "phone": "+19294642700", "id": "DS4jmiREf7e2F-fa-2RxKA", "is_closed": false, "location": {"city": "Staten Island", "display_address": ["2655 Richmond Ave", "Staten Island, NY 10314"], "country": "US", "address2": "", "address3": null, "state": "NY", "address1": "2655 Richmond Ave", "zip_code": "10314"}}, {"rating": 3.0, "review_count": 194, "name": "Buffalo Wild Wings", "transactions": [], "url": "https://www.yelp.com/biz/buffalo-wild-wings-staten-island?adjust_creative=yhLoLzsNXKw40xZ5RCWPpA&utm_campaign=yelp_api_v3&utm_medium=api_v3_business_search&utm_source=yhLoLzsNXKw40xZ5RCWPpA", "price": "$$", "distance": 2676.674577922325, "coordinates": {"latitude": 40.612004, "longitude": -74.158199}, "alias": "buffalo-wild-wings-staten-island", "image_url": "https://s3-media1.fl.yelpcdn.com/bphoto/oLEVveLnwa38Rpz02vhE9A/o.jpg", "categories": [{"alias": "chicken_wings", "title": "Chicken Wings"}, {"alias": "sportsbars", "title": "Sports Bars"}, {"alias": "tradamerican", "title": "American (Traditional)"}], "display_phone": "(718) 983-6912", "phone": "+17189836912", "id": "NK8X96XzDX4uQZI0nSq80Q", "is_closed": false, "location": {"city": "Staten Island", "display_address": ["1447 Richmond Avenue", "Staten Island, NY 10314"], "country": "US", "address2": "", "address3": "", "state": "NY", "address1": "1447 Richmond Avenue", "zip_code": "10314"}}, {"rating": 3.0, "review_count": 93, "name": "Chili's", "transactions": [], "url": "https://www.yelp.com/biz/chilis-staten-island?adjust_creative=yhLoLzsNXKw40xZ5RCWPpA&utm_campaign=yelp_api_v3&utm_medium=api_v3_business_search&utm_source=yhLoLzsNXKw40xZ5RCWPpA", "price": "$$", "distance": 2680.2345217255006, "coordinates": {"latitude": 40.61148, "longitude": -74.1591}, "alias": "chilis-staten-island", "image_url": "https://s3-media2.fl.yelpcdn.com/bphoto/YhNvIo8qz97P5PSDSzr-vA/o.jpg", "categories": [{"alias": "tradamerican", "title": "American (Traditional)"}, {"alias": "bars", "title": "Bars"}, {"alias": "tex-mex", "title": "Tex-Mex"}], "display_phone": "(718) 697-0883", "phone": "+17186970883", "id": "5jyInUzKKL5m48hyDWeyZQ", "is_closed": false, "location": {"city": "Staten Island", "display_address": ["1497 Richmond Ave", "Staten Island, NY 10314"], "country": "US", "address2": "", "address3": "", "state": "NY", "address1": "1497 Richmond Ave", "zip_code": "10314"}}, {"rating": 3.0, "review_count": 19, "name": "Le Roi", "transactions": [], "url": "https://www.yelp.com/biz/le-roi-staten-island?adjust_creative=yhLoLzsNXKw40xZ5RCWPpA&utm_campaign=yelp_api_v3&utm_medium=api_v3_business_search&utm_source=yhLoLzsNXKw40xZ5RCWPpA", "price": "$", "distance": 2688.855488842871, "coordinates": {"latitude": 40.611921, "longitude": -74.158704}, "alias": "le-roi-staten-island", "image_url": "https://s3-media2.fl.yelpcdn.com/bphoto/yRMUZsV9bHbt3SP2QfOSgw/o.jpg", "categories": [{"alias": "hookah_bars", "title": "Hookah Bars"}], "display_phone": "(718) 983-1900", "phone": "+17189831900", "id": "NxB1TT5AloDQ4Gq0uKoN8A", "is_closed": false, "location": {"city": "Staten Island", "display_address": ["10 Akron Plz", "Staten Island, NY 10314"], "country": "US", "address2": "", "address3": "", "state": "NY", "address1": "10 Akron Plz", "zip_code": "10314"}}, {"rating": 3.0, "review_count": 4, "name": "Legends Pub", "transactions": [], "url": "https://www.yelp.com/biz/legends-pub-staten-island?adjust_creative=yhLoLzsNXKw40xZ5RCWPpA&utm_campaign=yelp_api_v3&utm_medium=api_v3_business_search&utm_source=yhLoLzsNXKw40xZ5RCWPpA", "price": "$", "distance": 2699.1672871059104, "coordinates": {"latitude": 40.612816, "longitude": -74.129932}, "alias": "legends-pub-staten-island", "image_url": "https://s3-media2.fl.yelpcdn.com/bphoto/pDlvubPvFqMC-D-iBhHA3g/o.jpg", "categories": [{"alias": "pubs", "title": "Pubs"}], "display_phone": "(718) 442-1320", "phone": "+17184421320", "id": "aC4TA1Wd_rkEJIKAK5eVrw", "is_closed": false, "location": {"city": "Staten Island", "display_address": ["1975 Victory Blvd", "Staten Island, NY 10314"], "country": "US", "address2": "", "address3": "", "state": "NY", "address1": "1975 Victory Blvd", "zip_code": "10314"}}, {"rating": 2.0, "review_count": 47, "name": "Applebee's Grill + Bar", "transactions": [], "url": "https://www.yelp.com/biz/applebees-grill-bar-staten-island-3?adjust_creative=yhLoLzsNXKw40xZ5RCWPpA&utm_campaign=yelp_api_v3&utm_medium=api_v3_business_search&utm_source=yhLoLzsNXKw40xZ5RCWPpA", "price": "$$", "distance": 2749.051089615395, "coordinates": {"latitude": 40.612566, "longitude": -74.158633}, "alias": "applebees-grill-bar-staten-island-3", "image_url": "https://s3-media2.fl.yelpcdn.com/bphoto/fMBkeeST-QwRP2UDJQwzcA/o.jpg", "categories": [{"alias": "tradamerican", "title": "American (Traditional)"}, {"alias": "sportsbars", "title": "Sports Bars"}, {"alias": "burgers", "title": "Burgers"}], "display_phone": "(718) 477-1300", "phone": "+17184771300", "id": "o3w0vFs4qqumc-UVVFp8WQ", "is_closed": false, "location": {"city": "Staten Island", "display_address": ["1451 Richmond Ave", "Staten Island, NY 10314"], "country": "US", "address2": "", "address3": null, "state": "NY", "address1": "1451 Richmond Ave", "zip_code": "10314"}}, {"rating": 3.0, "review_count": 290, "name": "Miller's Ale House - Staten Island", "transactions": [], "url": "https://www.yelp.com/biz/millers-ale-house-staten-island-staten-island?adjust_creative=yhLoLzsNXKw40xZ5RCWPpA&utm_campaign=yelp_api_v3&utm_medium=api_v3_business_search&utm_source=yhLoLzsNXKw40xZ5RCWPpA", "price": "$$", "distance": 2776.551554391326, "coordinates": {"latitude": 40.5752431032138, "longitude": -74.1690984347537}, "alias": "millers-ale-house-staten-island-staten-island", "image_url": "https://s3-media2.fl.yelpcdn.com/bphoto/S5pQPJySIophXGhOrBgLjA/o.jpg", "categories": [{"alias": "seafood", "title": "Seafood"}, {"alias": "newamerican", "title": "American (New)"}, {"alias": "sportsbars", "title": "Sports Bars"}], "display_phone": "(718) 477-0112", "phone": "+17184770112", "id": "WgWRpL8dyTLA1fBaxzvZ6A", "is_closed": false, "location": {"city": "Staten Island", "display_address": ["2883 Richmond Ave", "Staten Island, NY 10314"], "country": "US", "address2": "", "address3": "", "state": "NY", "address1": "2883 Richmond Ave", "zip_code": "10314"}}, {"rating": 3.5, "review_count": 66, "name": "The Beer Garden", "transactions": ["pickup", "delivery"], "url": "https://www.yelp.com/biz/the-beer-garden-staten-island?adjust_creative=yhLoLzsNXKw40xZ5RCWPpA&utm_campaign=yelp_api_v3&utm_medium=api_v3_business_search&utm_source=yhLoLzsNXKw40xZ5RCWPpA", "price": "$$", "distance": 2857.234005550354, "coordinates": {"latitude": 40.61305, "longitude": -74.12654}, "alias": "the-beer-garden-staten-island", "image_url": "https://s3-media1.fl.yelpcdn.com/bphoto/-wYqAGjYHoZJwLjDa0n--Q/o.jpg", "categories": [{"alias": "tradamerican", "title": "American (Traditional)"}, {"alias": "beerbar", "title": "Beer Bar"}], "display_phone": "(718) 876-8900", "phone": "+17188768900", "id": "iaPPkighwOr9s0LzEC46fA", "is_closed": false, "location": {"city": "Staten Island", "display_address": ["1883 Victory Blvd", "Staten Island, NY 10314"], "country": "US", "address2": "", "address3": "", "state": "NY", "address1": "1883 Victory Blvd", "zip_code": "10314"}}, {"rating": 4.5, "review_count": 13, "name": "R\u00fam\u00ed Caf\u00e9 & Hookah Lounge", "transactions": [], "url": "https://www.yelp.com/biz/r%C3%BAm%C3%AD-caf%C3%A9-and-hookah-lounge-staten-island?adjust_creative=yhLoLzsNXKw40xZ5RCWPpA&utm_campaign=yelp_api_v3&utm_medium=api_v3_business_search&utm_source=yhLoLzsNXKw40xZ5RCWPpA", "price": "$$", "distance": 2859.234095671146, "coordinates": {"latitude": 40.613053, "longitude": -74.126471}, "alias": "r\u00fam\u00ed-caf\u00e9-and-hookah-lounge-staten-island", "image_url": "https://s3-media3.fl.yelpcdn.com/bphoto/qa-iCqrNakgvdN11yLLiuA/o.jpg", "categories": [{"alias": "hookah_bars", "title": "Hookah Bars"}], "display_phone": "(347) 861-0631", "phone": "+13478610631", "id": "A5iYtalRj-Dg9NproiUQxg", "is_closed": false, "location": {"city": "Staten Island", "display_address": ["1881 Victory Blvd", "Staten Island, NY 10314"], "country": "US", "address2": null, "address3": "", "state": "NY", "address1": "1881 Victory Blvd", "zip_code": "10314"}}, {"rating": 4.5, "review_count": 7, "name": "Trackside Bar & Grill", "transactions": [], "url": "https://www.yelp.com/biz/trackside-bar-and-grill-staten-island?adjust_creative=yhLoLzsNXKw40xZ5RCWPpA&utm_campaign=yelp_api_v3&utm_medium=api_v3_business_search&utm_source=yhLoLzsNXKw40xZ5RCWPpA", "price": "$$", "distance": 2878.8185039941345, "coordinates": {"latitude": 40.573701, "longitude": -74.117709}, "alias": "trackside-bar-and-grill-staten-island", "image_url": "https://s3-media1.fl.yelpcdn.com/bphoto/KVZFNoZE6xLwUpTiNW7KJg/o.jpg", "categories": [{"alias": "bars", "title": "Bars"}, {"alias": "tradamerican", "title": "American (Traditional)"}], "display_phone": "(718) 987-6100", "phone": "+17189876100", "id": "EMPeppCdv5WbbeWjL7Dyvg", "is_closed": false, "location": {"city": "Staten Island", "display_address": ["61 New Dorp Plz N", "Staten Island, NY 10306"], "country": "US", "address2": null, "address3": null, "state": "NY", "address1": "61 New Dorp Plz N", "zip_code": "10306"}}, {"rating": 3.5, "review_count": 165, "name": "Fushimi Japanese Restaurant", "transactions": ["pickup", "delivery"], "url": "https://www.yelp.com/biz/fushimi-japanese-restaurant-staten-island?adjust_creative=yhLoLzsNXKw40xZ5RCWPpA&utm_campaign=yelp_api_v3&utm_medium=api_v3_business_search&utm_source=yhLoLzsNXKw40xZ5RCWPpA", "price": "$$", "distance": 2896.6019287347976, "coordinates": {"latitude": 40.581292, "longitude": -74.111488}, "alias": "fushimi-japanese-restaurant-staten-island", "image_url": "https://s3-media3.fl.yelpcdn.com/bphoto/dZTZng2naMW1UABdV-7b3Q/o.jpg", "categories": [{"alias": "japanese", "title": "Japanese"}, {"alias": "lounges", "title": "Lounges"}], "display_phone": "(718) 980-5300", "phone": "+17189805300", "id": "U6kLMaDnq6tBD83U0YHshg", "is_closed": false, "location": {"city": "Staten Island", "display_address": ["2110 Richmond Rd", "Staten Island, NY 10306"], "country": "US", "address2": "", "address3": "", "state": "NY", "address1": "2110 Richmond Rd", "zip_code": "10306"}}, {"rating": 2.5, "review_count": 2, "name": "Night Gallery Dail Tone", "transactions": [], "url": "https://www.yelp.com/biz/night-gallery-dail-tone-staten-island?adjust_creative=yhLoLzsNXKw40xZ5RCWPpA&utm_campaign=yelp_api_v3&utm_medium=api_v3_business_search&utm_source=yhLoLzsNXKw40xZ5RCWPpA", "distance": 2956.911389124016, "coordinates": {"latitude": 40.5737, "longitude": -74.11644}, "alias": "night-gallery-dail-tone-staten-island", "image_url": "https://s3-media3.fl.yelpcdn.com/bphoto/mvdJDMr1XU3-3d1tFqAAiA/o.jpg", "categories": [{"alias": "karaoke", "title": "Karaoke"}], "display_phone": "(718) 667-8330", "phone": "+17186678330", "id": "7pjHUHnDneJ2561ruyFBxg", "is_closed": false, "location": {"city": "Staten Island", "display_address": ["36 New Dorp Plz", "Staten Island, NY 10306"], "country": "US", "address2": "", "address3": "", "state": "NY", "address1": "36 New Dorp Plz", "zip_code": "10306"}}, {"rating": 4.0, "review_count": 143, "name": "Corner House BBQ", "transactions": [], "url": "https://www.yelp.com/biz/corner-house-bbq-staten-island?adjust_creative=yhLoLzsNXKw40xZ5RCWPpA&utm_campaign=yelp_api_v3&utm_medium=api_v3_business_search&utm_source=yhLoLzsNXKw40xZ5RCWPpA", "price": "$$", "distance": 3121.8768615817976, "coordinates": {"latitude": 40.57955, "longitude": -74.10945}, "alias": "corner-house-bbq-staten-island", "image_url": "https://s3-media3.fl.yelpcdn.com/bphoto/bjC0pNVwlvjMetwE2HxjVg/o.jpg", "categories": [{"alias": "bbq", "title": "Barbeque"}, {"alias": "cocktailbars", "title": "Cocktail Bars"}], "display_phone": "(718) 987-1227", "phone": "+17189871227", "id": "x_ojll0Ik-UPyXnSkgFBPQ", "is_closed": false, "location": {"city": "Staten Island", "display_address": ["102 Lincoln Ave", "Staten Island, NY 10306"], "country": "US", "address2": "", "address3": null, "state": "NY", "address1": "102 Lincoln Ave", "zip_code": "10306"}}, {"rating": 3.0, "review_count": 7, "name": "Grant City Tavern", "transactions": [], "url": "https://www.yelp.com/biz/grant-city-tavern-staten-island?adjust_creative=yhLoLzsNXKw40xZ5RCWPpA&utm_campaign=yelp_api_v3&utm_medium=api_v3_business_search&utm_source=yhLoLzsNXKw40xZ5RCWPpA", "price": "$", "distance": 3174.368038412263, "coordinates": {"latitude": 40.5787098781478, "longitude": -74.1092379221847}, "alias": "grant-city-tavern-staten-island", "image_url": "https://s3-media2.fl.yelpcdn.com/bphoto/x5FTguPdlo0Njog732dedw/o.jpg", "categories": [{"alias": "bars", "title": "Bars"}], "display_phone": "(718) 980-1509", "phone": "+17189801509", "id": "mQPxCppbgrnWnqdirTMBQQ", "is_closed": false, "location": {"city": "Staten Island", "display_address": ["132 Fremont Ave", "Staten Island, NY 10306"], "country": "US", "address2": "", "address3": "", "state": "NY", "address1": "132 Fremont Ave", "zip_code": "10306"}}, {"rating": 3.5, "review_count": 4, "name": "Mug Shots", "transactions": [], "url": "https://www.yelp.com/biz/mug-shots-staten-island?adjust_creative=yhLoLzsNXKw40xZ5RCWPpA&utm_campaign=yelp_api_v3&utm_medium=api_v3_business_search&utm_source=yhLoLzsNXKw40xZ5RCWPpA", "price": "$$", "distance": 3368.0519655390685, "coordinates": {"latitude": 40.597564, "longitude": -74.182171}, "alias": "mug-shots-staten-island", "image_url": "https://s3-media2.fl.yelpcdn.com/bphoto/NRxhtEStfJksXbqZvCzrig/o.jpg", "categories": [{"alias": "bars", "title": "Bars"}], "display_phone": "(718) 494-4205", "phone": "+17184944205", "id": "k6MC8NKNGOTyLLOojxIq5A", "is_closed": false, "location": {"city": "Staten Island", "display_address": ["3785 Victory Blvd", "Staten Island, NY 10314"], "country": "US", "address2": "", "address3": "", "state": "NY", "address1": "3785 Victory Blvd", "zip_code": "10314"}}, {"rating": 4.5, "review_count": 6, "name": "Cue Time Billiards", "transactions": [], "url": "https://www.yelp.com/biz/cue-time-billiards-staten-island?adjust_creative=yhLoLzsNXKw40xZ5RCWPpA&utm_campaign=yelp_api_v3&utm_medium=api_v3_business_search&utm_source=yhLoLzsNXKw40xZ5RCWPpA", "price": "$$", "distance": 3412.544474348596, "coordinates": {"latitude": 40.57169, "longitude": -74.11161}, "alias": "cue-time-billiards-staten-island", "image_url": "https://s3-media2.fl.yelpcdn.com/bphoto/C0cBE63yoCca-_yHY1bn2Q/o.jpg", "categories": [{"alias": "poolhalls", "title": "Pool Halls"}], "display_phone": "(718) 987-7176", "phone": "+17189877176", "id": "01cHbMHsFzp4gFpvJmn7rw", "is_closed": false, "location": {"city": "Staten Island", "display_address": ["319 Clawson St", "Staten Island, NY 10306"], "country": "US", "address2": "", "address3": "", "state": "NY", "address1": "319 Clawson St", "zip_code": "10306"}}, {"rating": 4.0, "review_count": 113, "name": "Max's Es-Ca", "transactions": [], "url": "https://www.yelp.com/biz/maxs-es-ca-staten-island-2?adjust_creative=yhLoLzsNXKw40xZ5RCWPpA&utm_campaign=yelp_api_v3&utm_medium=api_v3_business_search&utm_source=yhLoLzsNXKw40xZ5RCWPpA", "price": "$$", "distance": 3556.3888720236696, "coordinates": {"latitude": 40.5915292888837, "longitude": -74.1012184081099}, "alias": "maxs-es-ca-staten-island-2", "image_url": "https://s3-media2.fl.yelpcdn.com/bphoto/sXwSMW262rsIMYR27fVayw/o.jpg", "categories": [{"alias": "italian", "title": "Italian"}, {"alias": "bars", "title": "Bars"}], "display_phone": "(718) 980-5006", "phone": "+17189805006", "id": "jhnqGlxIgXEToKf5mU-xbw", "is_closed": false, "location": {"city": "Staten Island", "display_address": ["1559 Richmond Rd", "Staten Island, NY 10304"], "country": "US", "address2": "", "address3": "", "state": "NY", "address1": "1559 Richmond Rd", "zip_code": "10304"}}, {"rating": 4.0, "review_count": 187, "name": "Violette's Cellar", "transactions": [], "url": "https://www.yelp.com/biz/violettes-cellar-staten-island?adjust_creative=yhLoLzsNXKw40xZ5RCWPpA&utm_campaign=yelp_api_v3&utm_medium=api_v3_business_search&utm_source=yhLoLzsNXKw40xZ5RCWPpA", "price": "$$", "distance": 3636.0360450258954, "coordinates": {"latitude": 40.57547, "longitude": -74.10499}, "alias": "violettes-cellar-staten-island", "image_url": "https://s3-media1.fl.yelpcdn.com/bphoto/e7j7o3R0LN6JWDesUnhbvQ/o.jpg", "categories": [{"alias": "breakfast_brunch", "title": "Breakfast & Brunch"}, {"alias": "tapasmallplates", "title": "Tapas/Small Plates"}, {"alias": "speakeasies", "title": "Speakeasies"}], "display_phone": "(718) 650-5050", "phone": "+17186505050", "id": "0xl3JnEgbA4P6KKfJYup6w", "is_closed": false, "location": {"city": "Staten Island", "display_address": ["2271 Hylan Blvd", "Staten Island, NY 10306"], "country": "US", "address2": null, "address3": "", "state": "NY", "address1": "2271 Hylan Blvd", "zip_code": "10306"}}, {"rating": 2.5, "review_count": 68, "name": "Applebee's Grill + Bar", "transactions": [], "url": "https://www.yelp.com/biz/applebees-grill-bar-staten-island-2?adjust_creative=yhLoLzsNXKw40xZ5RCWPpA&utm_campaign=yelp_api_v3&utm_medium=api_v3_business_search&utm_source=yhLoLzsNXKw40xZ5RCWPpA", "price": "$$", "distance": 3771.6382755900345, "coordinates": {"latitude": 40.569008, "longitude": -74.109041}, "alias": "applebees-grill-bar-staten-island-2", "image_url": "https://s3-media4.fl.yelpcdn.com/bphoto/zBgHKl711DRDvpmzKHt9Eg/o.jpg", "categories": [{"alias": "tradamerican", "title": "American (Traditional)"}, {"alias": "sportsbars", "title": "Sports Bars"}, {"alias": "burgers", "title": "Burgers"}], "display_phone": "(718) 980-7800", "phone": "+17189807800", "id": "40Em52OspMxcAJzsgglY1A", "is_closed": false, "location": {"city": "Staten Island", "display_address": ["430 New Dorp Ln", "Staten Island, NY 10306"], "country": "US", "address2": "", "address3": "", "state": "NY", "address1": "430 New Dorp Ln", "zip_code": "10306"}}, {"rating": 3.5, "review_count": 119, "name": "O'Neills", "transactions": [], "url": "https://www.yelp.com/biz/o-neills-staten-island-2?adjust_creative=yhLoLzsNXKw40xZ5RCWPpA&utm_campaign=yelp_api_v3&utm_medium=api_v3_business_search&utm_source=yhLoLzsNXKw40xZ5RCWPpA", "price": "$$", "distance": 3779.2237913023077, "coordinates": {"latitude": 40.6247252, "longitude": -74.1423442}, "alias": "o-neills-staten-island-2", "image_url": "https://s3-media2.fl.yelpcdn.com/bphoto/jfwMt3nyc7PxKiKwGSfzpw/o.jpg", "categories": [{"alias": "bars", "title": "Bars"}, {"alias": "irish", "title": "Irish"}, {"alias": "tradamerican", "title": "American (Traditional)"}], "display_phone": "(718) 273-4481", "phone": "+17182734481", "id": "y9JeGPMWQo4lt2RW1kDU8Q", "is_closed": false, "location": {"city": "Staten Island", "display_address": ["1614 Forest Ave", "Staten Island, NY 10302"], "country": "US", "address2": "", "address3": "", "state": "NY", "address1": "1614 Forest Ave", "zip_code": "10302"}}, {"rating": 1.0, "review_count": 1, "name": "Tantra Lounge", "transactions": [], "url": "https://www.yelp.com/biz/tantra-lounge-staten-island?adjust_creative=yhLoLzsNXKw40xZ5RCWPpA&utm_campaign=yelp_api_v3&utm_medium=api_v3_business_search&utm_source=yhLoLzsNXKw40xZ5RCWPpA", "distance": 3870.0331177105363, "coordinates": {"latitude": 40.62498, "longitude": -74.13546}, "alias": "tantra-lounge-staten-island", "image_url": "", "categories": [{"alias": "cocktailbars", "title": "Cocktail Bars"}], "display_phone": "(718) 273-7100", "phone": "+17182737100", "id": "51CVvaU0g9CP7tn7tnEl4Q", "is_closed": false, "location": {"city": "Staten Island", "display_address": ["1400 Forest Ave", "Staten Island, NY 10302"], "country": "US", "address2": "", "address3": "", "state": "NY", "address1": "1400 Forest Ave", "zip_code": "10302"}}, {"rating": 3.5, "review_count": 10, "name": "Mother Pugs Saloon", "transactions": [], "url": "https://www.yelp.com/biz/mother-pugs-saloon-staten-island-2?adjust_creative=yhLoLzsNXKw40xZ5RCWPpA&utm_campaign=yelp_api_v3&utm_medium=api_v3_business_search&utm_source=yhLoLzsNXKw40xZ5RCWPpA", "price": "$$", "distance": 3944.206191684504, "coordinates": {"latitude": 40.6256905, "longitude": -74.1353073}, "alias": "mother-pugs-saloon-staten-island-2", "image_url": "https://s3-media3.fl.yelpcdn.com/bphoto/b3DDJrhlKzbp3GHfXmTaKg/o.jpg", "categories": [{"alias": "beer_and_wine", "title": "Beer, Wine & Spirits"}, {"alias": "divebars", "title": "Dive Bars"}], "display_phone": "(718) 442-9831", "phone": "+17184429831", "id": "LqmaxbEWZi2fUO2JNf2pyg", "is_closed": false, "location": {"city": "Staten Island", "display_address": ["1371 Forest Ave", "Staten Island, NY 10310"], "country": "US", "address2": null, "address3": "", "state": "NY", "address1": "1371 Forest Ave", "zip_code": "10310"}}, {"rating": 3.5, "review_count": 41, "name": "Jamdung Restaurant and Bar", "transactions": ["pickup", "delivery"], "url": "https://www.yelp.com/biz/jamdung-restaurant-and-bar-staten-island-2?adjust_creative=yhLoLzsNXKw40xZ5RCWPpA&utm_campaign=yelp_api_v3&utm_medium=api_v3_business_search&utm_source=yhLoLzsNXKw40xZ5RCWPpA", "price": "$$", "distance": 4014.239792414911, "coordinates": {"latitude": 40.62614, "longitude": -74.13363}, "alias": "jamdung-restaurant-and-bar-staten-island-2", "image_url": "https://s3-media2.fl.yelpcdn.com/bphoto/hxfgYW4AHTLwi7aOQHn_uw/o.jpg", "categories": [{"alias": "caribbean", "title": "Caribbean"}, {"alias": "bars", "title": "Bars"}], "display_phone": "(917) 397-8716", "phone": "+19173978716", "id": "Cq-S7989V6gwNkuo_q1N7g", "is_closed": false, "location": {"city": "Staten Island", "display_address": ["1310 Forest Ave", "Staten Island, NY 10302"], "country": "US", "address2": null, "address3": "", "state": "NY", "address1": "1310 Forest Ave", "zip_code": "10302"}}, {"rating": 4.5, "review_count": 424, "name": "Lee's Tavern", "transactions": [], "url": "https://www.yelp.com/biz/lees-tavern-staten-island?adjust_creative=yhLoLzsNXKw40xZ5RCWPpA&utm_campaign=yelp_api_v3&utm_medium=api_v3_business_search&utm_source=yhLoLzsNXKw40xZ5RCWPpA", "price": "$$", "distance": 4071.7605970648033, "coordinates": {"latitude": 40.588756, "longitude": -74.095153}, "alias": "lees-tavern-staten-island", "image_url": "https://s3-media3.fl.yelpcdn.com/bphoto/XzJqQB18-UeZaeWrsHyyGg/o.jpg", "categories": [{"alias": "pizza", "title": "Pizza"}, {"alias": "pubs", "title": "Pubs"}], "display_phone": "(718) 667-9749", "phone": "+17186679749", "id": "U0HmnNv1wJL-dANj_Dq71A", "is_closed": false, "location": {"city": "Staten Island", "display_address": ["60 Hancock St", "Staten Island, NY 10305"], "country": "US", "address2": "", "address3": "", "state": "NY", "address1": "60 Hancock St", "zip_code": "10305"}}, {"rating": 2.0, "review_count": 26, "name": "Showplace Entertainment Center", "transactions": [], "url": "https://www.yelp.com/biz/showplace-entertainment-center-staten-island?adjust_creative=yhLoLzsNXKw40xZ5RCWPpA&utm_campaign=yelp_api_v3&utm_medium=api_v3_business_search&utm_source=yhLoLzsNXKw40xZ5RCWPpA", "price": "$$", "distance": 4090.241437782131, "coordinates": {"latitude": 40.58905, "longitude": -74.191734}, "alias": "showplace-entertainment-center-staten-island", "image_url": "https://s3-media2.fl.yelpcdn.com/bphoto/uk04VrazqcWPD99BnIHpOw/o.jpg", "categories": [{"alias": "poolhalls", "title": "Pool Halls"}, {"alias": "bowling", "title": "Bowling"}], "display_phone": "(718) 477-2695", "phone": "+17184772695", "id": "0TOh9BZ_D41pq5UXCJkfmA", "is_closed": false, "location": {"city": "Staten Island", "display_address": ["141 E Service Rd", "Staten Island, NY 10314"], "country": "US", "address2": "", "address3": "", "state": "NY", "address1": "141 E Service Rd", "zip_code": "10314"}}, {"rating": 4.5, "review_count": 30, "name": "Arabica Hookah Lounge & Restaurant", "transactions": [], "url": "https://www.yelp.com/biz/arabica-hookah-lounge-and-restaurant-staten-island?adjust_creative=yhLoLzsNXKw40xZ5RCWPpA&utm_campaign=yelp_api_v3&utm_medium=api_v3_business_search&utm_source=yhLoLzsNXKw40xZ5RCWPpA", "price": "$$", "distance": 4110.079856210977, "coordinates": {"latitude": 40.59069, "longitude": -74.19193}, "alias": "arabica-hookah-lounge-and-restaurant-staten-island", "image_url": "https://s3-media3.fl.yelpcdn.com/bphoto/f5zBCen_th86wWVT5YF6sw/o.jpg", "categories": [{"alias": "hookah_bars", "title": "Hookah Bars"}], "display_phone": "(718) 982-8888", "phone": "+17189828888", "id": "h1-0766bLvjDABlaWrhDRg", "is_closed": false, "location": {"city": "Staten Island", "display_address": ["4164 Victory Blvd", "Staten Island, NY 10314"], "country": "US", "address2": "", "address3": "", "state": "NY", "address1": "4164 Victory Blvd", "zip_code": "10314"}}, {"rating": 3.0, "review_count": 2, "name": "Funkey Monkey Lounge", "transactions": [], "url": "https://www.yelp.com/biz/funkey-monkey-lounge-port-richmond?adjust_creative=yhLoLzsNXKw40xZ5RCWPpA&utm_campaign=yelp_api_v3&utm_medium=api_v3_business_search&utm_source=yhLoLzsNXKw40xZ5RCWPpA", "distance": 4145.6463372028165, "coordinates": {"latitude": 40.626663, "longitude": -74.130157}, "alias": "funkey-monkey-lounge-port-richmond", "image_url": "https://s3-media3.fl.yelpcdn.com/bphoto/zqGTNGtvISvYCQGgZ-eLPg/o.jpg", "categories": [{"alias": "lounges", "title": "Lounges"}], "display_phone": "(718) 720-5700", "phone": "+17187205700", "id": "dJEuZ8webVjz9V8CLO7WoQ", "is_closed": false, "location": {"city": "Port Richmond", "display_address": ["1205 Forest Ave", "Port Richmond, NY 10310"], "country": "US", "address2": "", "address3": "", "state": "NY", "address1": "1205 Forest Ave", "zip_code": "10310"}}, {"rating": 3.0, "review_count": 121, "name": "Charlie Brown's Steakhouse", "transactions": ["pickup"], "url": "https://www.yelp.com/biz/charlie-browns-steakhouse-staten-island-ny?adjust_creative=yhLoLzsNXKw40xZ5RCWPpA&utm_campaign=yelp_api_v3&utm_medium=api_v3_business_search&utm_source=yhLoLzsNXKw40xZ5RCWPpA", "price": "$$", "distance": 4155.657869743027, "coordinates": {"latitude": 40.622357, "longitude": -74.169584}, "alias": "charlie-browns-steakhouse-staten-island-ny", "image_url": "https://s3-media4.fl.yelpcdn.com/bphoto/0pGLlqNsun-66Qpj4_z1Jw/o.jpg", "categories": [{"alias": "steak", "title": "Steakhouses"}, {"alias": "lounges", "title": "Lounges"}], "display_phone": "(718) 494-0197", "phone": "+17184940197", "id": "mTnJOTwvCroUqSm6H_dkYQ", "is_closed": false, "location": {"city": "Staten Island NY", "display_address": ["1001 Goethals Rd N", "Staten Island NY, NY 10303"], "country": "US", "address2": null, "address3": "", "state": "NY", "address1": "1001 Goethals Rd N", "zip_code": "10303"}}, {"rating": 5.0, "review_count": 7, "name": "Crimmins Ale House", "transactions": [], "url": "https://www.yelp.com/biz/crimmins-ale-house-staten-island?adjust_creative=yhLoLzsNXKw40xZ5RCWPpA&utm_campaign=yelp_api_v3&utm_medium=api_v3_business_search&utm_source=yhLoLzsNXKw40xZ5RCWPpA", "distance": 4180.040895078712, "coordinates": {"latitude": 40.62648, "longitude": -74.12802}, "alias": "crimmins-ale-house-staten-island", "image_url": "https://s3-media4.fl.yelpcdn.com/bphoto/OAW_doUXx8-_ONqOdHW7Iw/o.jpg", "categories": [{"alias": "pubs", "title": "Pubs"}], "display_phone": "(929) 308-2397", "phone": "+19293082397", "id": "gDNiQs9_8DeWVCUJuWgMJA", "is_closed": false, "location": {"city": "Staten Island", "display_address": ["1144 Forest Ave", "Staten Island, NY 10310"], "country": "US", "address2": null, "address3": "", "state": "NY", "address1": "1144 Forest Ave", "zip_code": "10310"}}, {"rating": 4.5, "review_count": 34, "name": "Riviera Mediterranean Cuisine", "transactions": ["pickup"], "url": "https://www.yelp.com/biz/riviera-mediterranean-cuisine-staten-island?adjust_creative=yhLoLzsNXKw40xZ5RCWPpA&utm_campaign=yelp_api_v3&utm_medium=api_v3_business_search&utm_source=yhLoLzsNXKw40xZ5RCWPpA", "price": "$$$", "distance": 4227.28386941422, "coordinates": {"latitude": 40.58453, "longitude": -74.09401}, "alias": "riviera-mediterranean-cuisine-staten-island", "image_url": "https://s3-media2.fl.yelpcdn.com/bphoto/aWRQlKZEDYWrmZTnTb_nSg/o.jpg", "categories": [{"alias": "mediterranean", "title": "Mediterranean"}, {"alias": "bars", "title": "Bars"}, {"alias": "italian", "title": "Italian"}], "display_phone": "(347) 466-5636", "phone": "+13474665636", "id": "I80lqtQ2nncBKpVbuMUayA", "is_closed": false, "location": {"city": "Staten Island", "display_address": ["1828 Hylan Blvd", "Staten Island, NY 10305"], "country": "US", "address2": null, "address3": "", "state": "NY", "address1": "1828 Hylan Blvd", "zip_code": "10305"}}, {"rating": 4.0, "review_count": 175, "name": "Michael's Martinis & Meatballs", "transactions": ["pickup"], "url": "https://www.yelp.com/biz/michaels-martinis-and-meatballs-staten-island?adjust_creative=yhLoLzsNXKw40xZ5RCWPpA&utm_campaign=yelp_api_v3&utm_medium=api_v3_business_search&utm_source=yhLoLzsNXKw40xZ5RCWPpA", "price": "$$", "distance": 4247.691580776012, "coordinates": {"latitude": 40.584706, "longitude": -74.093654}, "alias": "michaels-martinis-and-meatballs-staten-island", "image_url": "https://s3-media4.fl.yelpcdn.com/bphoto/P2XU4XNzane6bgQrziljAg/o.jpg", "categories": [{"alias": "italian", "title": "Italian"}, {"alias": "breakfast_brunch", "title": "Breakfast & Brunch"}, {"alias": "cocktailbars", "title": "Cocktail Bars"}], "display_phone": "(347) 695-8160", "phone": "+13476958160", "id": "fxjygBjQqWSE71Ref2s0oA", "is_closed": false, "location": {"city": "Staten Island", "display_address": ["1816 Hylan Blvd", "Staten Island, NY 10305"], "country": "US", "address2": "", "address3": "", "state": "NY", "address1": "1816 Hylan Blvd", "zip_code": "10305"}}, {"rating": 3.5, "review_count": 59, "name": "Joe Broadway's Billiards & Sports Pub", "transactions": ["pickup"], "url": "https://www.yelp.com/biz/joe-broadways-billiards-and-sports-pub-staten-island?adjust_creative=yhLoLzsNXKw40xZ5RCWPpA&utm_campaign=yelp_api_v3&utm_medium=api_v3_business_search&utm_source=yhLoLzsNXKw40xZ5RCWPpA", "price": "$$", "distance": 4251.115543711604, "coordinates": {"latitude": 40.62625, "longitude": -74.16215}, "alias": "joe-broadways-billiards-and-sports-pub-staten-island", "image_url": "https://s3-media3.fl.yelpcdn.com/bphoto/Ue4zqL1elrbrvbjkNp7vug/o.jpg", "categories": [{"alias": "sportsbars", "title": "Sports Bars"}, {"alias": "tradamerican", "title": "American (Traditional)"}], "display_phone": "(718) 727-9194", "phone": "+17187279194", "id": "9RhEM1AqO0Fdi6cmJQ5mwQ", "is_closed": false, "location": {"city": "Staten Island", "display_address": ["2178 Forest Ave", "Staten Island, NY 10303"], "country": "US", "address2": "", "address3": "", "state": "NY", "address1": "2178 Forest Ave", "zip_code": "10303"}}, {"rating": 1.0, "review_count": 2, "name": "Sparks Country Entertainment", "transactions": [], "url": "https://www.yelp.com/biz/sparks-country-entertainment-staten-island-2?adjust_creative=yhLoLzsNXKw40xZ5RCWPpA&utm_campaign=yelp_api_v3&utm_medium=api_v3_business_search&utm_source=yhLoLzsNXKw40xZ5RCWPpA", "distance": 4305.786339535526, "coordinates": {"latitude": 40.55455, "longitude": -74.1613}, "alias": "sparks-country-entertainment-staten-island-2", "image_url": "https://s3-media1.fl.yelpcdn.com/bphoto/tXW3YicwnKhtxkDhJ6Pz9w/o.jpg", "categories": [{"alias": "musicvenues", "title": "Music Venues"}, {"alias": "danceclubs", "title": "Dance Clubs"}, {"alias": "karaoke", "title": "Karaoke"}], "display_phone": "(718) 873-3333", "phone": "+17188733333", "id": "3roOxSJH6ro4wOf3XTHlxw", "is_closed": false, "location": {"city": "Staten Island", "display_address": ["17 Middle Loop Rd", "Staten Island, NY 10308"], "country": "US", "address2": "", "address3": null, "state": "NY", "address1": "17 Middle Loop Rd", "zip_code": "10308"}}, {"rating": 3.5, "review_count": 2, "name": "Koten's Carribean & American Restaurant & Bar", "transactions": [], "url": "https://www.yelp.com/biz/kotens-carribean-and-american-restaurant-and-bar-staten-island?adjust_creative=yhLoLzsNXKw40xZ5RCWPpA&utm_campaign=yelp_api_v3&utm_medium=api_v3_business_search&utm_source=yhLoLzsNXKw40xZ5RCWPpA", "distance": 4338.034612516692, "coordinates": {"latitude": 40.62973, "longitude": -74.14037}, "alias": "kotens-carribean-and-american-restaurant-and-bar-staten-island", "image_url": "https://s3-media3.fl.yelpcdn.com/bphoto/a_WEf0Sl6GwQrUB3kuubZw/o.jpg", "categories": [{"alias": "caribbean", "title": "Caribbean"}, {"alias": "bars", "title": "Bars"}], "display_phone": "(929) 364-1273", "phone": "+19293641273", "id": "in31TfI3MZy1UQ6aAzGJcA", "is_closed": false, "location": {"city": "Staten Island", "display_address": ["537 Port Richmond Ave", "Staten Island, NY 10302"], "country": "US", "address2": null, "address3": "", "state": "NY", "address1": "537 Port Richmond Ave", "zip_code": "10302"}}, {"rating": 4.0, "review_count": 208, "name": "The Original Goodfella's Brick Oven Pizza", "transactions": ["pickup", "delivery"], "url": "https://www.yelp.com/biz/the-original-goodfellas-brick-oven-pizza-staten-island-2?adjust_creative=yhLoLzsNXKw40xZ5RCWPpA&utm_campaign=yelp_api_v3&utm_medium=api_v3_business_search&utm_source=yhLoLzsNXKw40xZ5RCWPpA", "price": "$$", "distance": 4403.399398840934, "coordinates": {"latitude": 40.586785, "longitude": -74.091438}, "alias": "the-original-goodfellas-brick-oven-pizza-staten-island-2", "image_url": "https://s3-media1.fl.yelpcdn.com/bphoto/aJmesgdjYpnN09bGXNeWtQ/o.jpg", "categories": [{"alias": "pizza", "title": "Pizza"}, {"alias": "italian", "title": "Italian"}, {"alias": "bars", "title": "Bars"}], "display_phone": "(718) 987-2422", "phone": "+17189872422", "id": "461hss6jSwjN8FdiZgN6wA", "is_closed": false, "location": {"city": "Staten Island", "display_address": ["1718 Hylan Blvd", "Staten Island, NY 10305"], "country": "US", "address2": "", "address3": "", "state": "NY", "address1": "1718 Hylan Blvd", "zip_code": "10305"}}, {"rating": 4.0, "review_count": 16, "name": "Talk of the Town Tavern", "transactions": [], "url": "https://www.yelp.com/biz/talk-of-the-town-tavern-staten-island?adjust_creative=yhLoLzsNXKw40xZ5RCWPpA&utm_campaign=yelp_api_v3&utm_medium=api_v3_business_search&utm_source=yhLoLzsNXKw40xZ5RCWPpA", "price": "$", "distance": 4426.228520221536, "coordinates": {"latitude": 40.55133, "longitude": -74.1506}, "alias": "talk-of-the-town-tavern-staten-island", "image_url": "https://s3-media2.fl.yelpcdn.com/bphoto/l6wRXoBtjy1l-xiLP01Ajg/o.jpg", "categories": [{"alias": "bars", "title": "Bars"}], "display_phone": "(718) 948-9442", "phone": "+17189489442", "id": "ZasGU3Njb5dcZilSDD_9_Q", "is_closed": false, "location": {"city": "Staten Island", "display_address": ["24 Giffords Ln", "Staten Island, NY 10308"], "country": "US", "address2": "", "address3": "", "state": "NY", "address1": "24 Giffords Ln", "zip_code": "10308"}}, {"rating": 4.0, "review_count": 59, "name": "Mimmo's Brick Oven Pizza and Trattoria", "transactions": ["pickup", "delivery"], "url": "https://www.yelp.com/biz/mimmos-brick-oven-pizza-and-trattoria-staten-island?adjust_creative=yhLoLzsNXKw40xZ5RCWPpA&utm_campaign=yelp_api_v3&utm_medium=api_v3_business_search&utm_source=yhLoLzsNXKw40xZ5RCWPpA", "price": "$$", "distance": 4432.099535608968, "coordinates": {"latitude": 40.5511278659105, "longitude": -74.1502368450165}, "alias": "mimmos-brick-oven-pizza-and-trattoria-staten-island", "image_url": "https://s3-media1.fl.yelpcdn.com/bphoto/AbhKR2YSpEM429xzYu3C9g/o.jpg", "categories": [{"alias": "pizza", "title": "Pizza"}, {"alias": "bars", "title": "Bars"}], "display_phone": "(718) 967-6560", "phone": "+17189676560", "id": "hSfJ5n_jAduyLV2uxPcEaQ", "is_closed": false, "location": {"city": "Staten Island", "display_address": ["15 Giffords Ln", "Staten Island, NY 10308"], "country": "US", "address2": "", "address3": null, "state": "NY", "address1": "15 Giffords Ln", "zip_code": "10308"}}, {"rating": 5.0, "review_count": 2, "name": "The Sand Bar NYC", "transactions": [], "url": "https://www.yelp.com/biz/the-sand-bar-nyc-staten-island?adjust_creative=yhLoLzsNXKw40xZ5RCWPpA&utm_campaign=yelp_api_v3&utm_medium=api_v3_business_search&utm_source=yhLoLzsNXKw40xZ5RCWPpA", "price": "$$", "distance": 4475.758928014814, "coordinates": {"latitude": 40.5878753662109, "longitude": -74.0904541015625}, "alias": "the-sand-bar-nyc-staten-island", "image_url": "", "categories": [{"alias": "danceclubs", "title": "Dance Clubs"}, {"alias": "juicebars", "title": "Juice Bars & Smoothies"}], "display_phone": "(718) 885-7768", "phone": "+17188857768", "id": "VeOlXOcSDjzgzypv5o7_HA", "is_closed": false, "location": {"city": "Staten Island", "display_address": ["1664 Hylan Blvd", "Staten Island, NY 10305"], "country": "US", "address2": null, "address3": null, "state": "NY", "address1": "1664 Hylan Blvd", "zip_code": "10305"}}, {"rating": 4.5, "review_count": 49, "name": "Griff's Place", "transactions": [], "url": "https://www.yelp.com/biz/griffs-place-new-dorp-beach?adjust_creative=yhLoLzsNXKw40xZ5RCWPpA&utm_campaign=yelp_api_v3&utm_medium=api_v3_business_search&utm_source=yhLoLzsNXKw40xZ5RCWPpA", "price": "$$", "distance": 4563.0739371830305, "coordinates": {"latitude": 40.5656772, "longitude": -74.100421}, "alias": "griffs-place-new-dorp-beach", "image_url": "https://s3-media4.fl.yelpcdn.com/bphoto/jdAG7kGMj_-7rbdZrgfOPw/o.jpg", "categories": [{"alias": "sportsbars", "title": "Sports Bars"}, {"alias": "tradamerican", "title": "American (Traditional)"}, {"alias": "desserts", "title": "Desserts"}], "display_phone": "(718) 668-2645", "phone": "+17186682645", "id": "eMMF_kyHQIrX_An67wYcpA", "is_closed": false, "location": {"city": "New Dorp Beach", "display_address": ["704 New Dorp Ln", "New Dorp Beach, NY 10306"], "country": "US", "address2": "", "address3": "", "state": "NY", "address1": "704 New Dorp Ln", "zip_code": "10306"}}, {"rating": 4.5, "review_count": 25, "name": "Ni-Ni's Cafe & P K's Lounge", "transactions": [], "url": "https://www.yelp.com/biz/ni-nis-cafe-and-p-ks-lounge-staten-island?adjust_creative=yhLoLzsNXKw40xZ5RCWPpA&utm_campaign=yelp_api_v3&utm_medium=api_v3_business_search&utm_source=yhLoLzsNXKw40xZ5RCWPpA", "price": "$$", "distance": 4586.298543474359, "coordinates": {"latitude": 40.5656, "longitude": -74.10028}, "alias": "ni-nis-cafe-and-p-ks-lounge-staten-island", "image_url": "https://s3-media3.fl.yelpcdn.com/bphoto/Og5F3X0IKKJVh4P6JhcpAA/o.jpg", "categories": [{"alias": "italian", "title": "Italian"}, {"alias": "bars", "title": "Bars"}], "display_phone": "(718) 351-9024", "phone": "+17183519024", "id": "aAtvVg47QY6CqPZBUVAmGg", "is_closed": false, "location": {"city": "Staten Island", "display_address": ["710 New Dorp Ln", "Staten Island, NY 10306"], "country": "US", "address2": "", "address3": "", "state": "NY", "address1": "710 New Dorp Ln", "zip_code": "10306"}}, {"rating": 1.0, "review_count": 2, "name": "Island Pour House", "transactions": [], "url": "https://www.yelp.com/biz/island-pour-house-staten-island?adjust_creative=yhLoLzsNXKw40xZ5RCWPpA&utm_campaign=yelp_api_v3&utm_medium=api_v3_business_search&utm_source=yhLoLzsNXKw40xZ5RCWPpA", "distance": 4649.309929847269, "coordinates": {"latitude": 40.5493499, "longitude": -74.15081}, "alias": "island-pour-house-staten-island", "image_url": "", "categories": [{"alias": "bars", "title": "Bars"}, {"alias": "tapasmallplates", "title": "Tapas/Small Plates"}, {"alias": "burgers", "title": "Burgers"}], "display_phone": "", "phone": "", "id": "P7dPmU8X8G59jQ8iEcYPuA", "is_closed": false, "location": {"city": "Staten Island", "display_address": ["18 Nelson Ave", "Staten Island, NY 10308"], "country": "US", "address2": "", "address3": null, "state": "NY", "address1": "18 Nelson Ave", "zip_code": "10308"}}, {"rating": 3.5, "review_count": 3, "name": "Bungalow 18", "transactions": [], "url": "https://www.yelp.com/biz/bungalow-18-staten-island?adjust_creative=yhLoLzsNXKw40xZ5RCWPpA&utm_campaign=yelp_api_v3&utm_medium=api_v3_business_search&utm_source=yhLoLzsNXKw40xZ5RCWPpA", "price": "$$", "distance": 4649.075118327095, "coordinates": {"latitude": 40.54933, "longitude": -74.150932}, "alias": "bungalow-18-staten-island", "image_url": "", "categories": [{"alias": "bars", "title": "Bars"}], "display_phone": "", "phone": "", "id": "9P1da5n7f3E2vI500g9kQg", "is_closed": false, "location": {"city": "Staten Island", "display_address": ["18 Nelson Ave", "Staten Island, NY 10308"], "country": "US", "address2": null, "address3": "", "state": "NY", "address1": "18 Nelson Ave", "zip_code": "10308"}}, {"rating": 5.0, "review_count": 1, "name": "Ground Level Pub & Grub", "transactions": [], "url": "https://www.yelp.com/biz/ground-level-pub-and-grub-staten-island?adjust_creative=yhLoLzsNXKw40xZ5RCWPpA&utm_campaign=yelp_api_v3&utm_medium=api_v3_business_search&utm_source=yhLoLzsNXKw40xZ5RCWPpA", "distance": 4661.39884925858, "coordinates": {"latitude": 40.631871, "longitude": -74.132776}, "alias": "ground-level-pub-and-grub-staten-island", "image_url": "", "categories": [{"alias": "pubs", "title": "Pubs"}], "display_phone": "(718) 442-9307", "phone": "+17184429307", "id": "n8N9WOseNIYJQYCXA6tdtg", "is_closed": false, "location": {"city": "Staten Island", "display_address": ["958 Post Ave", "Staten Island, NY 10302"], "country": "US", "address2": null, "address3": null, "state": "NY", "address1": "958 Post Ave", "zip_code": "10302"}}, {"rating": 4.0, "review_count": 6, "name": "Rusty's", "transactions": [], "url": "https://www.yelp.com/biz/rustys-staten-island?adjust_creative=yhLoLzsNXKw40xZ5RCWPpA&utm_campaign=yelp_api_v3&utm_medium=api_v3_business_search&utm_source=yhLoLzsNXKw40xZ5RCWPpA", "price": "$$", "distance": 4711.496208289357, "coordinates": {"latitude": 40.62888, "longitude": -74.11889}, "alias": "rustys-staten-island", "image_url": "https://s3-media1.fl.yelpcdn.com/bphoto/wj-uJyv7txso6TeAQVsXmQ/o.jpg", "categories": [{"alias": "bars", "title": "Bars"}], "display_phone": "(718) 273-5501", "phone": "+17182735501", "id": "dh-k8RkUoNbks_YfKZzXEg", "is_closed": false, "location": {"city": "Staten Island", "display_address": ["879 Forest Ave", "Staten Island, NY 10310"], "country": "US", "address2": "", "address3": "", "state": "NY", "address1": "879 Forest Ave", "zip_code": "10310"}}]}