{"region": {"center": {"latitude": 40.6266750681, "longitude": -74.1203559265}}, "total": 251, "businesses": [{"rating": 4.0, "review_count": 6, "name": "Rusty's", "transactions": [], "url": "https://www.yelp.com/biz/rustys-staten-island?adjust_creative=yhLoLzsNXKw40xZ5RCWPpA&utm_campaign=yelp_api_v3&utm_medium=api_v3_business_search&utm_source=yhLoLzsNXKw40xZ5RCWPpA", "price": "$$", "distance": 270.74334449424015, "coordinates": {"latitude": 40.62888, "longitude": -74.11889}, "alias": "rustys-staten-island", "image_url": "https://s3-media1.fl.yelpcdn.com/bphoto/wj-uJyv7txso6TeAQVsXmQ/o.jpg", "categories": [{"alias": "bars", "title": "Bars"}], "display_phone": "(718) 273-5501", "phone": "+17182735501", "id": "dh-k8RkUoNbks_YfKZzXEg", "is_closed": false, "location": {"city": "Staten Island", "display_address": ["879 Forest Ave", "Staten Island, NY 10310"], "country": "US", "address2": "", "address3": "", "state": "NY", "address1": "879 Forest Ave", "zip_code": "10310"}}, {"rating": 5.0, "review_count": 7, "name": "Crimmins Ale House", "transactions": [], "url": "https://www.yelp.com/biz/crimmins-ale-house-staten-island?adjust_creative=yhLoLzsNXKw40xZ5RCWPpA&utm_campaign=yelp_api_v3&utm_medium=api_v3_business_search&utm_source=yhLoLzsNXKw40xZ5RCWPpA", "distance": 653.9602585442839, "coordinates": {"latitude": 40.62648, "longitude": -74.12802}, "alias": "crimmins-ale-house-staten-island", "image_url": "https://s3-media4.fl.yelpcdn.com/bphoto/OAW_doUXx8-_ONqOdHW7Iw/o.jpg", "categories": [{"alias": "pubs", "title": "Pubs"}], "display_phone": "(929) 308-2397", "phone": "+19293082397", "id": "gDNiQs9_8DeWVCUJuWgMJA", "is_closed": false, "location": {"city": "Staten Island", "display_address": ["1144 Forest Ave", "Staten Island, NY 10310"], "country": "US", "address2": null, "address3": "", "state": "NY", "address1": "1144 Forest Ave", "zip_code": "10310"}}, {"rating": 3.0, "review_count": 2, "name": "Funkey Monkey Lounge", "transactions": [], "url": "https://www.yelp.com/biz/funkey-monkey-lounge-port-richmond?adjust_creative=yhLoLzsNXKw40xZ5RCWPpA&utm_campaign=yelp_api_v3&utm_medium=api_v3_business_search&utm_source=yhLoLzsNXKw40xZ5RCWPpA", "distance": 826.8931623324038, "coordinates": {"latitude": 40.626663, "longitude": -74.130157}, "alias": "funkey-monkey-lounge-port-richmond", "image_url": "https://s3-media3.fl.yelpcdn.com/bphoto/zqGTNGtvISvYCQGgZ-eLPg/o.jpg", "categories": [{"alias": "lounges", "title": "Lounges"}], "display_phone": "(718) 720-5700", "phone": "+17187205700", "id": "dJEuZ8webVjz9V8CLO7WoQ", "is_closed": false, "location": {"city": "Port Richmond", "display_address": ["1205 Forest Ave", "Port Richmond, NY 10310"], "country": "US", "address2": "", "address3": "", "state": "NY", "address1": "1205 Forest Ave", "zip_code": "10310"}}, {"rating": 4.0, "review_count": 117, "name": "Duffy's Tavern", "transactions": [], "url": "https://www.yelp.com/biz/duffys-tavern-staten-island?adjust_creative=yhLoLzsNXKw40xZ5RCWPpA&utm_campaign=yelp_api_v3&utm_medium=api_v3_business_search&utm_source=yhLoLzsNXKw40xZ5RCWPpA", "price": "$$", "distance": 869.7708409498807, "coordinates": {"latitude": 40.6295356750488, "longitude": -74.1106872558594}, "alias": "duffys-tavern-staten-island", "image_url": "https://s3-media2.fl.yelpcdn.com/bphoto/l-geZEVZ21DEiXfC_61NqA/o.jpg", "categories": [{"alias": "pubs", "title": "Pubs"}, {"alias": "irish", "title": "Irish"}], "display_phone": "(718) 447-9276", "phone": "+17184479276", "id": "96zQLCoZ66Nbu-w1ddetqQ", "is_closed": false, "location": {"city": "Staten Island", "display_address": ["650 Forest Ave", "Staten Island, NY 10314"], "country": "US", "address2": "", "address3": "", "state": "NY", "address1": "650 Forest Ave", "zip_code": "10314"}}, {"rating": 3.0, "review_count": 174, "name": "Burrito Bar", "transactions": [], "url": "https://www.yelp.com/biz/burrito-bar-staten-island?adjust_creative=yhLoLzsNXKw40xZ5RCWPpA&utm_campaign=yelp_api_v3&utm_medium=api_v3_business_search&utm_source=yhLoLzsNXKw40xZ5RCWPpA", "price": "$$", "distance": 1059.8681323194771, "coordinates": {"latitude": 40.630321, "longitude": -74.108752}, "alias": "burrito-bar-staten-island", "image_url": "https://s3-media1.fl.yelpcdn.com/bphoto/xUOtrzNtCWdeR0qoF2hQ0A/o.jpg", "categories": [{"alias": "mexican", "title": "Mexican"}, {"alias": "bars", "title": "Bars"}], "display_phone": "(718) 815-9200", "phone": "+17188159200", "id": "fiq7MmwYOPuKzDrZEmD6TQ", "is_closed": false, "location": {"city": "Staten Island", "display_address": ["585 Forest Ave", "Staten Island, NY 10310"], "country": "US", "address2": "", "address3": "", "state": "NY", "address1": "585 Forest Ave", "zip_code": "10310"}}, {"rating": 3.5, "review_count": 41, "name": "Jamdung Restaurant and Bar", "transactions": ["delivery", "pickup"], "url": "https://www.yelp.com/biz/jamdung-restaurant-and-bar-staten-island-2?adjust_creative=yhLoLzsNXKw40xZ5RCWPpA&utm_campaign=yelp_api_v3&utm_medium=api_v3_business_search&utm_source=yhLoLzsNXKw40xZ5RCWPpA", "price": "$$", "distance": 1124.8901871296755, "coordinates": {"latitude": 40.62614, "longitude": -74.13363}, "alias": "jamdung-restaurant-and-bar-staten-island-2", "image_url": "https://s3-media2.fl.yelpcdn.com/bphoto/hxfgYW4AHTLwi7aOQHn_uw/o.jpg", "categories": [{"alias": "caribbean", "title": "Caribbean"}, {"alias": "bars", "title": "Bars"}], "display_phone": "(917) 397-8716", "phone": "+19173978716", "id": "Cq-S7989V6gwNkuo_q1N7g", "is_closed": false, "location": {"city": "Staten Island", "display_address": ["1310 Forest Ave", "Staten Island, NY 10302"], "country": "US", "address2": null, "address3": "", "state": "NY", "address1": "1310 Forest Ave", "zip_code": "10302"}}, {"rating": 5.0, "review_count": 1, "name": "Ground Level Pub & Grub", "transactions": [], "url": "https://www.yelp.com/biz/ground-level-pub-and-grub-staten-island?adjust_creative=yhLoLzsNXKw40xZ5RCWPpA&utm_campaign=yelp_api_v3&utm_medium=api_v3_business_search&utm_source=yhLoLzsNXKw40xZ5RCWPpA", "distance": 1198.5751606905012, "coordinates": {"latitude": 40.631871, "longitude": -74.132776}, "alias": "ground-level-pub-and-grub-staten-island", "image_url": "", "categories": [{"alias": "pubs", "title": "Pubs"}], "display_phone": "(718) 442-9307", "phone": "+17184429307", "id": "n8N9WOseNIYJQYCXA6tdtg", "is_closed": false, "location": {"city": "Staten Island", "display_address": ["958 Post Ave", "Staten Island, NY 10302"], "country": "US", "address2": null, "address3": null, "state": "NY", "address1": "958 Post Ave", "zip_code": "10302"}}, {"rating": 3.5, "review_count": 10, "name": "Mother Pugs Saloon", "transactions": [], "url": "https://www.yelp.com/biz/mother-pugs-saloon-staten-island-2?adjust_creative=yhLoLzsNXKw40xZ5RCWPpA&utm_campaign=yelp_api_v3&utm_medium=api_v3_business_search&utm_source=yhLoLzsNXKw40xZ5RCWPpA", "price": "$$", "distance": 1266.5158746649727, "coordinates": {"latitude": 40.6256905, "longitude": -74.1353073}, "alias": "mother-pugs-saloon-staten-island-2", "image_url": "https://s3-media3.fl.yelpcdn.com/bphoto/b3DDJrhlKzbp3GHfXmTaKg/o.jpg", "categories": [{"alias": "beer_and_wine", "title": "Beer, Wine & Spirits"}, {"alias": "divebars", "title": "Dive Bars"}], "display_phone": "(718) 442-9831", "phone": "+17184429831", "id": "LqmaxbEWZi2fUO2JNf2pyg", "is_closed": false, "location": {"city": "Staten Island", "display_address": ["1371 Forest Ave", "Staten Island, NY 10310"], "country": "US", "address2": null, "address3": "", "state": "NY", "address1": "1371 Forest Ave", "zip_code": "10310"}}, {"rating": 1.0, "review_count": 1, "name": "Tantra Lounge", "transactions": [], "url": "https://www.yelp.com/biz/tantra-lounge-staten-island?adjust_creative=yhLoLzsNXKw40xZ5RCWPpA&utm_campaign=yelp_api_v3&utm_medium=api_v3_business_search&utm_source=yhLoLzsNXKw40xZ5RCWPpA", "distance": 1287.797524608355, "coordinates": {"latitude": 40.62498, "longitude": -74.13546}, "alias": "tantra-lounge-staten-island", "image_url": "", "categories": [{"alias": "cocktailbars", "title": "Cocktail Bars"}], "display_phone": "(718) 273-7100", "phone": "+17182737100", "id": "51CVvaU0g9CP7tn7tnEl4Q", "is_closed": false, "location": {"city": "Staten Island", "display_address": ["1400 Forest Ave", "Staten Island, NY 10302"], "country": "US", "address2": "", "address3": "", "state": "NY", "address1": "1400 Forest Ave", "zip_code": "10302"}}, {"rating": 4.5, "review_count": 187, "name": "Nurnberger Bierhaus", "transactions": [], "url": "https://www.yelp.com/biz/nurnberger-bierhaus-staten-island?adjust_creative=yhLoLzsNXKw40xZ5RCWPpA&utm_campaign=yelp_api_v3&utm_medium=api_v3_business_search&utm_source=yhLoLzsNXKw40xZ5RCWPpA", "price": "$$", "distance": 1288.2975398692463, "coordinates": {"latitude": 40.63482, "longitude": -74.10961}, "alias": "nurnberger-bierhaus-staten-island", "image_url": "https://s3-media4.fl.yelpcdn.com/bphoto/TF-lB-oYYTT3JMPc6yxoWA/o.jpg", "categories": [{"alias": "german", "title": "German"}, {"alias": "bars", "title": "Bars"}], "display_phone": "(718) 816-7461", "phone": "+17188167461", "id": "-BmS1FH3DSK6fSifIt8GgQ", "is_closed": false, "location": {"city": "Staten Island", "display_address": ["817 Castleton Ave", "Staten Island, NY 10310"], "country": "US", "address2": "", "address3": "", "state": "NY", "address1": "817 Castleton Ave", "zip_code": "10310"}}, {"rating": 4.0, "review_count": 22, "name": "The Randall Manor Tavern", "transactions": [], "url": "https://www.yelp.com/biz/the-randall-manor-tavern-staten-island?adjust_creative=yhLoLzsNXKw40xZ5RCWPpA&utm_campaign=yelp_api_v3&utm_medium=api_v3_business_search&utm_source=yhLoLzsNXKw40xZ5RCWPpA", "price": "$$", "distance": 1419.8781524509814, "coordinates": {"latitude": 40.634885, "longitude": -74.107469}, "alias": "the-randall-manor-tavern-staten-island", "image_url": "https://s3-media4.fl.yelpcdn.com/bphoto/YVdup16oxfBWYZRKPS81vA/o.jpg", "categories": [{"alias": "bars", "title": "Bars"}, {"alias": "newamerican", "title": "American (New)"}], "display_phone": "(347) 855-2724", "phone": "+13478552724", "id": "_h9aSxUXt256bbHZCQHFEw", "is_closed": false, "location": {"city": "Staten Island", "display_address": ["735 Castleton Ave", "Staten Island, NY 10310"], "country": "US", "address2": "", "address3": "", "state": "NY", "address1": "735 Castleton Ave", "zip_code": "10310"}}, {"rating": 3.0, "review_count": 70, "name": "The Kettle Black", "transactions": ["delivery", "pickup"], "url": "https://www.yelp.com/biz/the-kettle-black-staten-island?adjust_creative=yhLoLzsNXKw40xZ5RCWPpA&utm_campaign=yelp_api_v3&utm_medium=api_v3_business_search&utm_source=yhLoLzsNXKw40xZ5RCWPpA", "price": "$$", "distance": 1517.6976709936114, "coordinates": {"latitude": 40.63096, "longitude": -74.10329}, "alias": "the-kettle-black-staten-island", "image_url": "https://s3-media4.fl.yelpcdn.com/bphoto/XiwMmoN9rhIgCRZ-QaLa8Q/o.jpg", "categories": [{"alias": "burgers", "title": "Burgers"}, {"alias": "chicken_wings", "title": "Chicken Wings"}, {"alias": "bars", "title": "Bars"}], "display_phone": "(718) 420-0173", "phone": "+17184200173", "id": "sbHJDaCzww8qCFHdEGHfoA", "is_closed": false, "location": {"city": "Staten Island", "display_address": ["415 Forest Ave", "West Brighton", "Staten Island, NY 10301"], "country": "US", "address2": "West Brighton", "address3": null, "state": "NY", "address1": "415 Forest Ave", "zip_code": "10301"}}, {"rating": 4.0, "review_count": 5, "name": "West Cork Union Hall", "transactions": [], "url": "https://www.yelp.com/biz/west-cork-union-hall-randall-manor?adjust_creative=yhLoLzsNXKw40xZ5RCWPpA&utm_campaign=yelp_api_v3&utm_medium=api_v3_business_search&utm_source=yhLoLzsNXKw40xZ5RCWPpA", "price": "$", "distance": 1557.8226936234257, "coordinates": {"latitude": 40.6379003, "longitude": -74.1093101}, "alias": "west-cork-union-hall-randall-manor", "image_url": "", "categories": [{"alias": "tradamerican", "title": "American (Traditional)"}, {"alias": "irish_pubs", "title": "Irish Pub"}], "display_phone": "(718) 442-2133", "phone": "+17184422133", "id": "yGYRkJ-bJDP-uC0M8_9H0g", "is_closed": false, "location": {"city": "Randall Manor", "display_address": ["502 Henderson Ave", "Randall Manor, NY 10310"], "country": "US", "address2": "", "address3": "", "state": "NY", "address1": "502 Henderson Ave", "zip_code": "10310"}}, {"rating": 3.5, "review_count": 2, "name": "Port Richmond Billiards", "transactions": [], "url": "https://www.yelp.com/biz/port-richmond-billiards-staten-island?adjust_creative=yhLoLzsNXKw40xZ5RCWPpA&utm_campaign=yelp_api_v3&utm_medium=api_v3_business_search&utm_source=yhLoLzsNXKw40xZ5RCWPpA", "distance": 1587.3975404547373, "coordinates": {"latitude": 40.63332, "longitude": -74.13692}, "alias": "port-richmond-billiards-staten-island", "image_url": "https://s3-media2.fl.yelpcdn.com/bphoto/10RCkyrHjgwlq9Dro9ut9w/o.jpg", "categories": [{"alias": "poolhalls", "title": "Pool Halls"}], "display_phone": "(718) 727-0800", "phone": "+17187270800", "id": "Nf24xySm3mt7DqLARmVCmA", "is_closed": false, "location": {"city": "Staten Island", "display_address": ["350 Port Richmond Ave", "Staten Island, NY 10302"], "country": "US", "address2": "", "address3": "", "state": "NY", "address1": "350 Port Richmond Ave", "zip_code": "10302"}}, {"rating": 4.5, "review_count": 13, "name": "R\u00fam\u00ed Caf\u00e9 & Hookah Lounge", "transactions": [], "url": "https://www.yelp.com/biz/r%C3%BAm%C3%AD-caf%C3%A9-and-hookah-lounge-staten-island?adjust_creative=yhLoLzsNXKw40xZ5RCWPpA&utm_campaign=yelp_api_v3&utm_medium=api_v3_business_search&utm_source=yhLoLzsNXKw40xZ5RCWPpA", "price": "$$", "distance": 1600.3125399465425, "coordinates": {"latitude": 40.613053, "longitude": -74.126471}, "alias": "r\u00fam\u00ed-caf\u00e9-and-hookah-lounge-staten-island", "image_url": "https://s3-media3.fl.yelpcdn.com/bphoto/qa-iCqrNakgvdN11yLLiuA/o.jpg", "categories": [{"alias": "hookah_bars", "title": "Hookah Bars"}], "display_phone": "(347) 861-0631", "phone": "+13478610631", "id": "A5iYtalRj-Dg9NproiUQxg", "is_closed": false, "location": {"city": "Staten Island", "display_address": ["1881 Victory Blvd", "Staten Island, NY 10314"], "country": "US", "address2": null, "address3": "", "state": "NY", "address1": "1881 Victory Blvd", "zip_code": "10314"}}, {"rating": 3.5, "review_count": 66, "name": "The Beer Garden", "transactions": ["delivery", "pickup"], "url": "https://www.yelp.com/biz/the-beer-garden-staten-island?adjust_creative=yhLoLzsNXKw40xZ5RCWPpA&utm_campaign=yelp_api_v3&utm_medium=api_v3_business_search&utm_source=yhLoLzsNXKw40xZ5RCWPpA", "price": "$$", "distance": 1601.4259905754213, "coordinates": {"latitude": 40.61305, "longitude": -74.12654}, "alias": "the-beer-garden-staten-island", "image_url": "https://s3-media1.fl.yelpcdn.com/bphoto/-wYqAGjYHoZJwLjDa0n--Q/o.jpg", "categories": [{"alias": "tradamerican", "title": "American (Traditional)"}, {"alias": "beerbar", "title": "Beer Bar"}], "display_phone": "(718) 876-8900", "phone": "+17188768900", "id": "iaPPkighwOr9s0LzEC46fA", "is_closed": false, "location": {"city": "Staten Island", "display_address": ["1883 Victory Blvd", "Staten Island, NY 10314"], "country": "US", "address2": "", "address3": "", "state": "NY", "address1": "1883 Victory Blvd", "zip_code": "10314"}}, {"rating": 4.0, "review_count": 31, "name": "Liberty Tavern", "transactions": [], "url": "https://www.yelp.com/biz/liberty-tavern-staten-island?adjust_creative=yhLoLzsNXKw40xZ5RCWPpA&utm_campaign=yelp_api_v3&utm_medium=api_v3_business_search&utm_source=yhLoLzsNXKw40xZ5RCWPpA", "price": "$$", "distance": 1615.3028867501218, "coordinates": {"latitude": 40.6309450417757, "longitude": -74.1021267324686}, "alias": "liberty-tavern-staten-island", "image_url": "https://s3-media3.fl.yelpcdn.com/bphoto/DrJwb9ZyOaN-RqcYfGek2A/o.jpg", "categories": [{"alias": "bars", "title": "Bars"}], "display_phone": "(718) 442-8121", "phone": "+17184428121", "id": "JTdkzPMNPVN4shyW7v768A", "is_closed": false, "location": {"city": "Staten Island", "display_address": ["382 Forest Ave", "Staten Island, NY 10301"], "country": "US", "address2": null, "address3": "", "state": "NY", "address1": "382 Forest Ave", "zip_code": "10301"}}, {"rating": 4.5, "review_count": 34, "name": "Jody's Club Forest", "transactions": [], "url": "https://www.yelp.com/biz/jodys-club-forest-staten-island?adjust_creative=yhLoLzsNXKw40xZ5RCWPpA&utm_campaign=yelp_api_v3&utm_medium=api_v3_business_search&utm_source=yhLoLzsNXKw40xZ5RCWPpA", "price": "$$", "distance": 1631.4622381978986, "coordinates": {"latitude": 40.63079, "longitude": -74.10182}, "alias": "jodys-club-forest-staten-island", "image_url": "https://s3-media3.fl.yelpcdn.com/bphoto/DXFwdpyQiwahTIDafgRx7g/o.jpg", "categories": [{"alias": "irish", "title": "Irish"}, {"alias": "tradamerican", "title": "American (Traditional)"}, {"alias": "bars", "title": "Bars"}], "display_phone": "(718) 727-6338", "phone": "+17187276338", "id": "R2VLXk5qjDLhsP4R8Z9i2A", "is_closed": false, "location": {"city": "Staten Island", "display_address": ["372 Forest Ave", "Staten Island, NY 10301"], "country": "US", "address2": "", "address3": "", "state": "NY", "address1": "372 Forest Ave", "zip_code": "10301"}}, {"rating": 3.5, "review_count": 2, "name": "Koten's Carribean & American Restaurant & Bar", "transactions": [], "url": "https://www.yelp.com/biz/kotens-carribean-and-american-restaurant-and-bar-staten-island?adjust_creative=yhLoLzsNXKw40xZ5RCWPpA&utm_campaign=yelp_api_v3&utm_medium=api_v3_business_search&utm_source=yhLoLzsNXKw40xZ5RCWPpA", "distance": 1722.9300233074673, "coordinates": {"latitude": 40.62973, "longitude": -74.14037}, "alias": "kotens-carribean-and-american-restaurant-and-bar-staten-island", "image_url": "https://s3-media3.fl.yelpcdn.com/bphoto/a_WEf0Sl6GwQrUB3kuubZw/o.jpg", "categories": [{"alias": "caribbean", "title": "Caribbean"}, {"alias": "bars", "title": "Bars"}], "display_phone": "(929) 364-1273", "phone": "+19293641273", "id": "in31TfI3MZy1UQ6aAzGJcA", "is_closed": false, "location": {"city": "Staten Island", "display_address": ["537 Port Richmond Ave", "Staten Island, NY 10302"], "country": "US", "address2": null, "address3": "", "state": "NY", "address1": "537 Port Richmond Ave", "zip_code": "10302"}}, {"rating": 3.0, "review_count": 4, "name": "Legends Pub", "transactions": [], "url": "https://www.yelp.com/biz/legends-pub-staten-island?adjust_creative=yhLoLzsNXKw40xZ5RCWPpA&utm_campaign=yelp_api_v3&utm_medium=api_v3_business_search&utm_source=yhLoLzsNXKw40xZ5RCWPpA", "price": "$", "distance": 1742.8264475836377, "coordinates": {"latitude": 40.612816, "longitude": -74.129932}, "alias": "legends-pub-staten-island", "image_url": "https://s3-media2.fl.yelpcdn.com/bphoto/pDlvubPvFqMC-D-iBhHA3g/o.jpg", "categories": [{"alias": "pubs", "title": "Pubs"}], "display_phone": "(718) 442-1320", "phone": "+17184421320", "id": "aC4TA1Wd_rkEJIKAK5eVrw", "is_closed": false, "location": {"city": "Staten Island", "display_address": ["1975 Victory Blvd", "Staten Island, NY 10314"], "country": "US", "address2": "", "address3": "", "state": "NY", "address1": "1975 Victory Blvd", "zip_code": "10314"}}, {"rating": 1.0, "review_count": 1, "name": "Rum Runner's Sport Bar", "transactions": [], "url": "https://www.yelp.com/biz/rum-runners-sport-bar-staten-island?adjust_creative=yhLoLzsNXKw40xZ5RCWPpA&utm_campaign=yelp_api_v3&utm_medium=api_v3_business_search&utm_source=yhLoLzsNXKw40xZ5RCWPpA", "price": "$", "distance": 1747.7603973375883, "coordinates": {"latitude": 40.640184, "longitude": -74.130944}, "alias": "rum-runners-sport-bar-staten-island", "image_url": "", "categories": [{"alias": "sportsbars", "title": "Sports Bars"}], "display_phone": "(347) 466-4851", "phone": "+13474664851", "id": "jcnHdKrlA9AUGz6Cr-LVsw", "is_closed": false, "location": {"city": "Staten Island", "display_address": ["2030 Richmond Ter", "Staten Island, NY 10314"], "country": "US", "address2": "", "address3": "", "state": "NY", "address1": "2030 Richmond Ter", "zip_code": "10314"}}, {"rating": 3.5, "review_count": 119, "name": "O'Neills", "transactions": [], "url": "https://www.yelp.com/biz/o-neills-staten-island-2?adjust_creative=yhLoLzsNXKw40xZ5RCWPpA&utm_campaign=yelp_api_v3&utm_medium=api_v3_business_search&utm_source=yhLoLzsNXKw40xZ5RCWPpA", "price": "$$", "distance": 1868.313785078446, "coordinates": {"latitude": 40.6247252, "longitude": -74.1423442}, "alias": "o-neills-staten-island-2", "image_url": "https://s3-media2.fl.yelpcdn.com/bphoto/jfwMt3nyc7PxKiKwGSfzpw/o.jpg", "categories": [{"alias": "bars", "title": "Bars"}, {"alias": "irish", "title": "Irish"}, {"alias": "tradamerican", "title": "American (Traditional)"}], "display_phone": "(718) 273-4481", "phone": "+17182734481", "id": "y9JeGPMWQo4lt2RW1kDU8Q", "is_closed": false, "location": {"city": "Staten Island", "display_address": ["1614 Forest Ave", "Staten Island, NY 10302"], "country": "US", "address2": "", "address3": "", "state": "NY", "address1": "1614 Forest Ave", "zip_code": "10302"}}, {"rating": 5.0, "review_count": 1, "name": "Loyal Order of Moose Lodges", "transactions": [], "url": "https://www.yelp.com/biz/loyal-order-of-moose-lodges-staten-island?adjust_creative=yhLoLzsNXKw40xZ5RCWPpA&utm_campaign=yelp_api_v3&utm_medium=api_v3_business_search&utm_source=yhLoLzsNXKw40xZ5RCWPpA", "distance": 1912.3043625388254, "coordinates": {"latitude": 40.63464, "longitude": -74.14057}, "alias": "loyal-order-of-moose-lodges-staten-island", "image_url": "", "categories": [{"alias": "bars", "title": "Bars"}, {"alias": "tradamerican", "title": "American (Traditional)"}], "display_phone": "(718) 727-5485", "phone": "+17187275485", "id": "7irgg7XcKMZI87mxjf1RZg", "is_closed": false, "location": {"city": "Staten Island", "display_address": ["217 Nicholas Ave", "Staten Island, NY 10302"], "country": "US", "address2": "", "address3": null, "state": "NY", "address1": "217 Nicholas Ave", "zip_code": "10302"}}, {"rating": 3.0, "review_count": 6, "name": "The Vic Tavern", "transactions": [], "url": "https://www.yelp.com/biz/the-vic-tavern-bayonne?adjust_creative=yhLoLzsNXKw40xZ5RCWPpA&utm_campaign=yelp_api_v3&utm_medium=api_v3_business_search&utm_source=yhLoLzsNXKw40xZ5RCWPpA", "distance": 2630.671118839903, "coordinates": {"latitude": 40.6501901, "longitude": -74.1241149}, "alias": "the-vic-tavern-bayonne", "image_url": "https://s3-media1.fl.yelpcdn.com/bphoto/uLXmdQ87PlKQrKJuCU-XcA/o.jpg", "categories": [{"alias": "bars", "title": "Bars"}, {"alias": "tradamerican", "title": "American (Traditional)"}, {"alias": "pizza", "title": "Pizza"}], "display_phone": "(201) 339-7900", "phone": "+12013397900", "id": "131b5hrrDx4db7cizw12mw", "is_closed": false, "location": {"city": "Bayonne", "display_address": ["107 Hobart Ave", "Bayonne, NJ 07002"], "country": "US", "address2": "", "address3": "", "state": "NJ", "address1": "107 Hobart Ave", "zip_code": "07002"}}, {"rating": 4.5, "review_count": 9, "name": "Liedy's Shore Inn", "transactions": [], "url": "https://www.yelp.com/biz/liedys-shore-inn-staten-island?adjust_creative=yhLoLzsNXKw40xZ5RCWPpA&utm_campaign=yelp_api_v3&utm_medium=api_v3_business_search&utm_source=yhLoLzsNXKw40xZ5RCWPpA", "price": "$", "distance": 2796.8415993593267, "coordinates": {"latitude": 40.644485, "longitude": -74.096969}, "alias": "liedys-shore-inn-staten-island", "image_url": "https://s3-media2.fl.yelpcdn.com/bphoto/0XwU6Zq27XlKfe1Hz6TPww/o.jpg", "categories": [{"alias": "bars", "title": "Bars"}], "display_phone": "(718) 447-9240", "phone": "+17184479240", "id": "-d8aR2Iw6Yl5ywi1R9mItg", "is_closed": false, "location": {"city": "Staten Island", "display_address": ["748 Richmond Ter", "Staten Island, NY 10301"], "country": "US", "address2": "", "address3": "", "state": "NY", "address1": "748 Richmond Ter", "zip_code": "10301"}}, {"rating": 4.5, "review_count": 22, "name": "Starting Point Bar & Grill", "transactions": [], "url": "https://www.yelp.com/biz/starting-point-bar-and-grill-bayonne?adjust_creative=yhLoLzsNXKw40xZ5RCWPpA&utm_campaign=yelp_api_v3&utm_medium=api_v3_business_search&utm_source=yhLoLzsNXKw40xZ5RCWPpA", "price": "$$", "distance": 2915.6655545073427, "coordinates": {"latitude": 40.6477, "longitude": -74.14102}, "alias": "starting-point-bar-and-grill-bayonne", "image_url": "https://s3-media3.fl.yelpcdn.com/bphoto/PY_mDIWRpOEQIR95sixh5w/o.jpg", "categories": [{"alias": "pizza", "title": "Pizza"}, {"alias": "bars", "title": "Bars"}], "display_phone": "(201) 243-0092", "phone": "+12012430092", "id": "dnRZ9_aLhMlQrtd_c_5k9Q", "is_closed": false, "location": {"city": "Bayonne", "display_address": ["2 Avenue A", "Bayonne, NJ 07002"], "country": "US", "address2": "", "address3": "", "state": "NJ", "address1": "2 Avenue A", "zip_code": "07002"}}, {"rating": 4.5, "review_count": 35, "name": "Bayonne Patio Bar & Grille", "transactions": [], "url": "https://www.yelp.com/biz/bayonne-patio-bar-and-grille-bayonne?adjust_creative=yhLoLzsNXKw40xZ5RCWPpA&utm_campaign=yelp_api_v3&utm_medium=api_v3_business_search&utm_source=yhLoLzsNXKw40xZ5RCWPpA", "price": "$$", "distance": 2988.285008868851, "coordinates": {"latitude": 40.65325, "longitude": -74.12556}, "alias": "bayonne-patio-bar-and-grille-bayonne", "image_url": "https://s3-media2.fl.yelpcdn.com/bphoto/xxUK31XVlSncyL3KuT1dgQ/o.jpg", "categories": [{"alias": "tradamerican", "title": "American (Traditional)"}, {"alias": "sportsbars", "title": "Sports Bars"}, {"alias": "pizza", "title": "Pizza"}], "display_phone": "(201) 688-3144", "phone": "+12016883144", "id": "CZ84vlxmfboaUR2VxmYstQ", "is_closed": false, "location": {"city": "Bayonne", "display_address": ["29-31 Cottage St", "Bayonne, NJ 07002"], "country": "US", "address2": "", "address3": null, "state": "NJ", "address1": "29-31 Cottage St", "zip_code": "07002"}}, {"rating": 3.0, "review_count": 1, "name": "The Rock Pub & Grill", "transactions": [], "url": "https://www.yelp.com/biz/the-rock-pub-and-grill-bayonne?adjust_creative=yhLoLzsNXKw40xZ5RCWPpA&utm_campaign=yelp_api_v3&utm_medium=api_v3_business_search&utm_source=yhLoLzsNXKw40xZ5RCWPpA", "distance": 3006.4410074101866, "coordinates": {"latitude": 40.6531944274902, "longitude": -74.1269760131836}, "alias": "the-rock-pub-and-grill-bayonne", "image_url": "", "categories": [{"alias": "irish", "title": "Irish"}, {"alias": "pubs", "title": "Pubs"}], "display_phone": "(201) 858-0100", "phone": "+12018580100", "id": "abkvBLMfEd03ptrAu53b9Q", "is_closed": false, "location": {"city": "Bayonne", "display_address": ["206 Broadway", "Bayonne, NJ 07002"], "country": "US", "address2": "", "address3": "", "state": "NJ", "address1": "206 Broadway", "zip_code": "07002"}}, {"rating": 4.5, "review_count": 4, "name": "The Rock", "transactions": [], "url": "https://www.yelp.com/biz/the-rock-bayonne?adjust_creative=yhLoLzsNXKw40xZ5RCWPpA&utm_campaign=yelp_api_v3&utm_medium=api_v3_business_search&utm_source=yhLoLzsNXKw40xZ5RCWPpA", "price": "$$", "distance": 3006.7576543895216, "coordinates": {"latitude": 40.6532871723175, "longitude": -74.127145037055}, "alias": "the-rock-bayonne", "image_url": "https://s3-media3.fl.yelpcdn.com/bphoto/foScy583rEyREEfdbLbRhQ/o.jpg", "categories": [{"alias": "bars", "title": "Bars"}], "display_phone": "(201) 858-0100", "phone": "+12018580100", "id": "o3ECzHn3SH6KQjUtnOn9Tw", "is_closed": false, "location": {"city": "Bayonne", "display_address": ["206 Broadway", "Bayonne, NJ 07002"], "country": "US", "address2": null, "address3": null, "state": "NJ", "address1": "206 Broadway", "zip_code": "07002"}}, {"rating": 2.5, "review_count": 3, "name": "R & Bz", "transactions": [], "url": "https://www.yelp.com/biz/r-and-bz-bayonne?adjust_creative=yhLoLzsNXKw40xZ5RCWPpA&utm_campaign=yelp_api_v3&utm_medium=api_v3_business_search&utm_source=yhLoLzsNXKw40xZ5RCWPpA", "price": "$", "distance": 3168.1748493913337, "coordinates": {"latitude": 40.65486, "longitude": -74.1256}, "alias": "r-and-bz-bayonne", "image_url": "https://s3-media1.fl.yelpcdn.com/bphoto/_1Yxoq-cKHvCeBW559NFzQ/o.jpg", "categories": [{"alias": "catering", "title": "Caterers"}, {"alias": "bars", "title": "Bars"}], "display_phone": "(201) 858-9641", "phone": "+12018589641", "id": "HlRY67KXp91FLFz8fJENYw", "is_closed": false, "location": {"city": "Bayonne", "display_address": ["234 Broadway", "Bayonne, NJ 07002"], "country": "US", "address2": "", "address3": "", "state": "NJ", "address1": "234 Broadway", "zip_code": "07002"}}, {"rating": 3.0, "review_count": 50, "name": "El Pollo Restaurant & Bar", "transactions": ["delivery", "pickup"], "url": "https://www.yelp.com/biz/el-pollo-restaurant-and-bar-staten-island?adjust_creative=yhLoLzsNXKw40xZ5RCWPpA&utm_campaign=yelp_api_v3&utm_medium=api_v3_business_search&utm_source=yhLoLzsNXKw40xZ5RCWPpA", "price": "$", "distance": 3183.3818033659218, "coordinates": {"latitude": 40.6129693080948, "longitude": -74.0872420947426}, "alias": "el-pollo-restaurant-and-bar-staten-island", "image_url": "https://s3-media2.fl.yelpcdn.com/bphoto/XVpM8kCUZKQvvZ-v8wYi7A/o.jpg", "categories": [{"alias": "spanish", "title": "Spanish"}, {"alias": "bars", "title": "Bars"}, {"alias": "latin", "title": "Latin American"}], "display_phone": "(718) 815-4928", "phone": "+17188154928", "id": "k36g20Xr_xOTz_Ap2oG3Zg", "is_closed": false, "location": {"city": "Staten Island", "display_address": ["560 Richmond Rd", "Staten Island, NY 10304"], "country": "US", "address2": "", "address3": "", "state": "NY", "address1": "560 Richmond Rd", "zip_code": "10304"}}, {"rating": 4.0, "review_count": 16, "name": "Latitude Zero", "transactions": [], "url": "https://www.yelp.com/biz/latitude-zero-bayonne-2?adjust_creative=yhLoLzsNXKw40xZ5RCWPpA&utm_campaign=yelp_api_v3&utm_medium=api_v3_business_search&utm_source=yhLoLzsNXKw40xZ5RCWPpA", "price": "$$", "distance": 3296.735064458949, "coordinates": {"latitude": 40.6561499, "longitude": -74.12525}, "alias": "latitude-zero-bayonne-2", "image_url": "https://s3-media3.fl.yelpcdn.com/bphoto/tjoi2dOknO0hZC5Ira6kEA/o.jpg", "categories": [{"alias": "bars", "title": "Bars"}, {"alias": "latin", "title": "Latin American"}], "display_phone": "(201) 858-0061", "phone": "+12018580061", "id": "tuXpt05dNdhiljAW2IYwoA", "is_closed": false, "location": {"city": "Bayonne", "display_address": ["269 Broadway", "Bayonne, NJ 07002"], "country": "US", "address2": "", "address3": "", "state": "NJ", "address1": "269 Broadway", "zip_code": "07002"}}, {"rating": 2.0, "review_count": 3, "name": "La Tinaja Lounge Bar", "transactions": [], "url": "https://www.yelp.com/biz/la-tinaja-lounge-bar-bayonne?adjust_creative=yhLoLzsNXKw40xZ5RCWPpA&utm_campaign=yelp_api_v3&utm_medium=api_v3_business_search&utm_source=yhLoLzsNXKw40xZ5RCWPpA", "price": "$$", "distance": 3310.4459509619955, "coordinates": {"latitude": 40.6562369769152, "longitude": -74.125004298985}, "alias": "la-tinaja-lounge-bar-bayonne", "image_url": "", "categories": [{"alias": "lounges", "title": "Lounges"}], "display_phone": "(201) 471-2204", "phone": "+12014712204", "id": "haiKwzvRoCE-J5ixBI8pcw", "is_closed": false, "location": {"city": "Bayonne", "display_address": ["277 Broadway", "Bayonne, NJ 07002"], "country": "US", "address2": "", "address3": null, "state": "NJ", "address1": "277 Broadway", "zip_code": "07002"}}, {"rating": 1.0, "review_count": 1, "name": "Rye", "transactions": [], "url": "https://www.yelp.com/biz/rye-bayonne?adjust_creative=yhLoLzsNXKw40xZ5RCWPpA&utm_campaign=yelp_api_v3&utm_medium=api_v3_business_search&utm_source=yhLoLzsNXKw40xZ5RCWPpA", "distance": 3322.668221475147, "coordinates": {"latitude": 40.65637, "longitude": -74.12493}, "alias": "rye-bayonne", "image_url": "", "categories": [{"alias": "bars", "title": "Bars"}], "display_phone": "(201) 443-8417", "phone": "+12014438417", "id": "dGOja9hpC7jLJdVZyvo3iQ", "is_closed": false, "location": {"city": "Bayonne", "display_address": ["279 Broadway", "Bayonne, NJ 07002"], "country": "US", "address2": null, "address3": null, "state": "NJ", "address1": "279 Broadway", "zip_code": "07002"}}, {"rating": 5.0, "review_count": 2, "name": "Shorty's", "transactions": [], "url": "https://www.yelp.com/biz/shortys-bayonne-2?adjust_creative=yhLoLzsNXKw40xZ5RCWPpA&utm_campaign=yelp_api_v3&utm_medium=api_v3_business_search&utm_source=yhLoLzsNXKw40xZ5RCWPpA", "distance": 3322.668221475147, "coordinates": {"latitude": 40.65637, "longitude": -74.12493}, "alias": "shortys-bayonne-2", "image_url": "https://s3-media3.fl.yelpcdn.com/bphoto/oqNp7P1SPFdygPPvge_tRw/o.jpg", "categories": [{"alias": "bars", "title": "Bars"}, {"alias": "musicvenues", "title": "Music Venues"}], "display_phone": "", "phone": "", "id": "whribnX0wEsyr_hpreOzag", "is_closed": false, "location": {"city": "Bayonne", "display_address": ["279 Broadway", "Bayonne, NJ 07002"], "country": "US", "address2": "", "address3": null, "state": "NJ", "address1": "279 Broadway", "zip_code": "07002"}}, {"rating": 3.5, "review_count": 18, "name": "McLoone's Bayonne Grille", "transactions": [], "url": "https://www.yelp.com/biz/mcloones-bayonne-grille-bayonne?adjust_creative=yhLoLzsNXKw40xZ5RCWPpA&utm_campaign=yelp_api_v3&utm_medium=api_v3_business_search&utm_source=yhLoLzsNXKw40xZ5RCWPpA", "price": "$$", "distance": 3390.5904103212065, "coordinates": {"latitude": 40.6571160090893, "longitude": -74.1180235147476}, "alias": "mcloones-bayonne-grille-bayonne", "image_url": "https://s3-media2.fl.yelpcdn.com/bphoto/eJoI1CZ9ugRw6dJbtVDwoA/o.jpg", "categories": [{"alias": "newamerican", "title": "American (New)"}, {"alias": "sportsbars", "title": "Sports Bars"}], "display_phone": "(201) 858-0500", "phone": "+12018580500", "id": "Cw5sWh1d5bwpr3f5I2mitw", "is_closed": false, "location": {"city": "Bayonne", "display_address": ["400 State Rt 440 N", "Bayonne, NJ 07002"], "country": "US", "address2": "", "address3": "", "state": "NJ", "address1": "400 State Rt 440 N", "zip_code": "07002"}}, {"rating": 5.0, "review_count": 2, "name": "Castleton Corners Pub", "transactions": [], "url": "https://www.yelp.com/biz/castleton-corners-pub-staten-island?adjust_creative=yhLoLzsNXKw40xZ5RCWPpA&utm_campaign=yelp_api_v3&utm_medium=api_v3_business_search&utm_source=yhLoLzsNXKw40xZ5RCWPpA", "price": "$", "distance": 3407.2929601164487, "coordinates": {"latitude": 40.605271, "longitude": -74.149243}, "alias": "castleton-corners-pub-staten-island", "image_url": "https://s3-media1.fl.yelpcdn.com/bphoto/C0MTYTToo1OyRgKTW9qIKQ/o.jpg", "categories": [{"alias": "pubs", "title": "Pubs"}], "display_phone": "(718) 309-2878", "phone": "+17183092878", "id": "AE0bXB5PkzX19PHzb3187Q", "is_closed": false, "location": {"city": "Staten Island", "display_address": ["Staten Island, NY 10314"], "country": "US", "address2": "", "address3": "", "state": "NY", "address1": "", "zip_code": "10314"}}, {"rating": 4.0, "review_count": 224, "name": "The Hop Shoppe", "transactions": ["pickup"], "url": "https://www.yelp.com/biz/the-hop-shoppe-staten-island?adjust_creative=yhLoLzsNXKw40xZ5RCWPpA&utm_campaign=yelp_api_v3&utm_medium=api_v3_business_search&utm_source=yhLoLzsNXKw40xZ5RCWPpA", "price": "$$", "distance": 3430.5211473910144, "coordinates": {"latitude": 40.629169, "longitude": -74.079839}, "alias": "the-hop-shoppe-staten-island", "image_url": "https://s3-media3.fl.yelpcdn.com/bphoto/X7B2_pbH0S8Z9wsaz77eqg/o.jpg", "categories": [{"alias": "gastropubs", "title": "Gastropubs"}, {"alias": "tradamerican", "title": "American (Traditional)"}, {"alias": "sportsbars", "title": "Sports Bars"}], "display_phone": "(718) 448-3400", "phone": "+17184483400", "id": "Dci3yvrnPZ5kOF5t3xV8gg", "is_closed": false, "location": {"city": "Staten Island", "display_address": ["372 VanDuzer St", "Staten Island, NY 10304"], "country": "US", "address2": "", "address3": "", "state": "NY", "address1": "372 VanDuzer St", "zip_code": "10304"}}, {"rating": 4.5, "review_count": 46, "name": "The Coupe Cocktail Bar", "transactions": [], "url": "https://www.yelp.com/biz/the-coupe-cocktail-bar-staten-island-3?adjust_creative=yhLoLzsNXKw40xZ5RCWPpA&utm_campaign=yelp_api_v3&utm_medium=api_v3_business_search&utm_source=yhLoLzsNXKw40xZ5RCWPpA", "price": "$$$", "distance": 3435.2482822725415, "coordinates": {"latitude": 40.6287990448643, "longitude": -74.0797463804483}, "alias": "the-coupe-cocktail-bar-staten-island-3", "image_url": "https://s3-media1.fl.yelpcdn.com/bphoto/1_CVmLR4Oqo8qVuHsV0kYw/o.jpg", "categories": [{"alias": "cocktailbars", "title": "Cocktail Bars"}, {"alias": "tapasmallplates", "title": "Tapas/Small Plates"}], "display_phone": "(718) 269-0668", "phone": "+17182690668", "id": "Vj97yY-Zu4Q9UgAK23UuGA", "is_closed": false, "location": {"city": "Staten Island", "display_address": ["379 Van Duzer St", "Staten Island, NY 10304"], "country": "US", "address2": "", "address3": null, "state": "NY", "address1": "379 Van Duzer St", "zip_code": "10304"}}, {"rating": 3.5, "review_count": 59, "name": "Joe Broadway's Billiards & Sports Pub", "transactions": ["pickup"], "url": "https://www.yelp.com/biz/joe-broadways-billiards-and-sports-pub-staten-island?adjust_creative=yhLoLzsNXKw40xZ5RCWPpA&utm_campaign=yelp_api_v3&utm_medium=api_v3_business_search&utm_source=yhLoLzsNXKw40xZ5RCWPpA", "price": "$$", "distance": 3533.4667147852015, "coordinates": {"latitude": 40.62625, "longitude": -74.16215}, "alias": "joe-broadways-billiards-and-sports-pub-staten-island", "image_url": "https://s3-media3.fl.yelpcdn.com/bphoto/Ue4zqL1elrbrvbjkNp7vug/o.jpg", "categories": [{"alias": "sportsbars", "title": "Sports Bars"}, {"alias": "tradamerican", "title": "American (Traditional)"}], "display_phone": "(718) 727-9194", "phone": "+17187279194", "id": "9RhEM1AqO0Fdi6cmJQ5mwQ", "is_closed": false, "location": {"city": "Staten Island", "display_address": ["2178 Forest Ave", "Staten Island, NY 10303"], "country": "US", "address2": "", "address3": "", "state": "NY", "address1": "2178 Forest Ave", "zip_code": "10303"}}, {"rating": 3.0, "review_count": 194, "name": "Buffalo Wild Wings", "transactions": [], "url": "https://www.yelp.com/biz/buffalo-wild-wings-staten-island?adjust_creative=yhLoLzsNXKw40xZ5RCWPpA&utm_campaign=yelp_api_v3&utm_medium=api_v3_business_search&utm_source=yhLoLzsNXKw40xZ5RCWPpA", "price": "$$", "distance": 3586.540016349659, "coordinates": {"latitude": 40.612004, "longitude": -74.158199}, "alias": "buffalo-wild-wings-staten-island", "image_url": "https://s3-media1.fl.yelpcdn.com/bphoto/oLEVveLnwa38Rpz02vhE9A/o.jpg", "categories": [{"alias": "chicken_wings", "title": "Chicken Wings"}, {"alias": "sportsbars", "title": "Sports Bars"}, {"alias": "tradamerican", "title": "American (Traditional)"}], "display_phone": "(718) 983-6912", "phone": "+17189836912", "id": "NK8X96XzDX4uQZI0nSq80Q", "is_closed": false, "location": {"city": "Staten Island", "display_address": ["1447 Richmond Avenue", "Staten Island, NY 10314"], "country": "US", "address2": "", "address3": "", "state": "NY", "address1": "1447 Richmond Avenue", "zip_code": "10314"}}, {"rating": 2.0, "review_count": 47, "name": "Applebee's Grill + Bar", "transactions": [], "url": "https://www.yelp.com/biz/applebees-grill-bar-staten-island-3?adjust_creative=yhLoLzsNXKw40xZ5RCWPpA&utm_campaign=yelp_api_v3&utm_medium=api_v3_business_search&utm_source=yhLoLzsNXKw40xZ5RCWPpA", "price": "$$", "distance": 3591.453599992281, "coordinates": {"latitude": 40.612566, "longitude": -74.158633}, "alias": "applebees-grill-bar-staten-island-3", "image_url": "https://s3-media2.fl.yelpcdn.com/bphoto/fMBkeeST-QwRP2UDJQwzcA/o.jpg", "categories": [{"alias": "tradamerican", "title": "American (Traditional)"}, {"alias": "sportsbars", "title": "Sports Bars"}, {"alias": "burgers", "title": "Burgers"}], "display_phone": "(718) 477-1300", "phone": "+17184771300", "id": "o3w0vFs4qqumc-UVVFp8WQ", "is_closed": false, "location": {"city": "Staten Island", "display_address": ["1451 Richmond Ave", "Staten Island, NY 10314"], "country": "US", "address2": "", "address3": null, "state": "NY", "address1": "1451 Richmond Ave", "zip_code": "10314"}}, {"rating": 4.0, "review_count": 80, "name": "Lot 13", "transactions": [], "url": "https://www.yelp.com/biz/lot-13-bayonne?adjust_creative=yhLoLzsNXKw40xZ5RCWPpA&utm_campaign=yelp_api_v3&utm_medium=api_v3_business_search&utm_source=yhLoLzsNXKw40xZ5RCWPpA", "price": "$$", "distance": 3623.652473442948, "coordinates": {"latitude": 40.6592529013609, "longitude": -74.1192661613464}, "alias": "lot-13-bayonne", "image_url": "https://s3-media3.fl.yelpcdn.com/bphoto/Yk-zbPk0Hxfuq5BLiezIvQ/o.jpg", "categories": [{"alias": "bars", "title": "Bars"}, {"alias": "tradamerican", "title": "American (Traditional)"}], "display_phone": "(201) 535-5066", "phone": "+12015355066", "id": "r-ShZw2XnDPm5-MRxDUvEg", "is_closed": false, "location": {"city": "Bayonne", "display_address": ["169 Ave E", "Bayonne, NJ 07002"], "country": "US", "address2": "", "address3": "", "state": "NJ", "address1": "169 Ave E", "zip_code": "07002"}}, {"rating": 3.0, "review_count": 19, "name": "Le Roi", "transactions": [], "url": "https://www.yelp.com/biz/le-roi-staten-island?adjust_creative=yhLoLzsNXKw40xZ5RCWPpA&utm_campaign=yelp_api_v3&utm_medium=api_v3_business_search&utm_source=yhLoLzsNXKw40xZ5RCWPpA", "price": "$", "distance": 3628.715809597717, "coordinates": {"latitude": 40.611921, "longitude": -74.158704}, "alias": "le-roi-staten-island", "image_url": "https://s3-media2.fl.yelpcdn.com/bphoto/yRMUZsV9bHbt3SP2QfOSgw/o.jpg", "categories": [{"alias": "hookah_bars", "title": "Hookah Bars"}], "display_phone": "(718) 983-1900", "phone": "+17189831900", "id": "NxB1TT5AloDQ4Gq0uKoN8A", "is_closed": false, "location": {"city": "Staten Island", "display_address": ["10 Akron Plz", "Staten Island, NY 10314"], "country": "US", "address2": "", "address3": "", "state": "NY", "address1": "10 Akron Plz", "zip_code": "10314"}}, {"rating": 3.0, "review_count": 93, "name": "Chili's", "transactions": [], "url": "https://www.yelp.com/biz/chilis-staten-island?adjust_creative=yhLoLzsNXKw40xZ5RCWPpA&utm_campaign=yelp_api_v3&utm_medium=api_v3_business_search&utm_source=yhLoLzsNXKw40xZ5RCWPpA", "price": "$$", "distance": 3679.8004028505175, "coordinates": {"latitude": 40.61148, "longitude": -74.1591}, "alias": "chilis-staten-island", "image_url": "https://s3-media2.fl.yelpcdn.com/bphoto/YhNvIo8qz97P5PSDSzr-vA/o.jpg", "categories": [{"alias": "tradamerican", "title": "American (Traditional)"}, {"alias": "bars", "title": "Bars"}, {"alias": "tex-mex", "title": "Tex-Mex"}], "display_phone": "(718) 697-0883", "phone": "+17186970883", "id": "5jyInUzKKL5m48hyDWeyZQ", "is_closed": false, "location": {"city": "Staten Island", "display_address": ["1497 Richmond Ave", "Staten Island, NY 10314"], "country": "US", "address2": "", "address3": "", "state": "NY", "address1": "1497 Richmond Ave", "zip_code": "10314"}}, {"rating": 4.5, "review_count": 67, "name": "Errigo's", "transactions": [], "url": "https://www.yelp.com/biz/errigos-staten-island?adjust_creative=yhLoLzsNXKw40xZ5RCWPpA&utm_campaign=yelp_api_v3&utm_medium=api_v3_business_search&utm_source=yhLoLzsNXKw40xZ5RCWPpA", "price": "$$", "distance": 3688.4632515822886, "coordinates": {"latitude": 40.6298, "longitude": -74.07682}, "alias": "errigos-staten-island", "image_url": "https://s3-media4.fl.yelpcdn.com/bphoto/QeDDuhiYFoBQ64kccdLJGw/o.jpg", "categories": [{"alias": "italian", "title": "Italian"}, {"alias": "bars", "title": "Bars"}], "display_phone": "(718) 981-5111", "phone": "+17189815111", "id": "Nzz7O9jSdfSOaPL5huYcSg", "is_closed": false, "location": {"city": "Staten Island", "display_address": ["502 Bay St", "Staten Island, NY 10304"], "country": "US", "address2": "", "address3": "", "state": "NY", "address1": "502 Bay St", "zip_code": "10304"}}, {"rating": 1.0, "review_count": 1, "name": "Bay Street Saloon", "transactions": [], "url": "https://www.yelp.com/biz/bay-street-saloon-staten-island?adjust_creative=yhLoLzsNXKw40xZ5RCWPpA&utm_campaign=yelp_api_v3&utm_medium=api_v3_business_search&utm_source=yhLoLzsNXKw40xZ5RCWPpA", "distance": 3717.2725898973335, "coordinates": {"latitude": 40.62918, "longitude": -74.07646}, "alias": "bay-street-saloon-staten-island", "image_url": "", "categories": [{"alias": "sportsbars", "title": "Sports Bars"}], "display_phone": "(718) 442-1050", "phone": "+17184421050", "id": "mAMoGgmW2DMWdJFtV1wHYg", "is_closed": false, "location": {"city": "Staten Island", "display_address": ["523 Bay St", "Staten Island, NY 10304"], "country": "US", "address2": null, "address3": null, "state": "NY", "address1": "523 Bay St", "zip_code": "10304"}}, {"rating": 5.0, "review_count": 2, "name": "Pat's Tavern", "transactions": [], "url": "https://www.yelp.com/biz/pats-tavern-bayonne?adjust_creative=yhLoLzsNXKw40xZ5RCWPpA&utm_campaign=yelp_api_v3&utm_medium=api_v3_business_search&utm_source=yhLoLzsNXKw40xZ5RCWPpA", "price": "$", "distance": 3721.11275671703, "coordinates": {"latitude": 40.65994, "longitude": -74.1245}, "alias": "pats-tavern-bayonne", "image_url": "https://s3-media2.fl.yelpcdn.com/bphoto/jIRHFy-o0MaZ4zs95lCkpw/o.jpg", "categories": [{"alias": "pubs", "title": "Pubs"}, {"alias": "sportsbars", "title": "Sports Bars"}, {"alias": "pizza", "title": "Pizza"}], "display_phone": "(201) 858-9464", "phone": "+12018589464", "id": "rjcb1R4Ox_92NiMMYcDQcg", "is_closed": false, "location": {"city": "Bayonne", "display_address": ["378 Ave C", "Bayonne, NJ 07002"], "country": "US", "address2": "", "address3": "", "state": "NJ", "address1": "378 Ave C", "zip_code": "07002"}}, {"rating": 4.5, "review_count": 290, "name": "Craft House", "transactions": [], "url": "https://www.yelp.com/biz/craft-house-tompkinsville-2?adjust_creative=yhLoLzsNXKw40xZ5RCWPpA&utm_campaign=yelp_api_v3&utm_medium=api_v3_business_search&utm_source=yhLoLzsNXKw40xZ5RCWPpA", "price": "$$", "distance": 3770.363009369832, "coordinates": {"latitude": 40.636373, "longitude": -74.077543}, "alias": "craft-house-tompkinsville-2", "image_url": "https://s3-media2.fl.yelpcdn.com/bphoto/gUUJrY7fm_SKFVhgCuAD7Q/o.jpg", "categories": [{"alias": "bars", "title": "Bars"}, {"alias": "bbq", "title": "Barbeque"}], "display_phone": "(718) 442-3433", "phone": "+17184423433", "id": "hOuETUkoGbMDyA4w9fmdmg", "is_closed": false, "location": {"city": "Tompkinsville", "display_address": ["60 Vanduzer St", "Tompkinsville, NY 10301"], "country": "US", "address2": "", "address3": "", "state": "NY", "address1": "60 Vanduzer St", "zip_code": "10301"}}, {"rating": 2.0, "review_count": 1, "name": "Notes Lounge and Bar", "transactions": [], "url": "https://www.yelp.com/biz/notes-lounge-and-bar-staten-island?adjust_creative=yhLoLzsNXKw40xZ5RCWPpA&utm_campaign=yelp_api_v3&utm_medium=api_v3_business_search&utm_source=yhLoLzsNXKw40xZ5RCWPpA", "distance": 3777.6551251097076, "coordinates": {"latitude": 40.62727, "longitude": -74.07551}, "alias": "notes-lounge-and-bar-staten-island", "image_url": "", "categories": [{"alias": "bars", "title": "Bars"}], "display_phone": "", "phone": "", "id": "8zcIzkqHpEGr_PPDh0citg", "is_closed": false, "location": {"city": "Staten Island", "display_address": ["33 Water St", "Staten Island, NY 10304"], "country": "US", "address2": "", "address3": "", "state": "NY", "address1": "33 Water St", "zip_code": "10304"}}]}