{"region": {"center": {"latitude": 40.7184465434, "longitude": -73.9483894601}}, "total": 4100, "businesses": [{"rating": 4.0, "review_count": 132, "name": "The Shanty", "transactions": [], "url": "https://www.yelp.com/biz/the-shanty-brooklyn?adjust_creative=yhLoLzsNXKw40xZ5RCWPpA&utm_campaign=yelp_api_v3&utm_medium=api_v3_business_search&utm_source=yhLoLzsNXKw40xZ5RCWPpA", "price": "$$", "distance": 38.88200995921886, "coordinates": {"latitude": 40.718571, "longitude": -73.94873}, "alias": "the-shanty-brooklyn", "image_url": "https://s3-media1.fl.yelpcdn.com/bphoto/dPKisMmu0lFMAtnhYbtLGQ/o.jpg", "categories": [{"alias": "bars", "title": "Bars"}], "display_phone": "(718) 412-0874", "phone": "+17184120874", "id": "86DcQw6w9T6zke7rq8tdnA", "is_closed": false, "location": {"city": "Brooklyn", "display_address": ["79 Richardson St", "Brooklyn, NY 11211"], "country": "US", "address2": "", "address3": "", "state": "NY", "address1": "79 Richardson St", "zip_code": "11211"}}, {"rating": 3.5, "review_count": 22, "name": "The Breakers", "transactions": [], "url": "https://www.yelp.com/biz/the-breakers-brooklyn-2?adjust_creative=yhLoLzsNXKw40xZ5RCWPpA&utm_campaign=yelp_api_v3&utm_medium=api_v3_business_search&utm_source=yhLoLzsNXKw40xZ5RCWPpA", "distance": 101.84190669258588, "coordinates": {"latitude": 40.7175641532879, "longitude": -73.9488976824409}, "alias": "the-breakers-brooklyn-2", "image_url": "https://s3-media1.fl.yelpcdn.com/bphoto/B2BPUrGeQQ4sRQloDZRWfQ/o.jpg", "categories": [{"alias": "bars", "title": "Bars"}, {"alias": "danceclubs", "title": "Dance Clubs"}, {"alias": "tacos", "title": "Tacos"}], "display_phone": "(718) 384-8900", "phone": "+17183848900", "id": "U84nYcclkx_LS0kQkCUB9g", "is_closed": false, "location": {"city": "Brooklyn", "display_address": ["307 Meeker Ave", "Brooklyn, NY 11211"], "country": "US", "address2": null, "address3": "", "state": "NY", "address1": "307 Meeker Ave", "zip_code": "11211"}}, {"rating": 4.0, "review_count": 247, "name": "Pete's Candy Store", "transactions": [], "url": "https://www.yelp.com/biz/petes-candy-store-brooklyn?adjust_creative=yhLoLzsNXKw40xZ5RCWPpA&utm_campaign=yelp_api_v3&utm_medium=api_v3_business_search&utm_source=yhLoLzsNXKw40xZ5RCWPpA", "price": "$", "distance": 161.91112257438527, "coordinates": {"latitude": 40.71809, "longitude": -73.950325}, "alias": "petes-candy-store-brooklyn", "image_url": "https://s3-media2.fl.yelpcdn.com/bphoto/A-h3wgueYwDOjxLHTTpGwQ/o.jpg", "categories": [{"alias": "musicvenues", "title": "Music Venues"}, {"alias": "divebars", "title": "Dive Bars"}, {"alias": "pubs", "title": "Pubs"}], "display_phone": "(718) 302-3770", "phone": "+17183023770", "id": "3ahcwkc4fTd_4M05j1kKiQ", "is_closed": false, "location": {"city": "Brooklyn", "display_address": ["709 Lorimer St", "Brooklyn, NY 11211"], "country": "US", "address2": "", "address3": "", "state": "NY", "address1": "709 Lorimer St", "zip_code": "11211"}}, {"rating": 4.0, "review_count": 320, "name": "Beco", "transactions": ["pickup", "delivery"], "url": "https://www.yelp.com/biz/beco-brooklyn?adjust_creative=yhLoLzsNXKw40xZ5RCWPpA&utm_campaign=yelp_api_v3&utm_medium=api_v3_business_search&utm_source=yhLoLzsNXKw40xZ5RCWPpA", "price": "$$", "distance": 176.09956616737725, "coordinates": {"latitude": 40.71837, "longitude": -73.95045}, "alias": "beco-brooklyn", "image_url": "https://s3-media1.fl.yelpcdn.com/bphoto/RqHnP31JDfFC1zKClKpyeA/o.jpg", "categories": [{"alias": "brazilian", "title": "Brazilian"}, {"alias": "bars", "title": "Bars"}], "display_phone": "(718) 599-1645", "phone": "+17185991645", "id": "MU9gYp1tdK4iB0E2blZUVQ", "is_closed": false, "location": {"city": "Brooklyn", "display_address": ["45 Richardson St", "Brooklyn, NY 11211"], "country": "US", "address2": "", "address3": "", "state": "NY", "address1": "45 Richardson St", "zip_code": "11211"}}, {"rating": 1.0, "review_count": 2, "name": "The Shanty Bar", "transactions": [], "url": "https://www.yelp.com/biz/the-shanty-bar-brooklyn?adjust_creative=yhLoLzsNXKw40xZ5RCWPpA&utm_campaign=yelp_api_v3&utm_medium=api_v3_business_search&utm_source=yhLoLzsNXKw40xZ5RCWPpA", "distance": 196.65079138412085, "coordinates": {"latitude": 40.7212715148926, "longitude": -73.9488830566406}, "alias": "the-shanty-bar-brooklyn", "image_url": "", "categories": [{"alias": "bars", "title": "Bars"}], "display_phone": "(718) 369-3749", "phone": "+17183693749", "id": "fpFSYV4FpYmwXdkdAn5vzg", "is_closed": false, "location": {"city": "Brooklyn", "display_address": ["9405 Leonard St", "Brooklyn, NY"], "country": "US", "address2": "", "address3": "", "state": "NY", "address1": "9405 Leonard St", "zip_code": ""}}, {"rating": 3.5, "review_count": 193, "name": "Night of Joy", "transactions": [], "url": "https://www.yelp.com/biz/night-of-joy-brooklyn?adjust_creative=yhLoLzsNXKw40xZ5RCWPpA&utm_campaign=yelp_api_v3&utm_medium=api_v3_business_search&utm_source=yhLoLzsNXKw40xZ5RCWPpA", "price": "$$", "distance": 207.8634825635446, "coordinates": {"latitude": 40.7163358479738, "longitude": -73.9498208463192}, "alias": "night-of-joy-brooklyn", "image_url": "https://s3-media1.fl.yelpcdn.com/bphoto/s2J8JpPZMxSHy3ceXkFeYw/o.jpg", "categories": [{"alias": "lounges", "title": "Lounges"}], "display_phone": "(718) 388-8693", "phone": "+17183888693", "id": "SGT9FStEKqnGb51331ut4Q", "is_closed": false, "location": {"city": "Brooklyn", "display_address": ["667 Lorimer St", "Brooklyn, NY 11211"], "country": "US", "address2": "", "address3": "", "state": "NY", "address1": "667 Lorimer St", "zip_code": "11211"}}, {"rating": 4.5, "review_count": 24, "name": "Bar Beau", "transactions": [], "url": "https://www.yelp.com/biz/bar-beau-brooklyn?adjust_creative=yhLoLzsNXKw40xZ5RCWPpA&utm_campaign=yelp_api_v3&utm_medium=api_v3_business_search&utm_source=yhLoLzsNXKw40xZ5RCWPpA", "distance": 216.93625069561037, "coordinates": {"latitude": 40.71695, "longitude": -73.95009}, "alias": "bar-beau-brooklyn", "image_url": "https://s3-media3.fl.yelpcdn.com/bphoto/fuOb7COjUyDYUhUU-fvuzg/o.jpg", "categories": [{"alias": "newamerican", "title": "American (New)"}, {"alias": "cocktailbars", "title": "Cocktail Bars"}], "display_phone": "", "phone": "", "id": "MKEMRu-eSKZ_TR7IEGtGGQ", "is_closed": false, "location": {"city": "Brooklyn", "display_address": ["61 Withers St", "Brooklyn, NY 11211"], "country": "US", "address2": null, "address3": "", "state": "NY", "address1": "61 Withers St", "zip_code": "11211"}}, {"rating": 4.0, "review_count": 214, "name": "The Richardson", "transactions": [], "url": "https://www.yelp.com/biz/the-richardson-brooklyn?adjust_creative=yhLoLzsNXKw40xZ5RCWPpA&utm_campaign=yelp_api_v3&utm_medium=api_v3_business_search&utm_source=yhLoLzsNXKw40xZ5RCWPpA", "price": "$$", "distance": 258.8451114310167, "coordinates": {"latitude": 40.7188720703125, "longitude": -73.9453811645508}, "alias": "the-richardson-brooklyn", "image_url": "https://s3-media2.fl.yelpcdn.com/bphoto/JHEsYk29Dogo1c9qqyFn2Q/o.jpg", "categories": [{"alias": "cocktailbars", "title": "Cocktail Bars"}, {"alias": "whiskeybars", "title": "Whiskey Bars"}, {"alias": "tapasmallplates", "title": "Tapas/Small Plates"}], "display_phone": "(718) 389-0839", "phone": "+17183890839", "id": "JKljgQ72sNSbGU0yL54oyQ", "is_closed": false, "location": {"city": "Brooklyn", "display_address": ["451 Graham Ave", "Brooklyn, NY 11222"], "country": "US", "address2": "", "address3": "", "state": "NY", "address1": "451 Graham Ave", "zip_code": "11222"}}, {"rating": 4.0, "review_count": 358, "name": "Llama Inn", "transactions": [], "url": "https://www.yelp.com/biz/llama-inn-brooklyn?adjust_creative=yhLoLzsNXKw40xZ5RCWPpA&utm_campaign=yelp_api_v3&utm_medium=api_v3_business_search&utm_source=yhLoLzsNXKw40xZ5RCWPpA", "price": "$$$", "distance": 265.1490067721122, "coordinates": {"latitude": 40.71672, "longitude": -73.95051}, "alias": "llama-inn-brooklyn", "image_url": "https://s3-media2.fl.yelpcdn.com/bphoto/JwJuw4J8gKxLFmMO54K2Sg/o.jpg", "categories": [{"alias": "peruvian", "title": "Peruvian"}, {"alias": "bars", "title": "Bars"}], "display_phone": "(718) 387-3434", "phone": "+17183873434", "id": "BBPiBgyMmLX5RzaKCB0AeQ", "is_closed": false, "location": {"city": "Brooklyn", "display_address": ["50 Withers St", "Brooklyn, NY 11211"], "country": "US", "address2": "", "address3": "", "state": "NY", "address1": "50 Withers St", "zip_code": "11211"}}, {"rating": 3.5, "review_count": 15, "name": "Tom & Joan's Whiskey Bar", "transactions": [], "url": "https://www.yelp.com/biz/tom-and-joans-whiskey-bar-brooklyn?adjust_creative=yhLoLzsNXKw40xZ5RCWPpA&utm_campaign=yelp_api_v3&utm_medium=api_v3_business_search&utm_source=yhLoLzsNXKw40xZ5RCWPpA", "price": "$$", "distance": 273.880261298968, "coordinates": {"latitude": 40.7182854755867, "longitude": -73.9451466666664}, "alias": "tom-and-joans-whiskey-bar-brooklyn", "image_url": "https://s3-media3.fl.yelpcdn.com/bphoto/VUH8uqVmFKM5Gh0Tf9S7_w/o.jpg", "categories": [{"alias": "whiskeybars", "title": "Whiskey Bars"}, {"alias": "cocktailbars", "title": "Cocktail Bars"}], "display_phone": "(718) 383-5336", "phone": "+17183835336", "id": "YaNMc1Yvr2d57C4cB-NVww", "is_closed": false, "location": {"city": "Brooklyn", "display_address": ["437 Graham Ave", "Brooklyn, NY 11211"], "country": "US", "address2": "", "address3": null, "state": "NY", "address1": "437 Graham Ave", "zip_code": "11211"}}, {"rating": 4.0, "review_count": 24, "name": "Las Margaritas Sunset", "transactions": ["pickup", "delivery"], "url": "https://www.yelp.com/biz/las-margaritas-sunset-brooklyn?adjust_creative=yhLoLzsNXKw40xZ5RCWPpA&utm_campaign=yelp_api_v3&utm_medium=api_v3_business_search&utm_source=yhLoLzsNXKw40xZ5RCWPpA", "price": "$$", "distance": 299.7492261151512, "coordinates": {"latitude": 40.7176805498912, "longitude": -73.9449793863278}, "alias": "las-margaritas-sunset-brooklyn", "image_url": "https://s3-media4.fl.yelpcdn.com/bphoto/52F-yW40pVTJH0xfat4ymA/o.jpg", "categories": [{"alias": "bars", "title": "Bars"}, {"alias": "newmexican", "title": "New Mexican Cuisine"}], "display_phone": "(347) 889-7885", "phone": "+13478897885", "id": "JFlt7BDll3JUDy78vJ2q1g", "is_closed": false, "location": {"city": "Brooklyn", "display_address": ["425 Graham Ave", "Brooklyn, NY 11211"], "country": "US", "address2": "", "address3": null, "state": "NY", "address1": "425 Graham Ave", "zip_code": "11211"}}, {"rating": 4.5, "review_count": 51, "name": "Beer Street", "transactions": [], "url": "https://www.yelp.com/biz/beer-street-brooklyn?adjust_creative=yhLoLzsNXKw40xZ5RCWPpA&utm_campaign=yelp_api_v3&utm_medium=api_v3_business_search&utm_source=yhLoLzsNXKw40xZ5RCWPpA", "price": "$$", "distance": 308.86035351662036, "coordinates": {"latitude": 40.71724, "longitude": -73.945}, "alias": "beer-street-brooklyn", "image_url": "https://s3-media3.fl.yelpcdn.com/bphoto/DKsaRq13WJhc3xSSAsrXiA/o.jpg", "categories": [{"alias": "beerbar", "title": "Beer Bar"}], "display_phone": "(347) 294-0495", "phone": "+13472940495", "id": "6Q2DGEIUOdiMIl0MR6g0IA", "is_closed": false, "location": {"city": "Brooklyn", "display_address": ["413 Graham Ave", "Brooklyn, NY 11211"], "country": "US", "address2": "", "address3": "", "state": "NY", "address1": "413 Graham Ave", "zip_code": "11211"}}, {"rating": 5.0, "review_count": 4, "name": "Skillman Music Recording Studio", "transactions": [], "url": "https://www.yelp.com/biz/skillman-music-recording-studio-williamsburg?adjust_creative=yhLoLzsNXKw40xZ5RCWPpA&utm_campaign=yelp_api_v3&utm_medium=api_v3_business_search&utm_source=yhLoLzsNXKw40xZ5RCWPpA", "distance": 310.09465325669106, "coordinates": {"latitude": 40.715736, "longitude": -73.94905}, "alias": "skillman-music-recording-studio-williamsburg", "image_url": "", "categories": [{"alias": "recording_studios", "title": "Recording & Rehearsal Studios"}, {"alias": "musicvenues", "title": "Music Venues"}, {"alias": "musicproduction", "title": "Music Production Services"}], "display_phone": "(718) 869-1993", "phone": "+17188691993", "id": "-P6TmYsXxE5XNGFfY3pdXw", "is_closed": false, "location": {"city": "Williamsburg", "display_address": ["65 Skillman Ave", "Williamsburg, NY 11211"], "country": "US", "address2": "", "address3": "", "state": "NY", "address1": "65 Skillman Ave", "zip_code": "11211"}}, {"rating": 4.0, "review_count": 80, "name": "Casa Publica", "transactions": ["pickup", "delivery"], "url": "https://www.yelp.com/biz/casa-publica-brooklyn-2?adjust_creative=yhLoLzsNXKw40xZ5RCWPpA&utm_campaign=yelp_api_v3&utm_medium=api_v3_business_search&utm_source=yhLoLzsNXKw40xZ5RCWPpA", "price": "$$$", "distance": 310.1371548980137, "coordinates": {"latitude": 40.718194, "longitude": -73.9520543}, "alias": "casa-publica-brooklyn-2", "image_url": "https://s3-media2.fl.yelpcdn.com/bphoto/nxSOSPbDOiZRzhvlAB_g5w/o.jpg", "categories": [{"alias": "mexican", "title": "Mexican"}, {"alias": "cocktailbars", "title": "Cocktail Bars"}, {"alias": "breakfast_brunch", "title": "Breakfast & Brunch"}], "display_phone": "(718) 388-3555", "phone": "+17183883555", "id": "yl214H_cUd1intjVAeE1Mw", "is_closed": false, "location": {"city": "Brooklyn", "display_address": ["594 Union Ave", "Brooklyn, NY 11211"], "country": "US", "address2": "", "address3": null, "state": "NY", "address1": "594 Union Ave", "zip_code": "11211"}}, {"rating": 5.0, "review_count": 23, "name": "Jimbo Slims", "transactions": [], "url": "https://www.yelp.com/biz/jimbo-slims-brooklyn?adjust_creative=yhLoLzsNXKw40xZ5RCWPpA&utm_campaign=yelp_api_v3&utm_medium=api_v3_business_search&utm_source=yhLoLzsNXKw40xZ5RCWPpA", "distance": 319.5153428612402, "coordinates": {"latitude": 40.7209450363619, "longitude": -73.9465168238625}, "alias": "jimbo-slims-brooklyn", "image_url": "https://s3-media3.fl.yelpcdn.com/bphoto/05BSfdTbQS1EN3ltcxZYMw/o.jpg", "categories": [{"alias": "cocktailbars", "title": "Cocktail Bars"}, {"alias": "tacos", "title": "Tacos"}, {"alias": "wine_bars", "title": "Wine Bars"}], "display_phone": "(917) 909-1057", "phone": "+19179091057", "id": "cOUYYcrOeManYPyuun_xVg", "is_closed": false, "location": {"city": "Brooklyn", "display_address": ["524 Graham Ave", "Brooklyn, NY 11222"], "country": "US", "address2": "", "address3": null, "state": "NY", "address1": "524 Graham Ave", "zip_code": "11222"}}, {"rating": 4.5, "review_count": 41, "name": "Richlane", "transactions": [], "url": "https://www.yelp.com/biz/richlane-brooklyn-2?adjust_creative=yhLoLzsNXKw40xZ5RCWPpA&utm_campaign=yelp_api_v3&utm_medium=api_v3_business_search&utm_source=yhLoLzsNXKw40xZ5RCWPpA", "price": "$", "distance": 347.10696668678077, "coordinates": {"latitude": 40.718124, "longitude": -73.952469}, "alias": "richlane-brooklyn-2", "image_url": "https://s3-media1.fl.yelpcdn.com/bphoto/Wf-Gg6aiSu92L0yHVg17SQ/o.jpg", "categories": [{"alias": "bars", "title": "Bars"}], "display_phone": "(347) 422-0617", "phone": "+13474220617", "id": "1uwdg3vnJ2u0QgDlsm544A", "is_closed": false, "location": {"city": "Brooklyn", "display_address": ["595 Union Ave", "Brooklyn, NY 11211"], "country": "US", "address2": "", "address3": "", "state": "NY", "address1": "595 Union Ave", "zip_code": "11211"}}, {"rating": 4.0, "review_count": 559, "name": "Lilia", "transactions": [], "url": "https://www.yelp.com/biz/lilia-brooklyn?adjust_creative=yhLoLzsNXKw40xZ5RCWPpA&utm_campaign=yelp_api_v3&utm_medium=api_v3_business_search&utm_source=yhLoLzsNXKw40xZ5RCWPpA", "price": "$$$", "distance": 354.7059822745293, "coordinates": {"latitude": 40.71757, "longitude": -73.95236}, "alias": "lilia-brooklyn", "image_url": "https://s3-media3.fl.yelpcdn.com/bphoto/elfQgxp2KzTd4lEYGU1QVQ/o.jpg", "categories": [{"alias": "italian", "title": "Italian"}, {"alias": "cocktailbars", "title": "Cocktail Bars"}], "display_phone": "(718) 576-3095", "phone": "+17185763095", "id": "zwOAiVT4pAmpNGXzj-t5MA", "is_closed": false, "location": {"city": "Brooklyn", "display_address": ["567 Union Ave", "Brooklyn, NY 11211"], "country": "US", "address2": "", "address3": "", "state": "NY", "address1": "567 Union Ave", "zip_code": "11211"}}, {"rating": 4.0, "review_count": 51, "name": "Exley", "transactions": [], "url": "https://www.yelp.com/biz/exley-brooklyn?adjust_creative=yhLoLzsNXKw40xZ5RCWPpA&utm_campaign=yelp_api_v3&utm_medium=api_v3_business_search&utm_source=yhLoLzsNXKw40xZ5RCWPpA", "price": "$$", "distance": 370.3729866414151, "coordinates": {"latitude": 40.7160912, "longitude": -73.9517136}, "alias": "exley-brooklyn", "image_url": "https://s3-media2.fl.yelpcdn.com/bphoto/0jwSuxNefdgU_GWFFuYgPg/o.jpg", "categories": [{"alias": "bars", "title": "Bars"}], "display_phone": "(347) 599-2430", "phone": "+13475992430", "id": "jQWr05enHByXvVlLEKMMVA", "is_closed": false, "location": {"city": "Brooklyn", "display_address": ["1 Jackson St", "Brooklyn, NY 11211"], "country": "US", "address2": "", "address3": "", "state": "NY", "address1": "1 Jackson St", "zip_code": "11211"}}, {"rating": 4.0, "review_count": 13, "name": "Baby Grand", "transactions": [], "url": "https://www.yelp.com/biz/baby-grand-brooklyn?adjust_creative=yhLoLzsNXKw40xZ5RCWPpA&utm_campaign=yelp_api_v3&utm_medium=api_v3_business_search&utm_source=yhLoLzsNXKw40xZ5RCWPpA", "distance": 391.56402386218826, "coordinates": {"latitude": 40.721385, "longitude": -73.945829}, "alias": "baby-grand-brooklyn", "image_url": "https://s3-media3.fl.yelpcdn.com/bphoto/-xsDuFNuJOsSa17N6o5YLQ/o.jpg", "categories": [{"alias": "karaoke", "title": "Karaoke"}, {"alias": "bars", "title": "Bars"}], "display_phone": "(347) 463-9106", "phone": "+13474639106", "id": "Z3qCwMMDCvCZnaqzpbgE1A", "is_closed": false, "location": {"city": "Brooklyn", "display_address": ["55 McGuinness Blvd S", "Brooklyn, NY 11222"], "country": "US", "address2": "", "address3": null, "state": "NY", "address1": "55 McGuinness Blvd S", "zip_code": "11222"}}, {"rating": 4.0, "review_count": 31, "name": "Annicka", "transactions": [], "url": "https://www.yelp.com/biz/annicka-brooklyn?adjust_creative=yhLoLzsNXKw40xZ5RCWPpA&utm_campaign=yelp_api_v3&utm_medium=api_v3_business_search&utm_source=yhLoLzsNXKw40xZ5RCWPpA", "distance": 403.71667339430206, "coordinates": {"latitude": 40.722026, "longitude": -73.94929}, "alias": "annicka-brooklyn", "image_url": "https://s3-media3.fl.yelpcdn.com/bphoto/FGircV8f0QyEBKK9q_K_wQ/o.jpg", "categories": [{"alias": "newamerican", "title": "American (New)"}, {"alias": "cocktailbars", "title": "Cocktail Bars"}, {"alias": "breakfast_brunch", "title": "Breakfast & Brunch"}], "display_phone": "(718) 599-1556", "phone": "+17185991556", "id": "rHynORg95YCMq6OC_hCZfQ", "is_closed": false, "location": {"city": "Brooklyn", "display_address": ["544 Manhattan Av", "Brooklyn, NY 11222"], "country": "US", "address2": "", "address3": null, "state": "NY", "address1": "544 Manhattan Av", "zip_code": "11222"}}, {"rating": 4.0, "review_count": 137, "name": "Frost Restaurant", "transactions": [], "url": "https://www.yelp.com/biz/frost-restaurant-brooklyn?adjust_creative=yhLoLzsNXKw40xZ5RCWPpA&utm_campaign=yelp_api_v3&utm_medium=api_v3_business_search&utm_source=yhLoLzsNXKw40xZ5RCWPpA", "price": "$$", "distance": 412.91626051787466, "coordinates": {"latitude": 40.7183867, "longitude": -73.9434906}, "alias": "frost-restaurant-brooklyn", "image_url": "https://s3-media1.fl.yelpcdn.com/bphoto/n-tTg4edrVF67pJ0D9EObg/o.jpg", "categories": [{"alias": "italian", "title": "Italian"}, {"alias": "seafood", "title": "Seafood"}, {"alias": "wine_bars", "title": "Wine Bars"}], "display_phone": "(917) 609-3215", "phone": "+19176093215", "id": "y_tRUBOu3qg7lkaO2Xk1hQ", "is_closed": false, "location": {"city": "Brooklyn", "display_address": ["193 Frost St", "Brooklyn, NY 11211"], "country": "US", "address2": null, "address3": "", "state": "NY", "address1": "193 Frost St", "zip_code": "11211"}}, {"rating": 5.0, "review_count": 16, "name": "Bernie's", "transactions": [], "url": "https://www.yelp.com/biz/bernies-brooklyn?adjust_creative=yhLoLzsNXKw40xZ5RCWPpA&utm_campaign=yelp_api_v3&utm_medium=api_v3_business_search&utm_source=yhLoLzsNXKw40xZ5RCWPpA", "distance": 429.03636292055165, "coordinates": {"latitude": 40.72189, "longitude": -73.95057}, "alias": "bernies-brooklyn", "image_url": "https://s3-media3.fl.yelpcdn.com/bphoto/ndigG8OCISCr-oXXY-7Vaw/o.jpg", "categories": [{"alias": "newamerican", "title": "American (New)"}, {"alias": "beerbar", "title": "Beer Bar"}, {"alias": "wine_bars", "title": "Wine Bars"}], "display_phone": "(347) 529-6400", "phone": "+13475296400", "id": "-KKgqE2g4c1cH4YmmDR9CQ", "is_closed": false, "location": {"city": "Brooklyn", "display_address": ["332 Driggs Ave", "Brooklyn, NY 11222"], "country": "US", "address2": "", "address3": null, "state": "NY", "address1": "332 Driggs Ave", "zip_code": "11222"}}, {"rating": 4.5, "review_count": 246, "name": "Ringolevio", "transactions": ["pickup"], "url": "https://www.yelp.com/biz/ringolevio-brooklyn?adjust_creative=yhLoLzsNXKw40xZ5RCWPpA&utm_campaign=yelp_api_v3&utm_medium=api_v3_business_search&utm_source=yhLoLzsNXKw40xZ5RCWPpA", "price": "$$", "distance": 433.42214866336866, "coordinates": {"latitude": 40.71907, "longitude": -73.94337}, "alias": "ringolevio-brooklyn", "image_url": "https://s3-media3.fl.yelpcdn.com/bphoto/2W63o7hWYZGduWRZ88kaJg/o.jpg", "categories": [{"alias": "mediterranean", "title": "Mediterranean"}, {"alias": "tapasmallplates", "title": "Tapas/Small Plates"}, {"alias": "cocktailbars", "title": "Cocktail Bars"}], "display_phone": "(347) 335-0056", "phone": "+13473350056", "id": "TS2mqGtNhOzMKcSqJvrBPg", "is_closed": false, "location": {"city": "Brooklyn", "display_address": ["490 Humboldt St", "Brooklyn, NY 11222"], "country": "US", "address2": "", "address3": "", "state": "NY", "address1": "490 Humboldt St", "zip_code": "11222"}}, {"rating": 4.0, "review_count": 57, "name": "Muchmore's", "transactions": [], "url": "https://www.yelp.com/biz/muchmores-brooklyn?adjust_creative=yhLoLzsNXKw40xZ5RCWPpA&utm_campaign=yelp_api_v3&utm_medium=api_v3_business_search&utm_source=yhLoLzsNXKw40xZ5RCWPpA", "price": "$", "distance": 443.31530504357914, "coordinates": {"latitude": 40.7164523632333, "longitude": -73.952944278717}, "alias": "muchmores-brooklyn", "image_url": "https://s3-media1.fl.yelpcdn.com/bphoto/KtU3ZHvu0xeZbOO1LFvJYA/o.jpg", "categories": [{"alias": "musicvenues", "title": "Music Venues"}, {"alias": "bars", "title": "Bars"}, {"alias": "coffee", "title": "Coffee & Tea"}], "display_phone": "(718) 576-3222", "phone": "+17185763222", "id": "T359YSSXKd6bFU0OmG61lA", "is_closed": false, "location": {"city": "Brooklyn", "display_address": ["2 Havemeyer St", "Brooklyn, NY 11211"], "country": "US", "address2": "", "address3": "", "state": "NY", "address1": "2 Havemeyer St", "zip_code": "11211"}}, {"rating": 3.5, "review_count": 81, "name": "Warsaw at The Polish National Home", "transactions": [], "url": "https://www.yelp.com/biz/warsaw-at-the-polish-national-home-brooklyn-3?adjust_creative=yhLoLzsNXKw40xZ5RCWPpA&utm_campaign=yelp_api_v3&utm_medium=api_v3_business_search&utm_source=yhLoLzsNXKw40xZ5RCWPpA", "price": "$$", "distance": 449.34454088204586, "coordinates": {"latitude": 40.72255, "longitude": -73.94832}, "alias": "warsaw-at-the-polish-national-home-brooklyn-3", "image_url": "https://s3-media1.fl.yelpcdn.com/bphoto/-tbjnxoNOHDJJwvb-5qGDA/o.jpg", "categories": [{"alias": "musicvenues", "title": "Music Venues"}, {"alias": "divebars", "title": "Dive Bars"}, {"alias": "venues", "title": "Venues & Event Spaces"}], "display_phone": "(212) 777-6800", "phone": "+12127776800", "id": "vm1qHkSvmvIwyn_2ZkBD3g", "is_closed": false, "location": {"city": "Brooklyn", "display_address": ["261 Driggs Ave", "Brooklyn, NY 11222"], "country": "US", "address2": "", "address3": "", "state": "NY", "address1": "261 Driggs Ave", "zip_code": "11222"}}, {"rating": 4.5, "review_count": 38, "name": "Four Five Six", "transactions": [], "url": "https://www.yelp.com/biz/four-five-six-brooklyn?adjust_creative=yhLoLzsNXKw40xZ5RCWPpA&utm_campaign=yelp_api_v3&utm_medium=api_v3_business_search&utm_source=yhLoLzsNXKw40xZ5RCWPpA", "price": "$$", "distance": 450.25470075638816, "coordinates": {"latitude": 40.7191163569929, "longitude": -73.9431204924925}, "alias": "four-five-six-brooklyn", "image_url": "https://s3-media1.fl.yelpcdn.com/bphoto/UWhneU_kUeq-t5jGWpChLQ/o.jpg", "categories": [{"alias": "bars", "title": "Bars"}, {"alias": "mediterranean", "title": "Mediterranean"}], "display_phone": "(347) 916-0286", "phone": "+13479160286", "id": "HuU2IGPfQ23FTOGDQg0Ieg", "is_closed": false, "location": {"city": "Brooklyn", "display_address": ["199 Richardson St", "Brooklyn, NY 11222"], "country": "US", "address2": "", "address3": null, "state": "NY", "address1": "199 Richardson St", "zip_code": "11222"}}, {"rating": 4.0, "review_count": 131, "name": "Concord Hill", "transactions": ["pickup", "delivery"], "url": "https://www.yelp.com/biz/concord-hill-brooklyn?adjust_creative=yhLoLzsNXKw40xZ5RCWPpA&utm_campaign=yelp_api_v3&utm_medium=api_v3_business_search&utm_source=yhLoLzsNXKw40xZ5RCWPpA", "price": "$$", "distance": 467.6798128232155, "coordinates": {"latitude": 40.71558, "longitude": -73.94428}, "alias": "concord-hill-brooklyn", "image_url": "https://s3-media4.fl.yelpcdn.com/bphoto/RVXeaYL3nvf75AsGceDNrQ/o.jpg", "categories": [{"alias": "newamerican", "title": "American (New)"}, {"alias": "breakfast_brunch", "title": "Breakfast & Brunch"}, {"alias": "wine_bars", "title": "Wine Bars"}], "display_phone": "(347) 463-9322", "phone": "+13474639322", "id": "YHXsmYfxbgczsq8Ie1_C5w", "is_closed": false, "location": {"city": "Brooklyn", "display_address": ["374 Graham Ave", "Brooklyn, NY 11211"], "country": "US", "address2": null, "address3": "", "state": "NY", "address1": "374 Graham Ave", "zip_code": "11211"}}, {"rating": 3.5, "review_count": 598, "name": "Union Pool", "transactions": [], "url": "https://www.yelp.com/biz/union-pool-brooklyn-2?adjust_creative=yhLoLzsNXKw40xZ5RCWPpA&utm_campaign=yelp_api_v3&utm_medium=api_v3_business_search&utm_source=yhLoLzsNXKw40xZ5RCWPpA", "price": "$$", "distance": 469.2608324425867, "coordinates": {"latitude": 40.7149974467614, "longitude": -73.9515978509192}, "alias": "union-pool-brooklyn-2", "image_url": "https://s3-media2.fl.yelpcdn.com/bphoto/OkD2OBAo_ciDxLLwE-kmZg/o.jpg", "categories": [{"alias": "bars", "title": "Bars"}, {"alias": "musicvenues", "title": "Music Venues"}], "display_phone": "(718) 609-0484", "phone": "+17186090484", "id": "iGJorB_v-L_Zo2Wz74NAqw", "is_closed": false, "location": {"city": "Brooklyn", "display_address": ["484 Union Ave", "Brooklyn, NY 11211"], "country": "US", "address2": "", "address3": "", "state": "NY", "address1": "484 Union Ave", "zip_code": "11211"}}, {"rating": 4.0, "review_count": 704, "name": "Mesa Coyoacan", "transactions": [], "url": "https://www.yelp.com/biz/mesa-coyoacan-brooklyn?adjust_creative=yhLoLzsNXKw40xZ5RCWPpA&utm_campaign=yelp_api_v3&utm_medium=api_v3_business_search&utm_source=yhLoLzsNXKw40xZ5RCWPpA", "price": "$$", "distance": 472.09902520631687, "coordinates": {"latitude": 40.715528, "longitude": -73.944273}, "alias": "mesa-coyoacan-brooklyn", "image_url": "https://s3-media4.fl.yelpcdn.com/bphoto/bDRbU_Tpl5nZYkZx-zYASw/o.jpg", "categories": [{"alias": "mexican", "title": "Mexican"}, {"alias": "bars", "title": "Bars"}], "display_phone": "(718) 782-8171", "phone": "+17187828171", "id": "mmAlHhnTDXIohPC3wfl0hQ", "is_closed": false, "location": {"city": "Brooklyn", "display_address": ["372 Graham Ave", "Brooklyn, NY 11211"], "country": "US", "address2": "", "address3": "", "state": "NY", "address1": "372 Graham Ave", "zip_code": "11211"}}, {"rating": 3.5, "review_count": 425, "name": "Enid's", "transactions": [], "url": "https://www.yelp.com/biz/enids-brooklyn?adjust_creative=yhLoLzsNXKw40xZ5RCWPpA&utm_campaign=yelp_api_v3&utm_medium=api_v3_business_search&utm_source=yhLoLzsNXKw40xZ5RCWPpA", "price": "$$", "distance": 475.86633896678785, "coordinates": {"latitude": 40.722592, "longitude": -73.949792}, "alias": "enids-brooklyn", "image_url": "https://s3-media1.fl.yelpcdn.com/bphoto/eANnoQsDbnxiwabuxRUN2w/o.jpg", "categories": [{"alias": "southern", "title": "Southern"}, {"alias": "bars", "title": "Bars"}, {"alias": "breakfast_brunch", "title": "Breakfast & Brunch"}], "display_phone": "(718) 349-3859", "phone": "+17183493859", "id": "avVEthVQeXeygAgXfJP8zQ", "is_closed": false, "location": {"city": "Brooklyn", "display_address": ["560 Manhattan Ave", "Brooklyn, NY 11222"], "country": "US", "address2": "", "address3": "", "state": "NY", "address1": "560 Manhattan Ave", "zip_code": "11222"}}, {"rating": 5.0, "review_count": 1, "name": "Brooklyn Comedy Collective", "transactions": [], "url": "https://www.yelp.com/biz/brooklyn-comedy-collective-brooklyn?adjust_creative=yhLoLzsNXKw40xZ5RCWPpA&utm_campaign=yelp_api_v3&utm_medium=api_v3_business_search&utm_source=yhLoLzsNXKw40xZ5RCWPpA", "distance": 476.74206433767745, "coordinates": {"latitude": 40.71418, "longitude": -73.94961}, "alias": "brooklyn-comedy-collective-brooklyn", "image_url": "https://s3-media2.fl.yelpcdn.com/bphoto/1hLFZHc4EbEpst6rr03VxA/o.jpg", "categories": [{"alias": "comedyclubs", "title": "Comedy Clubs"}, {"alias": "dramaschools", "title": "Drama Schools"}], "display_phone": "(917) 593-3843", "phone": "+19175933843", "id": "0b219wrHd6Ki8f_Oou-WSQ", "is_closed": false, "location": {"city": "Brooklyn", "display_address": ["579 Metropolitan Ave", "Brooklyn, NY 11211"], "country": "US", "address2": null, "address3": "", "state": "NY", "address1": "579 Metropolitan Ave", "zip_code": "11211"}}, {"rating": 4.5, "review_count": 108, "name": "Humboldt and Jackson", "transactions": [], "url": "https://www.yelp.com/biz/humboldt-and-jackson-williamsburg?adjust_creative=yhLoLzsNXKw40xZ5RCWPpA&utm_campaign=yelp_api_v3&utm_medium=api_v3_business_search&utm_source=yhLoLzsNXKw40xZ5RCWPpA", "price": "$$", "distance": 482.09213826223225, "coordinates": {"latitude": 40.7166749128013, "longitude": -73.9431685939692}, "alias": "humboldt-and-jackson-williamsburg", "image_url": "https://s3-media3.fl.yelpcdn.com/bphoto/ydCcb40u8hLaVyHs2FWrWw/o.jpg", "categories": [{"alias": "newamerican", "title": "American (New)"}, {"alias": "venues", "title": "Venues & Event Spaces"}, {"alias": "bars", "title": "Bars"}], "display_phone": "(718) 349-3355", "phone": "+17183493355", "id": "hu2bo4hZueedSKBimTAqOw", "is_closed": false, "location": {"city": "Williamsburg", "display_address": ["434 Humboldt St", "Williamsburg, NY 11211"], "country": "US", "address2": "", "address3": "", "state": "NY", "address1": "434 Humboldt St", "zip_code": "11211"}}, {"rating": 4.5, "review_count": 7, "name": "Jr And Son", "transactions": [], "url": "https://www.yelp.com/biz/jr-and-son-new-york?adjust_creative=yhLoLzsNXKw40xZ5RCWPpA&utm_campaign=yelp_api_v3&utm_medium=api_v3_business_search&utm_source=yhLoLzsNXKw40xZ5RCWPpA", "price": "$$", "distance": 483.55893607021744, "coordinates": {"latitude": 40.7141849, "longitude": -73.9495321}, "alias": "jr-and-son-new-york", "image_url": "https://s3-media1.fl.yelpcdn.com/bphoto/g0gKZCuuuhkgorHq_TEVcA/o.jpg", "categories": [{"alias": "divebars", "title": "Dive Bars"}], "display_phone": "(917) 499-3248", "phone": "+19174993248", "id": "glyGvgQWuvawoZ2yq_5w9g", "is_closed": false, "location": {"city": "New York", "display_address": ["575 Metropolitan Ave", "New York, NY 11211"], "country": "US", "address2": "", "address3": "", "state": "NY", "address1": "575 Metropolitan Ave", "zip_code": "11211"}}, {"rating": 4.0, "review_count": 543, "name": "Fushimi Modern Japanese Cuisine & Lounge", "transactions": ["pickup", "delivery"], "url": "https://www.yelp.com/biz/fushimi-modern-japanese-cuisine-and-lounge-brooklyn?adjust_creative=yhLoLzsNXKw40xZ5RCWPpA&utm_campaign=yelp_api_v3&utm_medium=api_v3_business_search&utm_source=yhLoLzsNXKw40xZ5RCWPpA", "price": "$$", "distance": 485.72560446495396, "coordinates": {"latitude": 40.718827, "longitude": -73.954131}, "alias": "fushimi-modern-japanese-cuisine-and-lounge-brooklyn", "image_url": "https://s3-media2.fl.yelpcdn.com/bphoto/HNs4pxcWYswvhKrKVhdhcA/o.jpg", "categories": [{"alias": "japanese", "title": "Japanese"}, {"alias": "lounges", "title": "Lounges"}], "display_phone": "(718) 963-2555", "phone": "+17189632555", "id": "6EArjn_iacj-yGVLTKWuEQ", "is_closed": false, "location": {"city": "Brooklyn", "display_address": ["475 Driggs Ave", "Brooklyn, NY 11211"], "country": "US", "address2": "", "address3": "", "state": "NY", "address1": "475 Driggs Ave", "zip_code": "11211"}}, {"rating": 4.0, "review_count": 472, "name": "Alligator Lounge", "transactions": [], "url": "https://www.yelp.com/biz/alligator-lounge-brooklyn?adjust_creative=yhLoLzsNXKw40xZ5RCWPpA&utm_campaign=yelp_api_v3&utm_medium=api_v3_business_search&utm_source=yhLoLzsNXKw40xZ5RCWPpA", "price": "$", "distance": 498.3087736008395, "coordinates": {"latitude": 40.7139768734763, "longitude": -73.9488170339393}, "alias": "alligator-lounge-brooklyn", "image_url": "https://s3-media1.fl.yelpcdn.com/bphoto/kMYvQgqypvkGUGwTRMzCOQ/o.jpg", "categories": [{"alias": "lounges", "title": "Lounges"}, {"alias": "divebars", "title": "Dive Bars"}, {"alias": "karaoke", "title": "Karaoke"}], "display_phone": "(718) 599-4440", "phone": "+17185994440", "id": "wpXbDM43Jb7NvPZeW9v9Sg", "is_closed": false, "location": {"city": "Brooklyn", "display_address": ["600 Metropolitan Ave", "Brooklyn, NY 11211"], "country": "US", "address2": "", "address3": "", "state": "NY", "address1": "600 Metropolitan Ave", "zip_code": "11211"}}, {"rating": 4.0, "review_count": 240, "name": "Northern Bell", "transactions": ["pickup", "delivery"], "url": "https://www.yelp.com/biz/northern-bell-brooklyn?adjust_creative=yhLoLzsNXKw40xZ5RCWPpA&utm_campaign=yelp_api_v3&utm_medium=api_v3_business_search&utm_source=yhLoLzsNXKw40xZ5RCWPpA", "price": "$$", "distance": 501.6412996753374, "coordinates": {"latitude": 40.71389, "longitude": -73.94855}, "alias": "northern-bell-brooklyn", "image_url": "https://s3-media2.fl.yelpcdn.com/bphoto/6Uiv8eAoExSSBnoo0WTalA/o.jpg", "categories": [{"alias": "bbq", "title": "Barbeque"}, {"alias": "beerbar", "title": "Beer Bar"}], "display_phone": "(718) 388-9040", "phone": "+17183889040", "id": "W8flNX3SneJlQBQt7C9Q9w", "is_closed": false, "location": {"city": "Brooklyn", "display_address": ["612 Metropolitan Ave", "Brooklyn, NY 11211"], "country": "US", "address2": null, "address3": null, "state": "NY", "address1": "612 Metropolitan Ave", "zip_code": "11211"}}, {"rating": 3.5, "review_count": 238, "name": "Mother's", "transactions": ["pickup", "delivery"], "url": "https://www.yelp.com/biz/mothers-brooklyn-2?adjust_creative=yhLoLzsNXKw40xZ5RCWPpA&utm_campaign=yelp_api_v3&utm_medium=api_v3_business_search&utm_source=yhLoLzsNXKw40xZ5RCWPpA", "price": "$$", "distance": 504.02535519689565, "coordinates": {"latitude": 40.71488, "longitude": -73.94471}, "alias": "mothers-brooklyn-2", "image_url": "https://s3-media2.fl.yelpcdn.com/bphoto/oS-T3i_uUaBlOsO23bXu9Q/o.jpg", "categories": [{"alias": "burgers", "title": "Burgers"}, {"alias": "pubs", "title": "Pubs"}], "display_phone": "(718) 384-7778", "phone": "+17183847778", "id": "DUYxe9yYAx3GQiZXub5pmA", "is_closed": false, "location": {"city": "Brooklyn", "display_address": ["347 Graham Ave", "Brooklyn, NY 11211"], "country": "US", "address2": "", "address3": "", "state": "NY", "address1": "347 Graham Ave", "zip_code": "11211"}}, {"rating": 4.5, "review_count": 20, "name": "Beer Karma", "transactions": [], "url": "https://www.yelp.com/biz/beer-karma-brooklyn?adjust_creative=yhLoLzsNXKw40xZ5RCWPpA&utm_campaign=yelp_api_v3&utm_medium=api_v3_business_search&utm_source=yhLoLzsNXKw40xZ5RCWPpA", "price": "$$", "distance": 515.2368106666971, "coordinates": {"latitude": 40.7144577284277, "longitude": -73.9515004452379}, "alias": "beer-karma-brooklyn", "image_url": "https://s3-media4.fl.yelpcdn.com/bphoto/xPuHh-sMUn4TqgUvJgcNCw/o.jpg", "categories": [{"alias": "beerbar", "title": "Beer Bar"}], "display_phone": "(914) 494-0279", "phone": "+19144940279", "id": "-8uHt7w0Mvvwz8xYGeJOQw", "is_closed": false, "location": {"city": "Brooklyn", "display_address": ["470 Union Ave", "Brooklyn, NY 11211"], "country": "US", "address2": "", "address3": null, "state": "NY", "address1": "470 Union Ave", "zip_code": "11211"}}, {"rating": 4.0, "review_count": 395, "name": "Carmine's Pizzeria", "transactions": ["pickup", "delivery"], "url": "https://www.yelp.com/biz/carmines-pizzeria-brooklyn?adjust_creative=yhLoLzsNXKw40xZ5RCWPpA&utm_campaign=yelp_api_v3&utm_medium=api_v3_business_search&utm_source=yhLoLzsNXKw40xZ5RCWPpA", "price": "$", "distance": 524.7955886288865, "coordinates": {"latitude": 40.714987, "longitude": -73.94414}, "alias": "carmines-pizzeria-brooklyn", "image_url": "https://s3-media2.fl.yelpcdn.com/bphoto/4V8twuuJO2a9VWesjHO_-A/o.jpg", "categories": [{"alias": "pizza", "title": "Pizza"}, {"alias": "italian", "title": "Italian"}, {"alias": "sportsbars", "title": "Sports Bars"}], "display_phone": "(718) 782-9659", "phone": "+17187829659", "id": "WE_dce2JKcv-VoFNaqiJ4w", "is_closed": false, "location": {"city": "Brooklyn", "display_address": ["358 Graham Ave", "Brooklyn, NY 11211"], "country": "US", "address2": "", "address3": "", "state": "NY", "address1": "358 Graham Ave", "zip_code": "11211"}}, {"rating": 3.5, "review_count": 130, "name": "Macri Park", "transactions": [], "url": "https://www.yelp.com/biz/macri-park-brooklyn?adjust_creative=yhLoLzsNXKw40xZ5RCWPpA&utm_campaign=yelp_api_v3&utm_medium=api_v3_business_search&utm_source=yhLoLzsNXKw40xZ5RCWPpA", "price": "$", "distance": 526.6162662069454, "coordinates": {"latitude": 40.714317, "longitude": -73.9514}, "alias": "macri-park-brooklyn", "image_url": "https://s3-media3.fl.yelpcdn.com/bphoto/elCGf7dcNLBXmp3rlmyYGw/o.jpg", "categories": [{"alias": "gaybars", "title": "Gay Bars"}], "display_phone": "(718) 599-4999", "phone": "+17185994999", "id": "snUWb8ZynXhV_WOgExvtig", "is_closed": false, "location": {"city": "Brooklyn", "display_address": ["462 Union Ave", "Brooklyn, NY 11211"], "country": "US", "address2": "", "address3": "", "state": "NY", "address1": "462 Union Ave", "zip_code": "11211"}}, {"rating": 4.5, "review_count": 192, "name": "Charlotte Patisserie", "transactions": ["pickup", "delivery"], "url": "https://www.yelp.com/biz/charlotte-patisserie-brooklyn?adjust_creative=yhLoLzsNXKw40xZ5RCWPpA&utm_campaign=yelp_api_v3&utm_medium=api_v3_business_search&utm_source=yhLoLzsNXKw40xZ5RCWPpA", "price": "$$", "distance": 539.6593822646066, "coordinates": {"latitude": 40.72308, "longitude": -73.95025}, "alias": "charlotte-patisserie-brooklyn", "image_url": "https://s3-media1.fl.yelpcdn.com/bphoto/UMp_TAge3J_FtdpY8ktNSQ/o.jpg", "categories": [{"alias": "breakfast_brunch", "title": "Breakfast & Brunch"}, {"alias": "sandwiches", "title": "Sandwiches"}, {"alias": "beerbar", "title": "Beer Bar"}], "display_phone": "(718) 383-8313", "phone": "+17183838313", "id": "AVD3Qo2VHRDfbPKL09lmfA", "is_closed": false, "location": {"city": "Brooklyn", "display_address": ["596 Manhattan Ave", "Brooklyn, NY 11222"], "country": "US", "address2": "", "address3": "", "state": "NY", "address1": "596 Manhattan Ave", "zip_code": "11222"}}, {"rating": 3.5, "review_count": 215, "name": "Metropolitan", "transactions": [], "url": "https://www.yelp.com/biz/metropolitan-brooklyn?adjust_creative=yhLoLzsNXKw40xZ5RCWPpA&utm_campaign=yelp_api_v3&utm_medium=api_v3_business_search&utm_source=yhLoLzsNXKw40xZ5RCWPpA", "price": "$", "distance": 541.4959072778579, "coordinates": {"latitude": 40.71363, "longitude": -73.94948}, "alias": "metropolitan-brooklyn", "image_url": "https://s3-media2.fl.yelpcdn.com/bphoto/uXnqme9jmzsGtHuEhntzIA/o.jpg", "categories": [{"alias": "gaybars", "title": "Gay Bars"}], "display_phone": "(718) 599-4444", "phone": "+17185994444", "id": "UQ43bACQqJ9gic3XuxhpTA", "is_closed": false, "location": {"city": "Brooklyn", "display_address": ["559 Lorimer St", "Brooklyn, NY 11211"], "country": "US", "address2": "", "address3": "", "state": "NY", "address1": "559 Lorimer St", "zip_code": "11211"}}, {"rating": 4.0, "review_count": 86, "name": "The Craic", "transactions": [], "url": "https://www.yelp.com/biz/the-craic-brooklyn?adjust_creative=yhLoLzsNXKw40xZ5RCWPpA&utm_campaign=yelp_api_v3&utm_medium=api_v3_business_search&utm_source=yhLoLzsNXKw40xZ5RCWPpA", "price": "$$", "distance": 548.0682930850705, "coordinates": {"latitude": 40.7184955, "longitude": -73.9548923}, "alias": "the-craic-brooklyn", "image_url": "https://s3-media4.fl.yelpcdn.com/bphoto/Gw35g-fCsIMz_IbNCfHKGw/o.jpg", "categories": [{"alias": "pubs", "title": "Pubs"}], "display_phone": "(347) 384-2772", "phone": "+13473842772", "id": "PxyxNj43WSDjRF588HFJdQ", "is_closed": false, "location": {"city": "Brooklyn", "display_address": ["488 Driggs Ave", "Brooklyn, NY 11211"], "country": "US", "address2": null, "address3": "", "state": "NY", "address1": "488 Driggs Ave", "zip_code": "11211"}}, {"rating": 4.5, "review_count": 6, "name": "A Bar", "transactions": [], "url": "https://www.yelp.com/biz/a-bar-brooklyn-2?adjust_creative=yhLoLzsNXKw40xZ5RCWPpA&utm_campaign=yelp_api_v3&utm_medium=api_v3_business_search&utm_source=yhLoLzsNXKw40xZ5RCWPpA", "price": "$$", "distance": 549.2692655207238, "coordinates": {"latitude": 40.72307, "longitude": -73.95052}, "alias": "a-bar-brooklyn-2", "image_url": "", "categories": [{"alias": "bars", "title": "Bars"}], "display_phone": "", "phone": "", "id": "gBDlbnsZuLyCb0ZfDHxvgQ", "is_closed": false, "location": {"city": "Brooklyn", "display_address": ["597 Manhattan Ave", "Brooklyn, NY 11222"], "country": "US", "address2": null, "address3": "", "state": "NY", "address1": "597 Manhattan Ave", "zip_code": "11222"}}, {"rating": 3.5, "review_count": 51, "name": "Roebling Sporting Club", "transactions": ["pickup", "delivery"], "url": "https://www.yelp.com/biz/roebling-sporting-club-new-york?adjust_creative=yhLoLzsNXKw40xZ5RCWPpA&utm_campaign=yelp_api_v3&utm_medium=api_v3_business_search&utm_source=yhLoLzsNXKw40xZ5RCWPpA", "price": "$$", "distance": 550.347263218485, "coordinates": {"latitude": 40.717014, "longitude": -73.954605}, "alias": "roebling-sporting-club-new-york", "image_url": "https://s3-media2.fl.yelpcdn.com/bphoto/hVGKBWjXU25B3k66yOyU3w/o.jpg", "categories": [{"alias": "sportsbars", "title": "Sports Bars"}], "display_phone": "(718) 388-3088", "phone": "+17183883088", "id": "NoKrcCTeoLOlN4_-UMrjGA", "is_closed": false, "location": {"city": "Brooklyn", "display_address": ["225 N 8th St", "Brooklyn, NY 11211"], "country": "US", "address2": "", "address3": "", "state": "NY", "address1": "225 N 8th St", "zip_code": "11211"}}, {"rating": 4.5, "review_count": 272, "name": "Sugarburg", "transactions": [], "url": "https://www.yelp.com/biz/sugarburg-brooklyn?adjust_creative=yhLoLzsNXKw40xZ5RCWPpA&utm_campaign=yelp_api_v3&utm_medium=api_v3_business_search&utm_source=yhLoLzsNXKw40xZ5RCWPpA", "price": "$$", "distance": 552.3913525715451, "coordinates": {"latitude": 40.7141182158499, "longitude": -73.9516061916947}, "alias": "sugarburg-brooklyn", "image_url": "https://s3-media2.fl.yelpcdn.com/bphoto/c971aXTMDOz38jN_IuLZOQ/o.jpg", "categories": [{"alias": "pubs", "title": "Pubs"}, {"alias": "coffee", "title": "Coffee & Tea"}, {"alias": "tradamerican", "title": "American (Traditional)"}], "display_phone": "(917) 618-3029", "phone": "+19176183029", "id": "hK14kghcSPkljAqzEHNemA", "is_closed": false, "location": {"city": "Brooklyn", "display_address": ["519 Metropolitan Ave", "Brooklyn, NY 11211"], "country": "US", "address2": "", "address3": "", "state": "NY", "address1": "519 Metropolitan Ave", "zip_code": "11211"}}, {"rating": 4.5, "review_count": 61, "name": "Little King", "transactions": [], "url": "https://www.yelp.com/biz/little-king-brooklyn?adjust_creative=yhLoLzsNXKw40xZ5RCWPpA&utm_campaign=yelp_api_v3&utm_medium=api_v3_business_search&utm_source=yhLoLzsNXKw40xZ5RCWPpA", "price": "$$", "distance": 554.8479491132845, "coordinates": {"latitude": 40.7146854, "longitude": -73.9440075}, "alias": "little-king-brooklyn", "image_url": "https://s3-media3.fl.yelpcdn.com/bphoto/aAbgwFeyCeLkD8myNAEfpw/o.jpg", "categories": [{"alias": "bars", "title": "Bars"}, {"alias": "newamerican", "title": "American (New)"}], "display_phone": "(917) 947-9965", "phone": "+19179479965", "id": "6gxAuRoZnEFERnIrtE6BAg", "is_closed": false, "location": {"city": "Brooklyn", "display_address": ["749 Metropolitan Ave", "Brooklyn, NY 11211"], "country": "US", "address2": "", "address3": null, "state": "NY", "address1": "749 Metropolitan Ave", "zip_code": "11211"}}, {"rating": 4.0, "review_count": 445, "name": "Harefield Road", "transactions": [], "url": "https://www.yelp.com/biz/harefield-road-brooklyn?adjust_creative=yhLoLzsNXKw40xZ5RCWPpA&utm_campaign=yelp_api_v3&utm_medium=api_v3_business_search&utm_source=yhLoLzsNXKw40xZ5RCWPpA", "price": "$$", "distance": 582.0738528139817, "coordinates": {"latitude": 40.71476, "longitude": -73.94342}, "alias": "harefield-road-brooklyn", "image_url": "https://s3-media1.fl.yelpcdn.com/bphoto/YI0T7fj9VswAUSKlSi9oiA/o.jpg", "categories": [{"alias": "bars", "title": "Bars"}, {"alias": "breakfast_brunch", "title": "Breakfast & Brunch"}], "display_phone": "(718) 388-6870", "phone": "+17183886870", "id": "XVbFdJaSEECQdU0nDyUOug", "is_closed": false, "location": {"city": "Brooklyn", "display_address": ["769 Metropolitan Ave", "Brooklyn, NY 11211"], "country": "US", "address2": "", "address3": "", "state": "NY", "address1": "769 Metropolitan Ave", "zip_code": "11211"}}, {"rating": 4.5, "review_count": 364, "name": "T\u00d8RST", "transactions": [], "url": "https://www.yelp.com/biz/t%C3%B8rst-brooklyn?adjust_creative=yhLoLzsNXKw40xZ5RCWPpA&utm_campaign=yelp_api_v3&utm_medium=api_v3_business_search&utm_source=yhLoLzsNXKw40xZ5RCWPpA", "price": "$$", "distance": 588.1860255202965, "coordinates": {"latitude": 40.7233949, "longitude": -73.950856}, "alias": "t\u00f8rst-brooklyn", "image_url": "https://s3-media4.fl.yelpcdn.com/bphoto/cg3z8da4KlD6CeVs2-JSqQ/o.jpg", "categories": [{"alias": "beerbar", "title": "Beer Bar"}, {"alias": "burgers", "title": "Burgers"}, {"alias": "newamerican", "title": "American (New)"}], "display_phone": "(718) 389-6034", "phone": "+17183896034", "id": "TDyu1-6XF7r1jc13j7nDNA", "is_closed": false, "location": {"city": "Brooklyn", "display_address": ["615 Manhattan Ave", "Brooklyn, NY 11222"], "country": "US", "address2": "", "address3": "", "state": "NY", "address1": "615 Manhattan Ave", "zip_code": "11222"}}, {"rating": 4.5, "review_count": 117, "name": "Ba'sik", "transactions": [], "url": "https://www.yelp.com/biz/basik-brooklyn-2?adjust_creative=yhLoLzsNXKw40xZ5RCWPpA&utm_campaign=yelp_api_v3&utm_medium=api_v3_business_search&utm_source=yhLoLzsNXKw40xZ5RCWPpA", "price": "$$", "distance": 594.6404254290593, "coordinates": {"latitude": 40.7139499, "longitude": -73.94457}, "alias": "basik-brooklyn-2", "image_url": "https://s3-media1.fl.yelpcdn.com/bphoto/4hYOkTfORmdz584qMIndyQ/o.jpg", "categories": [{"alias": "breakfast_brunch", "title": "Breakfast & Brunch"}, {"alias": "cocktailbars", "title": "Cocktail Bars"}, {"alias": "coffee", "title": "Coffee & Tea"}], "display_phone": "(347) 889-7597", "phone": "+13478897597", "id": "Hsxa_mmJzDnD0RApdacGgw", "is_closed": false, "location": {"city": "Brooklyn", "display_address": ["323 Graham Ave", "Brooklyn, NY 11211"], "country": "US", "address2": "", "address3": "", "state": "NY", "address1": "323 Graham Ave", "zip_code": "11211"}}]}