{"region": {"center": {"latitude": 40.6718704105, "longitude": -73.9881051341}}, "total": 2900, "businesses": [{"rating": 5.0, "review_count": 3, "name": "Kindred Spirits", "transactions": [], "url": "https://www.yelp.com/biz/kindred-spirits-brooklyn?adjust_creative=yhLoLzsNXKw40xZ5RCWPpA&utm_campaign=yelp_api_v3&utm_medium=api_v3_business_search&utm_source=yhLoLzsNXKw40xZ5RCWPpA", "price": "$", "distance": 112.34502912625062, "coordinates": {"latitude": 40.6718, "longitude": -73.98678}, "alias": "kindred-spirits-brooklyn", "image_url": "https://s3-media3.fl.yelpcdn.com/bphoto/wBYH2ro_ZdeLhgsnq4MiKg/o.jpg", "categories": [{"alias": "wine_bars", "title": "Wine Bars"}, {"alias": "coffee", "title": "Coffee & Tea"}, {"alias": "cocktailbars", "title": "Cocktail Bars"}], "display_phone": "(718) 788-0366", "phone": "+17187880366", "id": "9_rR2oBbTUZFia69DqQAVw", "is_closed": false, "location": {"city": "Brooklyn", "display_address": ["278A 6th St", "Brooklyn, NY 11215"], "country": "US", "address2": null, "address3": "", "state": "NY", "address1": "278A 6th St", "zip_code": "11215"}}, {"rating": 4.0, "review_count": 88, "name": "Halyards", "transactions": [], "url": "https://www.yelp.com/biz/halyards-brooklyn-2?adjust_creative=yhLoLzsNXKw40xZ5RCWPpA&utm_campaign=yelp_api_v3&utm_medium=api_v3_business_search&utm_source=yhLoLzsNXKw40xZ5RCWPpA", "price": "$$", "distance": 217.73676980324635, "coordinates": {"latitude": 40.6733169555664, "longitude": -73.9898452758789}, "alias": "halyards-brooklyn-2", "image_url": "https://s3-media1.fl.yelpcdn.com/bphoto/Sccnx5_4YFPqzlgOmp_1hQ/o.jpg", "categories": [{"alias": "pubs", "title": "Pubs"}, {"alias": "cocktailbars", "title": "Cocktail Bars"}], "display_phone": "(718) 532-8787", "phone": "+17185328787", "id": "YiPXonMjK3Q1bcK3BjvZ2g", "is_closed": false, "location": {"city": "Brooklyn", "display_address": ["406 3rd Ave", "Brooklyn, NY 11215"], "country": "US", "address2": "", "address3": "", "state": "NY", "address1": "406 3rd Ave", "zip_code": "11215"}}, {"rating": 4.0, "review_count": 227, "name": "Bar Tano", "transactions": ["pickup"], "url": "https://www.yelp.com/biz/bar-tano-brooklyn?adjust_creative=yhLoLzsNXKw40xZ5RCWPpA&utm_campaign=yelp_api_v3&utm_medium=api_v3_business_search&utm_source=yhLoLzsNXKw40xZ5RCWPpA", "price": "$$", "distance": 249.20100629256623, "coordinates": {"latitude": 40.6712112426758, "longitude": -73.9909439086914}, "alias": "bar-tano-brooklyn", "image_url": "https://s3-media2.fl.yelpcdn.com/bphoto/cSVArAi2Y4RUlfHma2WRew/o.jpg", "categories": [{"alias": "bars", "title": "Bars"}, {"alias": "italian", "title": "Italian"}], "display_phone": "(718) 499-3400", "phone": "+17184993400", "id": "hvMbN42EaHlZoHMS3degLg", "is_closed": false, "location": {"city": "Brooklyn", "display_address": ["457 3rd Ave", "Brooklyn, NY 11215"], "country": "US", "address2": "", "address3": "", "state": "NY", "address1": "457 3rd Ave", "zip_code": "11215"}}, {"rating": 5.0, "review_count": 1, "name": "IBeam Brooklyn", "transactions": [], "url": "https://www.yelp.com/biz/ibeam-brooklyn-gowanus?adjust_creative=yhLoLzsNXKw40xZ5RCWPpA&utm_campaign=yelp_api_v3&utm_medium=api_v3_business_search&utm_source=yhLoLzsNXKw40xZ5RCWPpA", "distance": 266.6012201344462, "coordinates": {"latitude": 40.6728783, "longitude": -73.991127}, "alias": "ibeam-brooklyn-gowanus", "image_url": "", "categories": [{"alias": "musicvenues", "title": "Music Venues"}], "display_phone": "(646) 456-6532", "phone": "+16464566532", "id": "cLJkMOtAhAAu_tf7_cH3nQ", "is_closed": false, "location": {"city": "Gowanus", "display_address": ["168 7th St", "Gowanus, NY 11215"], "country": "US", "address2": "", "address3": "", "state": "NY", "address1": "168 7th St", "zip_code": "11215"}}, {"rating": 4.5, "review_count": 182, "name": "Chela Modern Mexican", "transactions": ["delivery", "pickup"], "url": "https://www.yelp.com/biz/chela-modern-mexican-brooklyn?adjust_creative=yhLoLzsNXKw40xZ5RCWPpA&utm_campaign=yelp_api_v3&utm_medium=api_v3_business_search&utm_source=yhLoLzsNXKw40xZ5RCWPpA", "price": "$$", "distance": 271.0554353910059, "coordinates": {"latitude": 40.67032, "longitude": -73.98569}, "alias": "chela-modern-mexican-brooklyn", "image_url": "https://s3-media3.fl.yelpcdn.com/bphoto/wUeSY-AJIig3h0gKkuvCNA/o.jpg", "categories": [{"alias": "lounges", "title": "Lounges"}, {"alias": "mexican", "title": "Mexican"}], "display_phone": "(718) 701-1891", "phone": "+17187011891", "id": "CfOBb6NU2awo8xclJpKU3g", "is_closed": false, "location": {"city": "Brooklyn", "display_address": ["408 5th Ave", "Brooklyn, NY 11215"], "country": "US", "address2": "", "address3": null, "state": "NY", "address1": "408 5th Ave", "zip_code": "11215"}}, {"rating": 4.5, "review_count": 187, "name": "The Owl Farm", "transactions": [], "url": "https://www.yelp.com/biz/the-owl-farm-brooklyn?adjust_creative=yhLoLzsNXKw40xZ5RCWPpA&utm_campaign=yelp_api_v3&utm_medium=api_v3_business_search&utm_source=yhLoLzsNXKw40xZ5RCWPpA", "price": "$$", "distance": 282.90993005543623, "coordinates": {"latitude": 40.669616, "longitude": -73.986601}, "alias": "the-owl-farm-brooklyn", "image_url": "https://s3-media2.fl.yelpcdn.com/bphoto/G_Xctun1fHx2YR46MBdUaA/o.jpg", "categories": [{"alias": "beerbar", "title": "Beer Bar"}], "display_phone": "(718) 499-4988", "phone": "+17184994988", "id": "l_jZX0IQqHzCwC_7KcKS7A", "is_closed": false, "location": {"city": "Brooklyn", "display_address": ["297 9th St", "Brooklyn, NY 11215"], "country": "US", "address2": "", "address3": "", "state": "NY", "address1": "297 9th St", "zip_code": "11215"}}, {"rating": 4.0, "review_count": 37, "name": "Smith's Tavern", "transactions": [], "url": "https://www.yelp.com/biz/smiths-tavern-brooklyn-2?adjust_creative=yhLoLzsNXKw40xZ5RCWPpA&utm_campaign=yelp_api_v3&utm_medium=api_v3_business_search&utm_source=yhLoLzsNXKw40xZ5RCWPpA", "price": "$", "distance": 302.6885345172123, "coordinates": {"latitude": 40.6695175170898, "longitude": -73.9863204956055}, "alias": "smiths-tavern-brooklyn-2", "image_url": "https://s3-media3.fl.yelpcdn.com/bphoto/RxnGoJt5EYhtFN_VGBVAuA/o.jpg", "categories": [{"alias": "pubs", "title": "Pubs"}], "display_phone": "(718) 788-5218", "phone": "+17187885218", "id": "GwCFIXKBSi04RxCSVt9Mmg", "is_closed": false, "location": {"city": "Brooklyn", "display_address": ["440 5th Ave", "Brooklyn, NY 11215"], "country": "US", "address2": "", "address3": "", "state": "NY", "address1": "440 5th Ave", "zip_code": "11215"}}, {"rating": 4.5, "review_count": 90, "name": "Lucey's Lounge", "transactions": [], "url": "https://www.yelp.com/biz/luceys-lounge-brooklyn?adjust_creative=yhLoLzsNXKw40xZ5RCWPpA&utm_campaign=yelp_api_v3&utm_medium=api_v3_business_search&utm_source=yhLoLzsNXKw40xZ5RCWPpA", "price": "$$", "distance": 316.7831433560148, "coordinates": {"latitude": 40.67062, "longitude": -73.9914093}, "alias": "luceys-lounge-brooklyn", "image_url": "https://s3-media4.fl.yelpcdn.com/bphoto/S2aDprs9MCxnZCAZ_Dtxmg/o.jpg", "categories": [{"alias": "lounges", "title": "Lounges"}, {"alias": "cocktailbars", "title": "Cocktail Bars"}], "display_phone": "(718) 877-1075", "phone": "+17188771075", "id": "xiPr8D0F9V_3PL2-A92AgQ", "is_closed": false, "location": {"city": "Brooklyn", "display_address": ["475 3rd Ave", "Brooklyn, NY 11231"], "country": "US", "address2": "", "address3": "", "state": "NY", "address1": "475 3rd Ave", "zip_code": "11231"}}, {"rating": 4.5, "review_count": 9, "name": "Logan's Run", "transactions": [], "url": "https://www.yelp.com/biz/logans-run-brooklyn?adjust_creative=yhLoLzsNXKw40xZ5RCWPpA&utm_campaign=yelp_api_v3&utm_medium=api_v3_business_search&utm_source=yhLoLzsNXKw40xZ5RCWPpA", "price": "$$", "distance": 316.9422494902674, "coordinates": {"latitude": 40.6710931618244, "longitude": -73.984489494555}, "alias": "logans-run-brooklyn", "image_url": "https://s3-media2.fl.yelpcdn.com/bphoto/QpzixGzQHb1fmkI05UQ7FQ/o.jpg", "categories": [{"alias": "newamerican", "title": "American (New)"}, {"alias": "cocktailbars", "title": "Cocktail Bars"}], "display_phone": "(917) 909-0453", "phone": "+19179090453", "id": "VkwB8OziGSgTqY5kpSSf4g", "is_closed": false, "location": {"city": "Brooklyn", "display_address": ["375 5th Ave", "Brooklyn, NY 11215"], "country": "US", "address2": null, "address3": null, "state": "NY", "address1": "375 5th Ave", "zip_code": "11215"}}, {"rating": 3.5, "review_count": 86, "name": "Ginger's Bar", "transactions": [], "url": "https://www.yelp.com/biz/gingers-bar-brooklyn?adjust_creative=yhLoLzsNXKw40xZ5RCWPpA&utm_campaign=yelp_api_v3&utm_medium=api_v3_business_search&utm_source=yhLoLzsNXKw40xZ5RCWPpA", "price": "$$", "distance": 334.9115915167515, "coordinates": {"latitude": 40.67134, "longitude": -73.98432}, "alias": "gingers-bar-brooklyn", "image_url": "https://s3-media1.fl.yelpcdn.com/bphoto/w_bOHy_DMN_bgV5-C_Tn0w/o.jpg", "categories": [{"alias": "gaybars", "title": "Gay Bars"}], "display_phone": "(718) 788-0924", "phone": "+17187880924", "id": "-UDULh5HrAGPzyBavgdAPw", "is_closed": false, "location": {"city": "Brooklyn", "display_address": ["363 5th Ave", "Brooklyn, NY 11215"], "country": "US", "address2": "", "address3": "", "state": "NY", "address1": "363 5th Ave", "zip_code": "11215"}}, {"rating": 3.5, "review_count": 137, "name": "El Viejo Yayo", "transactions": ["delivery", "pickup"], "url": "https://www.yelp.com/biz/el-viejo-yayo-brooklyn-2?adjust_creative=yhLoLzsNXKw40xZ5RCWPpA&utm_campaign=yelp_api_v3&utm_medium=api_v3_business_search&utm_source=yhLoLzsNXKw40xZ5RCWPpA", "price": "$$", "distance": 357.8477098980966, "coordinates": {"latitude": 40.669206, "longitude": -73.985725}, "alias": "el-viejo-yayo-brooklyn-2", "image_url": "https://s3-media2.fl.yelpcdn.com/bphoto/XZDxM8DG7mpg6fTX-QaHBA/o.jpg", "categories": [{"alias": "latin", "title": "Latin American"}, {"alias": "bars", "title": "Bars"}], "display_phone": "(718) 965-7299", "phone": "+17189657299", "id": "CDHPw3Jb7iFsNOPIDWNhLg", "is_closed": false, "location": {"city": "Brooklyn", "display_address": ["317 9th St", "Brooklyn, NY 11215"], "country": "US", "address2": "", "address3": "", "state": "NY", "address1": "317 9th St", "zip_code": "11215"}}, {"rating": 3.5, "review_count": 54, "name": "The Roof", "transactions": [], "url": "https://www.yelp.com/biz/the-roof-brooklyn?adjust_creative=yhLoLzsNXKw40xZ5RCWPpA&utm_campaign=yelp_api_v3&utm_medium=api_v3_business_search&utm_source=yhLoLzsNXKw40xZ5RCWPpA", "price": "$$", "distance": 358.61362342562734, "coordinates": {"latitude": 40.6750623814115, "longitude": -73.9887130037048}, "alias": "the-roof-brooklyn", "image_url": "https://s3-media3.fl.yelpcdn.com/bphoto/w7jfYSO4XF03GD5C1NP4Rw/o.jpg", "categories": [{"alias": "newamerican", "title": "American (New)"}, {"alias": "beergardens", "title": "Beer Gardens"}, {"alias": "gastropubs", "title": "Gastropubs"}], "display_phone": "(718) 907-3622", "phone": "+17189073622", "id": "fkXGPusS21ieBsl1qpaO4A", "is_closed": false, "location": {"city": "Brooklyn", "display_address": ["214 3rd St", "Brooklyn, NY 11215"], "country": "US", "address2": "", "address3": "", "state": "NY", "address1": "214 3rd St", "zip_code": "11215"}}, {"rating": 4.0, "review_count": 360, "name": "The Bell House", "transactions": [], "url": "https://www.yelp.com/biz/the-bell-house-brooklyn?adjust_creative=yhLoLzsNXKw40xZ5RCWPpA&utm_campaign=yelp_api_v3&utm_medium=api_v3_business_search&utm_source=yhLoLzsNXKw40xZ5RCWPpA", "price": "$$", "distance": 364.37007813763813, "coordinates": {"latitude": 40.673735, "longitude": -73.991658}, "alias": "the-bell-house-brooklyn", "image_url": "https://s3-media2.fl.yelpcdn.com/bphoto/GtMcjHmVrW9TMx0twdkFxg/o.jpg", "categories": [{"alias": "musicvenues", "title": "Music Venues"}, {"alias": "lounges", "title": "Lounges"}], "display_phone": "(718) 643-6510", "phone": "+17186436510", "id": "sYhOOLd04h7dfaM9q49w9A", "is_closed": false, "location": {"city": "Brooklyn", "display_address": ["149 7th St", "Brooklyn, NY 11215"], "country": "US", "address2": "", "address3": "", "state": "NY", "address1": "149 7th St", "zip_code": "11215"}}, {"rating": 4.5, "review_count": 28, "name": "The Rub", "transactions": [], "url": "https://www.yelp.com/biz/the-rub-brooklyn?adjust_creative=yhLoLzsNXKw40xZ5RCWPpA&utm_campaign=yelp_api_v3&utm_medium=api_v3_business_search&utm_source=yhLoLzsNXKw40xZ5RCWPpA", "price": "$", "distance": 364.8817636309326, "coordinates": {"latitude": 40.67373, "longitude": -73.99168}, "alias": "the-rub-brooklyn", "image_url": "https://s3-media2.fl.yelpcdn.com/bphoto/ZEWcyq7rz2Spe-EMVNr1QA/o.jpg", "categories": [{"alias": "danceclubs", "title": "Dance Clubs"}], "display_phone": "", "phone": "", "id": "WwDWUMnQhMuUEH8kiEBQhQ", "is_closed": false, "location": {"city": "Brooklyn", "display_address": ["149 7th St", "The Bell House", "Brooklyn, NY 11215"], "country": "US", "address2": "", "address3": "The Bell House", "state": "NY", "address1": "149 7th St", "zip_code": "11215"}}, {"rating": 3.5, "review_count": 27, "name": "Terre", "transactions": ["delivery", "pickup"], "url": "https://www.yelp.com/biz/terre-brooklyn?adjust_creative=yhLoLzsNXKw40xZ5RCWPpA&utm_campaign=yelp_api_v3&utm_medium=api_v3_business_search&utm_source=yhLoLzsNXKw40xZ5RCWPpA", "price": "$$", "distance": 365.5507824327155, "coordinates": {"latitude": 40.671949831792, "longitude": -73.9837719490146}, "alias": "terre-brooklyn", "image_url": "https://s3-media3.fl.yelpcdn.com/bphoto/FrxsdAqynLBwYCeS_uipOw/o.jpg", "categories": [{"alias": "italian", "title": "Italian"}, {"alias": "wine_bars", "title": "Wine Bars"}, {"alias": "breakfast_brunch", "title": "Breakfast & Brunch"}], "display_phone": "(718) 788-2285", "phone": "+17187882285", "id": "X9f5HH4x3Mi7lo4ph9efvQ", "is_closed": false, "location": {"city": "Brooklyn", "display_address": ["341 5th Ave", "Brooklyn, NY 11215"], "country": "US", "address2": "", "address3": null, "state": "NY", "address1": "341 5th Ave", "zip_code": "11215"}}, {"rating": 4.5, "review_count": 251, "name": "L'albero Dei Gelati", "transactions": ["delivery", "pickup"], "url": "https://www.yelp.com/biz/l-albero-dei-gelati-brooklyn-2?adjust_creative=yhLoLzsNXKw40xZ5RCWPpA&utm_campaign=yelp_api_v3&utm_medium=api_v3_business_search&utm_source=yhLoLzsNXKw40xZ5RCWPpA", "price": "$$", "distance": 375.2094358705232, "coordinates": {"latitude": 40.671932, "longitude": -73.9836569}, "alias": "l-albero-dei-gelati-brooklyn-2", "image_url": "https://s3-media1.fl.yelpcdn.com/bphoto/v3rmN2ORmOhO8O_cOuYoyA/o.jpg", "categories": [{"alias": "gelato", "title": "Gelato"}, {"alias": "bars", "title": "Bars"}, {"alias": "italian", "title": "Italian"}], "display_phone": "(718) 788-2288", "phone": "+17187882288", "id": "Q-yTbpW4vrq80oRW40W_Pg", "is_closed": false, "location": {"city": "Brooklyn", "display_address": ["341 5th Ave", "Brooklyn, NY 11215"], "country": "US", "address2": null, "address3": "", "state": "NY", "address1": "341 5th Ave", "zip_code": "11215"}}, {"rating": 4.0, "review_count": 539, "name": "Dram Shop", "transactions": ["delivery", "pickup"], "url": "https://www.yelp.com/biz/dram-shop-brooklyn?adjust_creative=yhLoLzsNXKw40xZ5RCWPpA&utm_campaign=yelp_api_v3&utm_medium=api_v3_business_search&utm_source=yhLoLzsNXKw40xZ5RCWPpA", "price": "$$", "distance": 420.541666151651, "coordinates": {"latitude": 40.668823, "longitude": -73.985152}, "alias": "dram-shop-brooklyn", "image_url": "https://s3-media1.fl.yelpcdn.com/bphoto/m3PHaK0Irp51N93WLuYf2Q/o.jpg", "categories": [{"alias": "sportsbars", "title": "Sports Bars"}, {"alias": "burgers", "title": "Burgers"}], "display_phone": "(718) 788-1444", "phone": "+17187881444", "id": "YBEjrVXSy8CDph7EBV5WJQ", "is_closed": false, "location": {"city": "Brooklyn", "display_address": ["339 9th St", "Brooklyn, NY 11215"], "country": "US", "address2": "", "address3": "", "state": "NY", "address1": "339 9th St", "zip_code": "11215"}}, {"rating": 3.5, "review_count": 209, "name": "The Gate", "transactions": [], "url": "https://www.yelp.com/biz/the-gate-brooklyn?adjust_creative=yhLoLzsNXKw40xZ5RCWPpA&utm_campaign=yelp_api_v3&utm_medium=api_v3_business_search&utm_source=yhLoLzsNXKw40xZ5RCWPpA", "price": "$", "distance": 421.4043470927847, "coordinates": {"latitude": 40.672563, "longitude": -73.983186}, "alias": "the-gate-brooklyn", "image_url": "https://s3-media3.fl.yelpcdn.com/bphoto/v40POOSNP88LUSXp_bxJsg/o.jpg", "categories": [{"alias": "beerbar", "title": "Beer Bar"}], "display_phone": "(718) 768-4329", "phone": "+17187684329", "id": "6ByP77RSnZRZyLfAZOaWHQ", "is_closed": false, "location": {"city": "Brooklyn", "display_address": ["321 5th Ave", "Brooklyn, NY 11215"], "country": "US", "address2": "", "address3": "", "state": "NY", "address1": "321 5th Ave", "zip_code": "11215"}}, {"rating": 4.5, "review_count": 82, "name": "The Monro Pub", "transactions": [], "url": "https://www.yelp.com/biz/the-monro-pub-brooklyn?adjust_creative=yhLoLzsNXKw40xZ5RCWPpA&utm_campaign=yelp_api_v3&utm_medium=api_v3_business_search&utm_source=yhLoLzsNXKw40xZ5RCWPpA", "price": "$", "distance": 463.02520184227046, "coordinates": {"latitude": 40.6677448, "longitude": -73.9873605}, "alias": "the-monro-pub-brooklyn", "image_url": "https://s3-media1.fl.yelpcdn.com/bphoto/v_b_sZqdyetSUiEptEdSYQ/o.jpg", "categories": [{"alias": "pubs", "title": "Pubs"}], "display_phone": "(718) 499-2005", "phone": "+17184992005", "id": "_cYuN0yD4aStZ0oXPaaRmQ", "is_closed": false, "location": {"city": "Brooklyn", "display_address": ["481 5th Ave", "Brooklyn, NY 11215"], "country": "US", "address2": "", "address3": "", "state": "NY", "address1": "481 5th Ave", "zip_code": "11215"}}, {"rating": 3.5, "review_count": 101, "name": "Skylark Bar", "transactions": [], "url": "https://www.yelp.com/biz/skylark-bar-brooklyn?adjust_creative=yhLoLzsNXKw40xZ5RCWPpA&utm_campaign=yelp_api_v3&utm_medium=api_v3_business_search&utm_source=yhLoLzsNXKw40xZ5RCWPpA", "price": "$", "distance": 465.07204406322217, "coordinates": {"latitude": 40.667759, "longitude": -73.987106}, "alias": "skylark-bar-brooklyn", "image_url": "https://s3-media1.fl.yelpcdn.com/bphoto/C5WOZ2XyPPGMdLsLE-vxSQ/o.jpg", "categories": [{"alias": "bars", "title": "Bars"}], "display_phone": "(347) 227-8196", "phone": "+13472278196", "id": "GimProZnHbVWu8MbV__s4w", "is_closed": false, "location": {"city": "Brooklyn", "display_address": ["477 5th Ave", "Brooklyn, NY 11215"], "country": "US", "address2": "", "address3": "", "state": "NY", "address1": "477 5th Ave", "zip_code": "11215"}}, {"rating": 4.0, "review_count": 162, "name": "Loki Bar", "transactions": ["delivery", "pickup"], "url": "https://www.yelp.com/biz/loki-bar-park-slope-6?adjust_creative=yhLoLzsNXKw40xZ5RCWPpA&utm_campaign=yelp_api_v3&utm_medium=api_v3_business_search&utm_source=yhLoLzsNXKw40xZ5RCWPpA", "price": "$$", "distance": 477.43052392501585, "coordinates": {"latitude": 40.673937, "longitude": -73.983064}, "alias": "loki-bar-park-slope-6", "image_url": "https://s3-media1.fl.yelpcdn.com/bphoto/1bR3HvnI0kLCoDqk7zhwkg/o.jpg", "categories": [{"alias": "newamerican", "title": "American (New)"}, {"alias": "cocktailbars", "title": "Cocktail Bars"}, {"alias": "beerbar", "title": "Beer Bar"}], "display_phone": "(718) 965-9600", "phone": "+17189659600", "id": "2270Iy6WQskMawb4iETO8w", "is_closed": false, "location": {"city": "Park Slope", "display_address": ["341 2nd St", "Park Slope, NY 11215"], "country": "US", "address2": "", "address3": "", "state": "NY", "address1": "341 2nd St", "zip_code": "11215"}}, {"rating": 5.0, "review_count": 1, "name": "Luxor Recording Studios", "transactions": [], "url": "https://www.yelp.com/biz/luxor-recording-studios-brooklyn?adjust_creative=yhLoLzsNXKw40xZ5RCWPpA&utm_campaign=yelp_api_v3&utm_medium=api_v3_business_search&utm_source=yhLoLzsNXKw40xZ5RCWPpA", "distance": 489.699638171388, "coordinates": {"latitude": 40.6712599, "longitude": -73.99386}, "alias": "luxor-recording-studios-brooklyn", "image_url": "https://s3-media3.fl.yelpcdn.com/bphoto/tJAbRf18C2SMpEsR4LUitg/o.jpg", "categories": [{"alias": "recording_studios", "title": "Recording & Rehearsal Studios"}, {"alias": "musicvenues", "title": "Music Venues"}], "display_phone": "(888) 358-8417", "phone": "+18883588417", "id": "OdDDqs90BwAEUFhkQTbMmw", "is_closed": false, "location": {"city": "Brooklyn", "display_address": ["117 11th St", "Brooklyn, NY 11215"], "country": "US", "address2": null, "address3": "", "state": "NY", "address1": "117 11th St", "zip_code": "11215"}}, {"rating": 3.5, "review_count": 222, "name": "Nuevo Mexico Bar & Restaurant", "transactions": ["delivery", "pickup"], "url": "https://www.yelp.com/biz/nuevo-mexico-bar-and-restaurant-brooklyn?adjust_creative=yhLoLzsNXKw40xZ5RCWPpA&utm_campaign=yelp_api_v3&utm_medium=api_v3_business_search&utm_source=yhLoLzsNXKw40xZ5RCWPpA", "price": "$$", "distance": 490.085462059952, "coordinates": {"latitude": 40.667476, "longitude": -73.987365}, "alias": "nuevo-mexico-bar-and-restaurant-brooklyn", "image_url": "https://s3-media2.fl.yelpcdn.com/bphoto/C5U4LV-B3iRCRPZF9O3LAQ/o.jpg", "categories": [{"alias": "mexican", "title": "Mexican"}, {"alias": "bars", "title": "Bars"}], "display_phone": "(718) 832-0050", "phone": "+17188320050", "id": "X8Tg6XHKERw-vdWRU4oH3Q", "is_closed": false, "location": {"city": "Brooklyn", "display_address": ["489 5th Ave", "Brooklyn, NY 11215"], "country": "US", "address2": "", "address3": "", "state": "NY", "address1": "489 5th Ave", "zip_code": "11215"}}, {"rating": 4.5, "review_count": 213, "name": "Gristmill", "transactions": ["pickup"], "url": "https://www.yelp.com/biz/gristmill-brooklyn?adjust_creative=yhLoLzsNXKw40xZ5RCWPpA&utm_campaign=yelp_api_v3&utm_medium=api_v3_business_search&utm_source=yhLoLzsNXKw40xZ5RCWPpA", "price": "$$", "distance": 515.6428660063972, "coordinates": {"latitude": 40.6736889031443, "longitude": -73.9824806441803}, "alias": "gristmill-brooklyn", "image_url": "https://s3-media2.fl.yelpcdn.com/bphoto/LhC4r4-Jcs5vFQKLN3XNIg/o.jpg", "categories": [{"alias": "pizza", "title": "Pizza"}, {"alias": "newamerican", "title": "American (New)"}, {"alias": "bars", "title": "Bars"}], "display_phone": "(718) 499-2424", "phone": "+17184992424", "id": "DyPK6IyY-8xIqQWT4HqJNw", "is_closed": false, "location": {"city": "Brooklyn", "display_address": ["289 5th Ave", "Brooklyn, NY 11215"], "country": "US", "address2": "", "address3": null, "state": "NY", "address1": "289 5th Ave", "zip_code": "11215"}}, {"rating": 4.0, "review_count": 62, "name": "Dirty Precious", "transactions": [], "url": "https://www.yelp.com/biz/dirty-precious-brooklyn?adjust_creative=yhLoLzsNXKw40xZ5RCWPpA&utm_campaign=yelp_api_v3&utm_medium=api_v3_business_search&utm_source=yhLoLzsNXKw40xZ5RCWPpA", "price": "$$", "distance": 515.9747151493485, "coordinates": {"latitude": 40.6763896691334, "longitude": -73.9867169468351}, "alias": "dirty-precious-brooklyn", "image_url": "https://s3-media2.fl.yelpcdn.com/bphoto/NJDSQRaaLc3dTwDHZPXPvg/o.jpg", "categories": [{"alias": "cocktailbars", "title": "Cocktail Bars"}], "display_phone": "(646) 685-4481", "phone": "+16466854481", "id": "-WUCua_aSIpfsHKMFlMEMg", "is_closed": false, "location": {"city": "Brooklyn", "display_address": ["317 3rd Ave", "Brooklyn, NY 11215"], "country": "US", "address2": "", "address3": "", "state": "NY", "address1": "317 3rd Ave", "zip_code": "11215"}}, {"rating": 4.0, "review_count": 167, "name": "Commonwealth", "transactions": [], "url": "https://www.yelp.com/biz/commonwealth-brooklyn?adjust_creative=yhLoLzsNXKw40xZ5RCWPpA&utm_campaign=yelp_api_v3&utm_medium=api_v3_business_search&utm_source=yhLoLzsNXKw40xZ5RCWPpA", "price": "$$", "distance": 522.207682193272, "coordinates": {"latitude": 40.667167, "longitude": -73.987648}, "alias": "commonwealth-brooklyn", "image_url": "https://s3-media4.fl.yelpcdn.com/bphoto/m7_BatTOBC7qM3OaWXD3KA/o.jpg", "categories": [{"alias": "bars", "title": "Bars"}], "display_phone": "(718) 768-2040", "phone": "+17187682040", "id": "_-89MKTICre2Gj6Mq-qhDA", "is_closed": false, "location": {"city": "Brooklyn", "display_address": ["497 5th Ave", "Brooklyn, NY 11215"], "country": "US", "address2": "", "address3": "", "state": "NY", "address1": "497 5th Ave", "zip_code": "11215"}}, {"rating": 5.0, "review_count": 18, "name": "Park Slope Ale House", "transactions": [], "url": "https://www.yelp.com/biz/park-slope-ale-house-brooklyn-2?adjust_creative=yhLoLzsNXKw40xZ5RCWPpA&utm_campaign=yelp_api_v3&utm_medium=api_v3_business_search&utm_source=yhLoLzsNXKw40xZ5RCWPpA", "distance": 531.8245697715801, "coordinates": {"latitude": 40.67061, "longitude": -73.9819799}, "alias": "park-slope-ale-house-brooklyn-2", "image_url": "https://s3-media2.fl.yelpcdn.com/bphoto/l5Wq46ALgdaieePW2fcSLQ/o.jpg", "categories": [{"alias": "pubs", "title": "Pubs"}, {"alias": "tradamerican", "title": "American (Traditional)"}], "display_phone": "(718) 788-1756", "phone": "+17187881756", "id": "niXT7o9AcG18zC7KlaAEEA", "is_closed": false, "location": {"city": "Brooklyn", "display_address": ["356 6th Ave", "Brooklyn, NY 11215"], "country": "US", "address2": "", "address3": null, "state": "NY", "address1": "356 6th Ave", "zip_code": "11215"}}, {"rating": 3.5, "review_count": 18, "name": "ShapeShifter Lab", "transactions": [], "url": "https://www.yelp.com/biz/shapeshifter-lab-brooklyn?adjust_creative=yhLoLzsNXKw40xZ5RCWPpA&utm_campaign=yelp_api_v3&utm_medium=api_v3_business_search&utm_source=yhLoLzsNXKw40xZ5RCWPpA", "price": "$$", "distance": 549.3466580914064, "coordinates": {"latitude": 40.67656, "longitude": -73.986056}, "alias": "shapeshifter-lab-brooklyn", "image_url": "https://s3-media4.fl.yelpcdn.com/bphoto/fIyjZlcL6KSdEJ6nrAfslA/o.jpg", "categories": [{"alias": "musicvenues", "title": "Music Venues"}, {"alias": "jazzandblues", "title": "Jazz & Blues"}], "display_phone": "(646) 820-9452", "phone": "+16468209452", "id": "m_xylNPomLCTFAkx5JiABg", "is_closed": false, "location": {"city": "Brooklyn", "display_address": ["18 Whitwell Pl", "Brooklyn, NY 11215"], "country": "US", "address2": "", "address3": "", "state": "NY", "address1": "18 Whitwell Pl", "zip_code": "11215"}}, {"rating": 4.0, "review_count": 68, "name": "Lowlands Bar", "transactions": [], "url": "https://www.yelp.com/biz/lowlands-bar-brooklyn?adjust_creative=yhLoLzsNXKw40xZ5RCWPpA&utm_campaign=yelp_api_v3&utm_medium=api_v3_business_search&utm_source=yhLoLzsNXKw40xZ5RCWPpA", "price": "$", "distance": 571.2174303083805, "coordinates": {"latitude": 40.6684722900391, "longitude": -73.9931716918945}, "alias": "lowlands-bar-brooklyn", "image_url": "https://s3-media2.fl.yelpcdn.com/bphoto/WXRNgBnhcmR5u7MTL4sjGA/o.jpg", "categories": [{"alias": "bars", "title": "Bars"}], "display_phone": "(347) 463-9458", "phone": "+13474639458", "id": "rbcTKkA_sn4FG7Oo8vrIWA", "is_closed": false, "location": {"city": "Brooklyn", "display_address": ["543 3rd Ave", "Brooklyn, NY 11215"], "country": "US", "address2": "", "address3": "", "state": "NY", "address1": "543 3rd Ave", "zip_code": "11215"}}, {"rating": 4.0, "review_count": 162, "name": "Barb\u00e8s", "transactions": [], "url": "https://www.yelp.com/biz/barb%C3%A8s-brooklyn-2?adjust_creative=yhLoLzsNXKw40xZ5RCWPpA&utm_campaign=yelp_api_v3&utm_medium=api_v3_business_search&utm_source=yhLoLzsNXKw40xZ5RCWPpA", "price": "$$", "distance": 581.2474040774897, "coordinates": {"latitude": 40.667724609375, "longitude": -73.9839019775391}, "alias": "barb\u00e8s-brooklyn-2", "image_url": "https://s3-media4.fl.yelpcdn.com/bphoto/UoGCwzZYu9WNqAEyxTGCrw/o.jpg", "categories": [{"alias": "bars", "title": "Bars"}, {"alias": "jazzandblues", "title": "Jazz & Blues"}], "display_phone": "(347) 422-0248", "phone": "+13474220248", "id": "gY6aPkUcyltomwF6FrR9gw", "is_closed": false, "location": {"city": "Brooklyn", "display_address": ["376 9th St", "Brooklyn, NY 11215"], "country": "US", "address2": "", "address3": "", "state": "NY", "address1": "376 9th St", "zip_code": "11215"}}, {"rating": 4.5, "review_count": 17, "name": "Paddy's of Park Slope", "transactions": [], "url": "https://www.yelp.com/biz/paddys-of-park-slope-brooklyn?adjust_creative=yhLoLzsNXKw40xZ5RCWPpA&utm_campaign=yelp_api_v3&utm_medium=api_v3_business_search&utm_source=yhLoLzsNXKw40xZ5RCWPpA", "price": "$", "distance": 586.0574617070957, "coordinates": {"latitude": 40.6666017, "longitude": -73.9879217}, "alias": "paddys-of-park-slope-brooklyn", "image_url": "https://s3-media3.fl.yelpcdn.com/bphoto/2nt1C0WFmwf9a2fp3v4ZPg/o.jpg", "categories": [{"alias": "sportsbars", "title": "Sports Bars"}, {"alias": "karaoke", "title": "Karaoke"}, {"alias": "irish_pubs", "title": "Irish Pub"}], "display_phone": "(718) 369-0831", "phone": "+17183690831", "id": "eN3h8d2xFU5PeUA7dwlqnA", "is_closed": false, "location": {"city": "Brooklyn", "display_address": ["273 13th St", "Brooklyn, NY 11215"], "country": "US", "address2": "", "address3": "", "state": "NY", "address1": "273 13th St", "zip_code": "11215"}}, {"rating": 4.0, "review_count": 266, "name": "Mission Dolores Bar", "transactions": [], "url": "https://www.yelp.com/biz/mission-dolores-bar-brooklyn?adjust_creative=yhLoLzsNXKw40xZ5RCWPpA&utm_campaign=yelp_api_v3&utm_medium=api_v3_business_search&utm_source=yhLoLzsNXKw40xZ5RCWPpA", "price": "$$", "distance": 622.0476416512993, "coordinates": {"latitude": 40.6761856079102, "longitude": -73.9834365844727}, "alias": "mission-dolores-bar-brooklyn", "image_url": "https://s3-media2.fl.yelpcdn.com/bphoto/cDGVNZ_hD_VlVgckkGO_Mg/o.jpg", "categories": [{"alias": "bars", "title": "Bars"}], "display_phone": "(347) 457-5606", "phone": "+13474575606", "id": "VTXpoerhKO68p3R6wgQr6A", "is_closed": false, "location": {"city": "Brooklyn", "display_address": ["249 4th Ave", "Brooklyn, NY 11215"], "country": "US", "address2": "", "address3": "", "state": "NY", "address1": "249 4th Ave", "zip_code": "11215"}}, {"rating": 4.0, "review_count": 267, "name": "Runner & Stone", "transactions": ["restaurant_reservation"], "url": "https://www.yelp.com/biz/runner-and-stone-brooklyn?adjust_creative=yhLoLzsNXKw40xZ5RCWPpA&utm_campaign=yelp_api_v3&utm_medium=api_v3_business_search&utm_source=yhLoLzsNXKw40xZ5RCWPpA", "price": "$$", "distance": 622.444909423581, "coordinates": {"latitude": 40.67721, "longitude": -73.985919}, "alias": "runner-and-stone-brooklyn", "image_url": "https://s3-media2.fl.yelpcdn.com/bphoto/E6fvwFEH0I7ssdYa__kGgw/o.jpg", "categories": [{"alias": "bakeries", "title": "Bakeries"}, {"alias": "newamerican", "title": "American (New)"}, {"alias": "bars", "title": "Bars"}], "display_phone": "(718) 576-3360", "phone": "+17185763360", "id": "CV34WV9aNsERlQACAJSAOg", "is_closed": false, "location": {"city": "Brooklyn", "display_address": ["285 3rd Ave", "Brooklyn, NY 11215"], "country": "US", "address2": "", "address3": "", "state": "NY", "address1": "285 3rd Ave", "zip_code": "11215"}}, {"rating": 4.5, "review_count": 30, "name": "Givers And Takers", "transactions": [], "url": "https://www.yelp.com/biz/givers-and-takers-brooklyn-3?adjust_creative=yhLoLzsNXKw40xZ5RCWPpA&utm_campaign=yelp_api_v3&utm_medium=api_v3_business_search&utm_source=yhLoLzsNXKw40xZ5RCWPpA", "price": "$$", "distance": 623.7745422794239, "coordinates": {"latitude": 40.6773146311088, "longitude": -73.9863216102727}, "alias": "givers-and-takers-brooklyn-3", "image_url": "https://s3-media1.fl.yelpcdn.com/bphoto/5jONQbK0N9Z9M6QZsY2Lqw/o.jpg", "categories": [{"alias": "bars", "title": "Bars"}], "display_phone": "(347) 987-4306", "phone": "+13479874306", "id": "J99VVAUid72FNwEqiSEnHg", "is_closed": false, "location": {"city": "Brooklyn", "display_address": ["286 3rd Ave", "Brooklyn, NY 11215"], "country": "US", "address2": "", "address3": "", "state": "NY", "address1": "286 3rd Ave", "zip_code": "11215"}}, {"rating": 3.5, "review_count": 253, "name": "Bar Toto", "transactions": ["delivery", "pickup"], "url": "https://www.yelp.com/biz/bar-toto-brooklyn?adjust_creative=yhLoLzsNXKw40xZ5RCWPpA&utm_campaign=yelp_api_v3&utm_medium=api_v3_business_search&utm_source=yhLoLzsNXKw40xZ5RCWPpA", "price": "$$", "distance": 624.5764844876428, "coordinates": {"latitude": 40.6669, "longitude": -73.984672}, "alias": "bar-toto-brooklyn", "image_url": "https://s3-media2.fl.yelpcdn.com/bphoto/RS5kECYkJIC3pObzEptyDQ/o.jpg", "categories": [{"alias": "italian", "title": "Italian"}, {"alias": "bars", "title": "Bars"}], "display_phone": "(718) 768-4698", "phone": "+17187684698", "id": "wnXdgkWYN0p4SEl_AdMzLA", "is_closed": false, "location": {"city": "Brooklyn", "display_address": ["411 11th St", "Brooklyn, NY 11215"], "country": "US", "address2": "", "address3": "", "state": "NY", "address1": "411 11th St", "zip_code": "11215"}}, {"rating": 5.0, "review_count": 110, "name": "The Commissioner", "transactions": [], "url": "https://www.yelp.com/biz/the-commissioner-brooklyn?adjust_creative=yhLoLzsNXKw40xZ5RCWPpA&utm_campaign=yelp_api_v3&utm_medium=api_v3_business_search&utm_source=yhLoLzsNXKw40xZ5RCWPpA", "price": "$", "distance": 648.7503068019134, "coordinates": {"latitude": 40.67487, "longitude": -73.98137}, "alias": "the-commissioner-brooklyn", "image_url": "https://s3-media1.fl.yelpcdn.com/bphoto/Gc6HAJi7wmioqZG3NH7H5A/o.jpg", "categories": [{"alias": "pubs", "title": "Pubs"}], "display_phone": "(347) 689-3968", "phone": "+13476893968", "id": "xHgMfdyLA5SPQz4c3ItTgg", "is_closed": false, "location": {"city": "Brooklyn", "display_address": ["247 5th Ave", "Brooklyn, NY 11215"], "country": "US", "address2": "", "address3": null, "state": "NY", "address1": "247 5th Ave", "zip_code": "11215"}}, {"rating": 4.0, "review_count": 205, "name": "High Dive", "transactions": [], "url": "https://www.yelp.com/biz/high-dive-brooklyn?adjust_creative=yhLoLzsNXKw40xZ5RCWPpA&utm_campaign=yelp_api_v3&utm_medium=api_v3_business_search&utm_source=yhLoLzsNXKw40xZ5RCWPpA", "price": "$", "distance": 671.6589047121445, "coordinates": {"latitude": 40.6749, "longitude": -73.98118}, "alias": "high-dive-brooklyn", "image_url": "https://s3-media1.fl.yelpcdn.com/bphoto/0PtHBwOtyJEKyao1UvkPog/o.jpg", "categories": [{"alias": "divebars", "title": "Dive Bars"}], "display_phone": "(718) 788-0401", "phone": "+17187880401", "id": "EjaRpo-_fU1g8uBMpSX_Qg", "is_closed": false, "location": {"city": "Brooklyn", "display_address": ["243 5th Ave", "Brooklyn, NY 11215"], "country": "US", "address2": "", "address3": "", "state": "NY", "address1": "243 5th Ave", "zip_code": "11215"}}, {"rating": 2.5, "review_count": 24, "name": "Analog BKNY", "transactions": [], "url": "https://www.yelp.com/biz/analog-bkny-brooklyn?adjust_creative=yhLoLzsNXKw40xZ5RCWPpA&utm_campaign=yelp_api_v3&utm_medium=api_v3_business_search&utm_source=yhLoLzsNXKw40xZ5RCWPpA", "price": "$$", "distance": 673.7161812520849, "coordinates": {"latitude": 40.6695938110352, "longitude": -73.9955291748047}, "alias": "analog-bkny-brooklyn", "image_url": "https://s3-media2.fl.yelpcdn.com/bphoto/KrI2Hid_9LNztofu2YF28g/o.jpg", "categories": [{"alias": "danceclubs", "title": "Dance Clubs"}], "display_phone": "(718) 757-6940", "phone": "+17187576940", "id": "d1aifxXHnVDRXcOjooUW0w", "is_closed": false, "location": {"city": "Brooklyn", "display_address": ["177 2nd Ave", "Brooklyn, NY 11215"], "country": "US", "address2": "", "address3": "", "state": "NY", "address1": "177 2nd Ave", "zip_code": "11215"}}, {"rating": 4.0, "review_count": 140, "name": "Prospect Bar & Grill", "transactions": ["delivery", "pickup"], "url": "https://www.yelp.com/biz/prospect-bar-and-grill-brooklyn?adjust_creative=yhLoLzsNXKw40xZ5RCWPpA&utm_campaign=yelp_api_v3&utm_medium=api_v3_business_search&utm_source=yhLoLzsNXKw40xZ5RCWPpA", "price": "$$", "distance": 674.9136790788772, "coordinates": {"latitude": 40.665832, "longitude": -73.988916}, "alias": "prospect-bar-and-grill-brooklyn", "image_url": "https://s3-media1.fl.yelpcdn.com/bphoto/R42eIk88sT21kNtxPvB79A/o.jpg", "categories": [{"alias": "bars", "title": "Bars"}, {"alias": "tradamerican", "title": "American (Traditional)"}], "display_phone": "(347) 599-1087", "phone": "+13475991087", "id": "Kgf2O5qRqSpPv8E346J8jQ", "is_closed": false, "location": {"city": "Brooklyn", "display_address": ["545 5th Ave", "Brooklyn, NY 11215"], "country": "US", "address2": "", "address3": "", "state": "NY", "address1": "545 5th Ave", "zip_code": "11215"}}, {"rating": 4.0, "review_count": 88, "name": "Canal Bar", "transactions": [], "url": "https://www.yelp.com/biz/canal-bar-brooklyn?adjust_creative=yhLoLzsNXKw40xZ5RCWPpA&utm_campaign=yelp_api_v3&utm_medium=api_v3_business_search&utm_source=yhLoLzsNXKw40xZ5RCWPpA", "price": "$", "distance": 698.0158766481256, "coordinates": {"latitude": 40.6779403686523, "longitude": -73.9859924316406}, "alias": "canal-bar-brooklyn", "image_url": "https://s3-media1.fl.yelpcdn.com/bphoto/dro3B2HF2vdnk1_XO5-6ag/o.jpg", "categories": [{"alias": "divebars", "title": "Dive Bars"}, {"alias": "cocktailbars", "title": "Cocktail Bars"}], "display_phone": "(718) 246-0011", "phone": "+17182460011", "id": "uom3CGeQbQumn9XlvrXyLQ", "is_closed": false, "location": {"city": "Brooklyn", "display_address": ["270 3rd Ave", "Brooklyn, NY 11215"], "country": "US", "address2": "", "address3": "", "state": "NY", "address1": "270 3rd Ave", "zip_code": "11215"}}, {"rating": 3.5, "review_count": 432, "name": "Sidecar", "transactions": ["delivery", "pickup"], "url": "https://www.yelp.com/biz/sidecar-brooklyn-3?adjust_creative=yhLoLzsNXKw40xZ5RCWPpA&utm_campaign=yelp_api_v3&utm_medium=api_v3_business_search&utm_source=yhLoLzsNXKw40xZ5RCWPpA", "price": "$$", "distance": 730.4039428861536, "coordinates": {"latitude": 40.665421, "longitude": -73.989748}, "alias": "sidecar-brooklyn-3", "image_url": "https://s3-media3.fl.yelpcdn.com/bphoto/eqBZJku1-KaA8P6VLlh5Mw/o.jpg", "categories": [{"alias": "newamerican", "title": "American (New)"}, {"alias": "cocktailbars", "title": "Cocktail Bars"}], "display_phone": "(718) 369-0077", "phone": "+17183690077", "id": "zee3qxLz2jHJumDEL6EitA", "is_closed": false, "location": {"city": "Brooklyn", "display_address": ["560 5th Ave", "Brooklyn, NY 11215"], "country": "US", "address2": "", "address3": "", "state": "NY", "address1": "560 5th Ave", "zip_code": "11215"}}, {"rating": 4.5, "review_count": 35, "name": "Jake's Handcrafted", "transactions": [], "url": "https://www.yelp.com/biz/jakes-handcrafted-south-slope?adjust_creative=yhLoLzsNXKw40xZ5RCWPpA&utm_campaign=yelp_api_v3&utm_medium=api_v3_business_search&utm_source=yhLoLzsNXKw40xZ5RCWPpA", "price": "$$", "distance": 730.9455700355047, "coordinates": {"latitude": 40.66536, "longitude": -73.98929}, "alias": "jakes-handcrafted-south-slope", "image_url": "https://s3-media1.fl.yelpcdn.com/bphoto/bHXMj_XYTJeB8tiX2E4IIw/o.jpg", "categories": [{"alias": "bars", "title": "Bars"}], "display_phone": "(718) 788-0789", "phone": "+17187880789", "id": "Kuu7SYp5N-fGGmAMV6LxBQ", "is_closed": false, "location": {"city": "South Slope", "display_address": ["559 5th Ave", "South Slope, NY 11215"], "country": "US", "address2": "", "address3": "", "state": "NY", "address1": "559 5th Ave", "zip_code": "11215"}}, {"rating": 3.5, "review_count": 14, "name": "Excelsior", "transactions": [], "url": "https://www.yelp.com/biz/excelsior-brooklyn-4?adjust_creative=yhLoLzsNXKw40xZ5RCWPpA&utm_campaign=yelp_api_v3&utm_medium=api_v3_business_search&utm_source=yhLoLzsNXKw40xZ5RCWPpA", "price": "$$", "distance": 740.7734705200777, "coordinates": {"latitude": 40.6652781735102, "longitude": -73.9893723815337}, "alias": "excelsior-brooklyn-4", "image_url": "https://s3-media3.fl.yelpcdn.com/bphoto/6INQ2VJFnUNnShw5eHcpEg/o.jpg", "categories": [{"alias": "gaybars", "title": "Gay Bars"}], "display_phone": "(718) 788-2710", "phone": "+17187882710", "id": "UYU_VgeOJNerCFE2e1InlQ", "is_closed": false, "location": {"city": "Brooklyn", "display_address": ["563 5th Ave", "Brooklyn, NY 11215"], "country": "US", "address2": "", "address3": "", "state": "NY", "address1": "563 5th Ave", "zip_code": "11215"}}, {"rating": 3.0, "review_count": 55, "name": "Old Carriage Inn", "transactions": [], "url": "https://www.yelp.com/biz/old-carriage-inn-brooklyn?adjust_creative=yhLoLzsNXKw40xZ5RCWPpA&utm_campaign=yelp_api_v3&utm_medium=api_v3_business_search&utm_source=yhLoLzsNXKw40xZ5RCWPpA", "price": "$", "distance": 745.9695698941229, "coordinates": {"latitude": 40.6677093505859, "longitude": -73.9812469482422}, "alias": "old-carriage-inn-brooklyn", "image_url": "https://s3-media1.fl.yelpcdn.com/bphoto/3idlbmIm8MX4Qb1LPxZ22w/o.jpg", "categories": [{"alias": "sportsbars", "title": "Sports Bars"}, {"alias": "divebars", "title": "Dive Bars"}, {"alias": "karaoke", "title": "Karaoke"}], "display_phone": "(718) 788-7747", "phone": "+17187887747", "id": "J8IZkpFiHHsLN5Tz6fgVnA", "is_closed": false, "location": {"city": "Brooklyn", "display_address": ["312 7th Ave", "Brooklyn, NY 11215"], "country": "US", "address2": "", "address3": "", "state": "NY", "address1": "312 7th Ave", "zip_code": "11215"}}, {"rating": 3.5, "review_count": 22, "name": "FireLounge DD", "transactions": [], "url": "https://www.yelp.com/biz/firelounge-dd-brooklyn?adjust_creative=yhLoLzsNXKw40xZ5RCWPpA&utm_campaign=yelp_api_v3&utm_medium=api_v3_business_search&utm_source=yhLoLzsNXKw40xZ5RCWPpA", "price": "$$", "distance": 759.1327209775104, "coordinates": {"latitude": 40.667007, "longitude": -73.994422}, "alias": "firelounge-dd-brooklyn", "image_url": "https://s3-media4.fl.yelpcdn.com/bphoto/RWLaFwKvzNMT5ally-pOvQ/o.jpg", "categories": [{"alias": "hookah_bars", "title": "Hookah Bars"}, {"alias": "lounges", "title": "Lounges"}], "display_phone": "(347) 661-0542", "phone": "+13476610542", "id": "Icmkzo9IWNW-S2j5co-XDA", "is_closed": false, "location": {"city": "Brooklyn", "display_address": ["593 3rd Ave", "Brooklyn, NY 11215"], "country": "US", "address2": null, "address3": "", "state": "NY", "address1": "593 3rd Ave", "zip_code": "11215"}}, {"rating": 4.0, "review_count": 172, "name": "Black Horse Pub", "transactions": [], "url": "https://www.yelp.com/biz/black-horse-pub-brooklyn-2?adjust_creative=yhLoLzsNXKw40xZ5RCWPpA&utm_campaign=yelp_api_v3&utm_medium=api_v3_business_search&utm_source=yhLoLzsNXKw40xZ5RCWPpA", "price": "$$", "distance": 760.919433841904, "coordinates": {"latitude": 40.66518, "longitude": -73.989997}, "alias": "black-horse-pub-brooklyn-2", "image_url": "https://s3-media1.fl.yelpcdn.com/bphoto/ckj46OBiqH7--J6ZBZvUbQ/o.jpg", "categories": [{"alias": "pubs", "title": "Pubs"}, {"alias": "newamerican", "title": "American (New)"}], "display_phone": "(718) 788-1975", "phone": "+17187881975", "id": "AMXOlur-z5DXBeyri9b-Hg", "is_closed": false, "location": {"city": "Brooklyn", "display_address": ["568 5th Ave", "Brooklyn, NY 11215"], "country": "US", "address2": "", "address3": "", "state": "NY", "address1": "568 5th Ave", "zip_code": "11215"}}, {"rating": 4.0, "review_count": 420, "name": "Piccoli Trattoria", "transactions": ["delivery", "pickup"], "url": "https://www.yelp.com/biz/piccoli-trattoria-brooklyn?adjust_creative=yhLoLzsNXKw40xZ5RCWPpA&utm_campaign=yelp_api_v3&utm_medium=api_v3_business_search&utm_source=yhLoLzsNXKw40xZ5RCWPpA", "price": "$$", "distance": 765.4624500813461, "coordinates": {"latitude": 40.6650986895797, "longitude": -73.9864727962952}, "alias": "piccoli-trattoria-brooklyn", "image_url": "https://s3-media2.fl.yelpcdn.com/bphoto/zrrRQhgzmM0s41f8q1qciA/o.jpg", "categories": [{"alias": "italian", "title": "Italian"}, {"alias": "pastashops", "title": "Pasta Shops"}, {"alias": "wine_bars", "title": "Wine Bars"}], "display_phone": "(718) 788-0066", "phone": "+17187880066", "id": "XvEz60Y0NbLxooK9AmRU8g", "is_closed": false, "location": {"city": "Brooklyn", "display_address": ["522 6th Ave", "Brooklyn, NY 11215"], "country": "US", "address2": null, "address3": "", "state": "NY", "address1": "522 6th Ave", "zip_code": "11215"}}, {"rating": 4.5, "review_count": 36, "name": "LBK Pizza Napoletana", "transactions": ["delivery", "pickup"], "url": "https://www.yelp.com/biz/lbk-pizza-napoletana-brooklyn?adjust_creative=yhLoLzsNXKw40xZ5RCWPpA&utm_campaign=yelp_api_v3&utm_medium=api_v3_business_search&utm_source=yhLoLzsNXKw40xZ5RCWPpA", "price": "$$", "distance": 768.7684670895792, "coordinates": {"latitude": 40.67741, "longitude": -73.98265}, "alias": "lbk-pizza-napoletana-brooklyn", "image_url": "https://s3-media3.fl.yelpcdn.com/bphoto/eS0vIoMSHEtan3Gi2adGHA/o.jpg", "categories": [{"alias": "pizza", "title": "Pizza"}, {"alias": "italian", "title": "Italian"}, {"alias": "cocktailbars", "title": "Cocktail Bars"}], "display_phone": "(347) 889-5309", "phone": "+13478895309", "id": "71gTwIVOynPCNOFLEv-bQA", "is_closed": false, "location": {"city": "Brooklyn", "display_address": ["669 Union St", "Brooklyn, NY 11215"], "country": "US", "address2": "", "address3": null, "state": "NY", "address1": "669 Union St", "zip_code": "11215"}}, {"rating": 3.5, "review_count": 246, "name": "Lavender Lake", "transactions": [], "url": "https://www.yelp.com/biz/lavender-lake-brooklyn?adjust_creative=yhLoLzsNXKw40xZ5RCWPpA&utm_campaign=yelp_api_v3&utm_medium=api_v3_business_search&utm_source=yhLoLzsNXKw40xZ5RCWPpA", "price": "$$", "distance": 769.5296959251941, "coordinates": {"latitude": 40.6786075, "longitude": -73.9901923}, "alias": "lavender-lake-brooklyn", "image_url": "https://s3-media4.fl.yelpcdn.com/bphoto/xc720iC989jRcGHjWhMaqQ/o.jpg", "categories": [{"alias": "gastropubs", "title": "Gastropubs"}, {"alias": "pubs", "title": "Pubs"}, {"alias": "cocktailbars", "title": "Cocktail Bars"}], "display_phone": "(347) 799-2154", "phone": "+13477992154", "id": "28q-EaDlKgYNeaF7-LXXqg", "is_closed": false, "location": {"city": "Brooklyn", "display_address": ["383 Carroll St", "Brooklyn, NY 11231"], "country": "US", "address2": null, "address3": "", "state": "NY", "address1": "383 Carroll St", "zip_code": "11231"}}, {"rating": 4.5, "review_count": 174, "name": "Bella Gioia", "transactions": ["pickup"], "url": "https://www.yelp.com/biz/bella-gioia-brooklyn-3?adjust_creative=yhLoLzsNXKw40xZ5RCWPpA&utm_campaign=yelp_api_v3&utm_medium=api_v3_business_search&utm_source=yhLoLzsNXKw40xZ5RCWPpA", "price": "$$", "distance": 776.0143323077583, "coordinates": {"latitude": 40.6775302, "longitude": -73.9827215}, "alias": "bella-gioia-brooklyn-3", "image_url": "https://s3-media1.fl.yelpcdn.com/bphoto/7tmCpKo4yeTfM_D8OgyjDA/o.jpg", "categories": [{"alias": "italian", "title": "Italian"}, {"alias": "wine_bars", "title": "Wine Bars"}, {"alias": "pizza", "title": "Pizza"}], "display_phone": "(347) 223-4176", "phone": "+13472234176", "id": "pK-TQMe7SE_erplC9EWjUA", "is_closed": false, "location": {"city": "Brooklyn", "display_address": ["209 4th Ave", "Brooklyn, NY 11217"], "country": "US", "address2": "", "address3": "", "state": "NY", "address1": "209 4th Ave", "zip_code": "11217"}}]}