{"region": {"center": {"latitude": 40.6682046927, "longitude": -73.9071986256}}, "total": 2600, "businesses": [{"rating": 4.0, "review_count": 1, "name": "Galapagos Enterprises", "transactions": [], "url": "https://www.yelp.com/biz/galapagos-enterprises-brooklyn-2?adjust_creative=yhLoLzsNXKw40xZ5RCWPpA&utm_campaign=yelp_api_v3&utm_medium=api_v3_business_search&utm_source=yhLoLzsNXKw40xZ5RCWPpA", "distance": 721.789993549777, "coordinates": {"latitude": 40.66909, "longitude": -73.91565}, "alias": "galapagos-enterprises-brooklyn-2", "image_url": "", "categories": [{"alias": "bars", "title": "Bars"}], "display_phone": "", "phone": "", "id": "ymuU7LLinVQe8SloLe4zVg", "is_closed": false, "location": {"city": "Brooklyn", "display_address": ["1567 Pitkin Ave", "Brooklyn, NY 11212"], "country": "US", "address2": "", "address3": "", "state": "NY", "address1": "1567 Pitkin Ave", "zip_code": "11212"}}, {"rating": 1.0, "review_count": 1, "name": "El Faro Lounge", "transactions": [], "url": "https://www.yelp.com/biz/el-faro-lounge-brooklyn?adjust_creative=yhLoLzsNXKw40xZ5RCWPpA&utm_campaign=yelp_api_v3&utm_medium=api_v3_business_search&utm_source=yhLoLzsNXKw40xZ5RCWPpA", "distance": 1133.2201777721434, "coordinates": {"latitude": 40.677425, "longitude": -73.901459}, "alias": "el-faro-lounge-brooklyn", "image_url": "https://s3-media2.fl.yelpcdn.com/bphoto/EEDsl0aVkw1izz4RJlLiaQ/o.jpg", "categories": [{"alias": "lounges", "title": "Lounges"}], "display_phone": "(718) 345-2211", "phone": "+17183452211", "id": "CWZKJ06B_uYIMfToPsPIAw", "is_closed": false, "location": {"city": "Brooklyn", "display_address": ["2501 Fulton St", "Brooklyn, NY 11207"], "country": "US", "address2": "", "address3": "", "state": "NY", "address1": "2501 Fulton St", "zip_code": "11207"}}, {"rating": 4.5, "review_count": 7, "name": "Armond's Lounge", "transactions": [], "url": "https://www.yelp.com/biz/armonds-lounge-brooklyn?adjust_creative=yhLoLzsNXKw40xZ5RCWPpA&utm_campaign=yelp_api_v3&utm_medium=api_v3_business_search&utm_source=yhLoLzsNXKw40xZ5RCWPpA", "price": "$$", "distance": 1166.1675950698009, "coordinates": {"latitude": 40.678399, "longitude": -73.910446}, "alias": "armonds-lounge-brooklyn", "image_url": "https://s3-media3.fl.yelpcdn.com/bphoto/iVC_OyUpA8mKShP2ScoEMg/o.jpg", "categories": [{"alias": "lounges", "title": "Lounges"}], "display_phone": "(347) 356-7039", "phone": "+13473567039", "id": "CMYr0mS6WKAGj-R4h-Ib4g", "is_closed": false, "location": {"city": "Brooklyn", "display_address": ["2065 Fulton St", "Brooklyn, NY 11233"], "country": "US", "address2": null, "address3": "", "state": "NY", "address1": "2065 Fulton St", "zip_code": "11233"}}, {"rating": 4.0, "review_count": 46, "name": "Daily Press Coffee", "transactions": [], "url": "https://www.yelp.com/biz/daily-press-coffee-brooklyn-13?adjust_creative=yhLoLzsNXKw40xZ5RCWPpA&utm_campaign=yelp_api_v3&utm_medium=api_v3_business_search&utm_source=yhLoLzsNXKw40xZ5RCWPpA", "price": "$$", "distance": 1173.7358988238811, "coordinates": {"latitude": 40.67871, "longitude": -73.91074}, "alias": "daily-press-coffee-brooklyn-13", "image_url": "https://s3-media3.fl.yelpcdn.com/bphoto/21_niNjOyxRHk4HVo-rLXQ/o.jpg", "categories": [{"alias": "coffee", "title": "Coffee & Tea"}, {"alias": "bars", "title": "Bars"}, {"alias": "breakfast_brunch", "title": "Breakfast & Brunch"}], "display_phone": "(347) 442-1410", "phone": "+13474421410", "id": "KGAF6jKzyQ9fDbtUm_iHWQ", "is_closed": false, "location": {"city": "Brooklyn", "display_address": ["38 Somers St", "Brooklyn, NY 11233"], "country": "US", "address2": "", "address3": null, "state": "NY", "address1": "38 Somers St", "zip_code": "11233"}}, {"rating": 1.0, "review_count": 1, "name": "Ooh La La Lounge", "transactions": [], "url": "https://www.yelp.com/biz/ooh-la-la-lounge-crown-heights?adjust_creative=yhLoLzsNXKw40xZ5RCWPpA&utm_campaign=yelp_api_v3&utm_medium=api_v3_business_search&utm_source=yhLoLzsNXKw40xZ5RCWPpA", "distance": 1242.054078855985, "coordinates": {"latitude": 40.6743542458684, "longitude": -73.9194931089878}, "alias": "ooh-la-la-lounge-crown-heights", "image_url": "", "categories": [{"alias": "lounges", "title": "Lounges"}], "display_phone": "(917) 400-8384", "phone": "+19174008384", "id": "kCEQLeFkFv9pFDprhviYlw", "is_closed": false, "location": {"city": "Crown Heights", "display_address": ["319 Howard Ave", "Crown Heights, NY 11233"], "country": "US", "address2": "", "address3": "", "state": "NY", "address1": "319 Howard Ave", "zip_code": "11233"}}, {"rating": 3.0, "review_count": 49, "name": "Caoba Brooklyn Bistro", "transactions": ["delivery", "pickup"], "url": "https://www.yelp.com/biz/caoba-brooklyn-bistro-brooklyn?adjust_creative=yhLoLzsNXKw40xZ5RCWPpA&utm_campaign=yelp_api_v3&utm_medium=api_v3_business_search&utm_source=yhLoLzsNXKw40xZ5RCWPpA", "price": "$$", "distance": 1458.7822259805819, "coordinates": {"latitude": 40.67843, "longitude": -73.89635}, "alias": "caoba-brooklyn-bistro-brooklyn", "image_url": "https://s3-media1.fl.yelpcdn.com/bphoto/lxqO6h5Rs0eMEJvpmaFqaA/o.jpg", "categories": [{"alias": "bars", "title": "Bars"}, {"alias": "dominican", "title": "Dominican"}, {"alias": "latin", "title": "Latin American"}], "display_phone": "(347) 404-6886", "phone": "+13474046886", "id": "g5VNncYsBv7LWQcW17FapQ", "is_closed": false, "location": {"city": "Brooklyn", "display_address": ["100 Jamaica Ave", "Brooklyn, NY 11207"], "country": "US", "address2": null, "address3": "", "state": "NY", "address1": "100 Jamaica Ave", "zip_code": "11207"}}, {"rating": 4.0, "review_count": 257, "name": "Salud Bar & Grill", "transactions": [], "url": "https://www.yelp.com/biz/salud-bar-and-grill-brooklyn?adjust_creative=yhLoLzsNXKw40xZ5RCWPpA&utm_campaign=yelp_api_v3&utm_medium=api_v3_business_search&utm_source=yhLoLzsNXKw40xZ5RCWPpA", "price": "$$", "distance": 1836.0075883503353, "coordinates": {"latitude": 40.6846559, "longitude": -73.9090595}, "alias": "salud-bar-and-grill-brooklyn", "image_url": "https://s3-media3.fl.yelpcdn.com/bphoto/bk3L-62oZN58G4h2SKkN8A/o.jpg", "categories": [{"alias": "latin", "title": "Latin American"}, {"alias": "beerbar", "title": "Beer Bar"}], "display_phone": "(347) 365-7257", "phone": "+13473657257", "id": "jhpeHVxJSmGdD61MTrKi7A", "is_closed": false, "location": {"city": "Brooklyn", "display_address": ["1413 Bushwick Ave", "Brooklyn, NY 11207"], "country": "US", "address2": "", "address3": "", "state": "NY", "address1": "1413 Bushwick Ave", "zip_code": "11207"}}, {"rating": 3.5, "review_count": 102, "name": "Sonora", "transactions": ["delivery", "pickup"], "url": "https://www.yelp.com/biz/sonora-brooklyn?adjust_creative=yhLoLzsNXKw40xZ5RCWPpA&utm_campaign=yelp_api_v3&utm_medium=api_v3_business_search&utm_source=yhLoLzsNXKw40xZ5RCWPpA", "price": "$$", "distance": 1922.183365188977, "coordinates": {"latitude": 40.6824295855403, "longitude": -73.9199669121657}, "alias": "sonora-brooklyn", "image_url": "https://s3-media1.fl.yelpcdn.com/bphoto/2XzaUJjhMkOGYKZfdVSJBQ/o.jpg", "categories": [{"alias": "bars", "title": "Bars"}, {"alias": "mexican", "title": "Mexican"}], "display_phone": "(718) 574-8100", "phone": "+17185748100", "id": "n-Z4HSwVeiDyA7AotduUNw", "is_closed": false, "location": {"city": "Brooklyn", "display_address": ["174 Howard Ave", "Brooklyn, NY 11233"], "country": "US", "address2": "", "address3": null, "state": "NY", "address1": "174 Howard Ave", "zip_code": "11233"}}, {"rating": 4.5, "review_count": 4, "name": "Happiness Lounge", "transactions": [], "url": "https://www.yelp.com/biz/happiness-lounge-brooklyn?adjust_creative=yhLoLzsNXKw40xZ5RCWPpA&utm_campaign=yelp_api_v3&utm_medium=api_v3_business_search&utm_source=yhLoLzsNXKw40xZ5RCWPpA", "price": "$$", "distance": 1940.8393999477194, "coordinates": {"latitude": 40.67025, "longitude": -73.93004}, "alias": "happiness-lounge-brooklyn", "image_url": "https://s3-media3.fl.yelpcdn.com/bphoto/KslEZdR-wOJk_dmooogIiw/o.jpg", "categories": [{"alias": "lounges", "title": "Lounges"}], "display_phone": "(347) 240-9591", "phone": "+13472409591", "id": "menz6LLuvHEaa7CEZO9VXA", "is_closed": false, "location": {"city": "Brooklyn", "display_address": ["1458 St Johns Pl", "Brooklyn, NY 11213"], "country": "US", "address2": null, "address3": null, "state": "NY", "address1": "1458 St Johns Pl", "zip_code": "11213"}}, {"rating": 4.5, "review_count": 42, "name": "The Evergreen", "transactions": [], "url": "https://www.yelp.com/biz/the-evergreen-brooklyn?adjust_creative=yhLoLzsNXKw40xZ5RCWPpA&utm_campaign=yelp_api_v3&utm_medium=api_v3_business_search&utm_source=yhLoLzsNXKw40xZ5RCWPpA", "price": "$", "distance": 1981.7282993287217, "coordinates": {"latitude": 40.686017, "longitude": -73.908236}, "alias": "the-evergreen-brooklyn", "image_url": "https://s3-media3.fl.yelpcdn.com/bphoto/-5QovbDLLpm2QVFDDgXYTg/o.jpg", "categories": [{"alias": "wine_bars", "title": "Wine Bars"}, {"alias": "beerbar", "title": "Beer Bar"}, {"alias": "cocktailbars", "title": "Cocktail Bars"}], "display_phone": "(718) 484-7399", "phone": "+17184847399", "id": "HsFv6pTnpIGya6Yf5ztn_g", "is_closed": false, "location": {"city": "Brooklyn", "display_address": ["109 Moffat St", "Brooklyn, NY 11207"], "country": "US", "address2": null, "address3": "", "state": "NY", "address1": "109 Moffat St", "zip_code": "11207"}}, {"rating": 4.5, "review_count": 27, "name": "Anda Lucia Bar & Lounge", "transactions": [], "url": "https://www.yelp.com/biz/anda-lucia-bar-and-lounge-new-york?adjust_creative=yhLoLzsNXKw40xZ5RCWPpA&utm_campaign=yelp_api_v3&utm_medium=api_v3_business_search&utm_source=yhLoLzsNXKw40xZ5RCWPpA", "price": "$$", "distance": 1985.7577914351748, "coordinates": {"latitude": 40.68568, "longitude": -73.911933}, "alias": "anda-lucia-bar-and-lounge-new-york", "image_url": "https://s3-media3.fl.yelpcdn.com/bphoto/ljW9BVodn6HAbfjWPYrxDg/o.jpg", "categories": [{"alias": "italian", "title": "Italian"}, {"alias": "lounges", "title": "Lounges"}], "display_phone": "(347) 295-1655", "phone": "+13472951655", "id": "EdnuIsyyDI51N1723Vd1HQ", "is_closed": false, "location": {"city": "New York", "display_address": ["1336 Bushwick Ave", "New York, NY 11207"], "country": "US", "address2": "", "address3": "", "state": "NY", "address1": "1336 Bushwick Ave", "zip_code": "11207"}}, {"rating": 4.0, "review_count": 5, "name": "Oracle Lounge", "transactions": ["delivery", "pickup"], "url": "https://www.yelp.com/biz/oracle-lounge-brooklyn?adjust_creative=yhLoLzsNXKw40xZ5RCWPpA&utm_campaign=yelp_api_v3&utm_medium=api_v3_business_search&utm_source=yhLoLzsNXKw40xZ5RCWPpA", "distance": 2097.4857852457803, "coordinates": {"latitude": 40.67795, "longitude": -73.88583}, "alias": "oracle-lounge-brooklyn", "image_url": "https://s3-media2.fl.yelpcdn.com/bphoto/twS2FVtP-XQkN-qprnd79A/o.jpg", "categories": [{"alias": "lounges", "title": "Lounges"}, {"alias": "sportsbars", "title": "Sports Bars"}], "display_phone": "(718) 827-7007", "phone": "+17188277007", "id": "Z6BM0HayUS5tHW41DrxtbA", "is_closed": false, "location": {"city": "Brooklyn", "display_address": ["2937 Atlantic Ave", "Brooklyn, NY 11207"], "country": "US", "address2": "", "address3": null, "state": "NY", "address1": "2937 Atlantic Ave", "zip_code": "11207"}}, {"rating": 3.0, "review_count": 1, "name": "Trilogies", "transactions": [], "url": "https://www.yelp.com/biz/trilogies-cypress-hills?adjust_creative=yhLoLzsNXKw40xZ5RCWPpA&utm_campaign=yelp_api_v3&utm_medium=api_v3_business_search&utm_source=yhLoLzsNXKw40xZ5RCWPpA", "price": "$", "distance": 2154.4236039861694, "coordinates": {"latitude": 40.6793338948611, "longitude": -73.8862870679559}, "alias": "trilogies-cypress-hills", "image_url": "https://s3-media4.fl.yelpcdn.com/bphoto/vo6HYZpRWFpG-rmI-14f_A/o.jpg", "categories": [{"alias": "danceclubs", "title": "Dance Clubs"}], "display_phone": "(929) 332-1386", "phone": "+19293321386", "id": "wrV5tE1y9gw1_wA1Os3JXw", "is_closed": false, "location": {"city": "Cypress Hills", "display_address": ["2936 Fulton St", "Cypress Hills, NY 11207"], "country": "US", "address2": "", "address3": "", "state": "NY", "address1": "2936 Fulton St", "zip_code": "11207"}}, {"rating": 2.0, "review_count": 1, "name": "Loveras 2843 Lounge", "transactions": [], "url": "https://www.yelp.com/biz/loveras-2843-lounge-new-york?adjust_creative=yhLoLzsNXKw40xZ5RCWPpA&utm_campaign=yelp_api_v3&utm_medium=api_v3_business_search&utm_source=yhLoLzsNXKw40xZ5RCWPpA", "price": "$$", "distance": 2165.731638552708, "coordinates": {"latitude": 40.6792400989066, "longitude": -73.8860379159451}, "alias": "loveras-2843-lounge-new-york", "image_url": "https://s3-media2.fl.yelpcdn.com/bphoto/PYHpQ1tVKvGWWBSCtEhpJw/o.jpg", "categories": [{"alias": "lounges", "title": "Lounges"}], "display_phone": "", "phone": "", "id": "mjf8phnWxMgFBktUZ1zwuw", "is_closed": false, "location": {"city": "New York", "display_address": ["2942-2944 Fulton St", "New York, NY 11207"], "country": "US", "address2": "", "address3": "", "state": "NY", "address1": "2942-2944 Fulton St", "zip_code": "11207"}}, {"rating": 3.0, "review_count": 25, "name": "New Heights Bar & Grill", "transactions": ["delivery", "pickup"], "url": "https://www.yelp.com/biz/new-heights-bar-and-grill-brooklyn-2?adjust_creative=yhLoLzsNXKw40xZ5RCWPpA&utm_campaign=yelp_api_v3&utm_medium=api_v3_business_search&utm_source=yhLoLzsNXKw40xZ5RCWPpA", "price": "$$", "distance": 2295.9430094631516, "coordinates": {"latitude": 40.67443, "longitude": -73.93323}, "alias": "new-heights-bar-and-grill-brooklyn-2", "image_url": "https://s3-media3.fl.yelpcdn.com/bphoto/OTFGEDUE3X5yf75WBkenCQ/o.jpg", "categories": [{"alias": "chicken_wings", "title": "Chicken Wings"}, {"alias": "cocktailbars", "title": "Cocktail Bars"}, {"alias": "beerbar", "title": "Beer Bar"}], "display_phone": "(718) 484-3882", "phone": "+17184843882", "id": "3ZcJg-6I4OXdNld1L0ECZQ", "is_closed": false, "location": {"city": "Brooklyn", "display_address": ["137 Schenectady Ave", "Brooklyn, NY 11213"], "country": "US", "address2": null, "address3": "", "state": "NY", "address1": "137 Schenectady Ave", "zip_code": "11213"}}, {"rating": 4.5, "review_count": 22, "name": "City Bear Coffee & Wine", "transactions": [], "url": "https://www.yelp.com/biz/city-bear-coffee-and-wine-brooklyn-2?adjust_creative=yhLoLzsNXKw40xZ5RCWPpA&utm_campaign=yelp_api_v3&utm_medium=api_v3_business_search&utm_source=yhLoLzsNXKw40xZ5RCWPpA", "price": "$$", "distance": 2325.254413847619, "coordinates": {"latitude": 40.68739, "longitude": -73.91806}, "alias": "city-bear-coffee-and-wine-brooklyn-2", "image_url": "https://s3-media1.fl.yelpcdn.com/bphoto/poHzRLQ2MAcj60KnprEbGw/o.jpg", "categories": [{"alias": "wine_bars", "title": "Wine Bars"}, {"alias": "coffee", "title": "Coffee & Tea"}, {"alias": "tapasmallplates", "title": "Tapas/Small Plates"}], "display_phone": "(347) 435-0394", "phone": "+13474350394", "id": "4uY2-OVgGnR0Io75_gbCrQ", "is_closed": false, "location": {"city": "Brooklyn", "display_address": ["1487 Broadway", "Brooklyn, NY 11221"], "country": "US", "address2": "", "address3": null, "state": "NY", "address1": "1487 Broadway", "zip_code": "11221"}}, {"rating": 5.0, "review_count": 1, "name": "Le Fatima Bar & Grill Restaurant", "transactions": [], "url": "https://www.yelp.com/biz/le-fatima-bar-and-grill-restaurant-brooklyn-2?adjust_creative=yhLoLzsNXKw40xZ5RCWPpA&utm_campaign=yelp_api_v3&utm_medium=api_v3_business_search&utm_source=yhLoLzsNXKw40xZ5RCWPpA", "price": "$", "distance": 2328.397655737477, "coordinates": {"latitude": 40.6872866558924, "longitude": -73.9185686521898}, "alias": "le-fatima-bar-and-grill-restaurant-brooklyn-2", "image_url": "https://s3-media2.fl.yelpcdn.com/bphoto/jiWg5BUt6vM8qu-UCWhUzA/o.jpg", "categories": [{"alias": "spanish", "title": "Spanish"}, {"alias": "bars", "title": "Bars"}, {"alias": "latin", "title": "Latin American"}], "display_phone": "(718) 975-0785", "phone": "+17189750785", "id": "tk02Oriv15115afpCjroHA", "is_closed": false, "location": {"city": "Brooklyn", "display_address": ["1474 Broadway", "Brooklyn, NY 11221"], "country": "US", "address2": "", "address3": "", "state": "NY", "address1": "1474 Broadway", "zip_code": "11221"}}, {"rating": 4.5, "review_count": 45, "name": "The Platform", "transactions": [], "url": "https://www.yelp.com/biz/the-platform-brooklyn?adjust_creative=yhLoLzsNXKw40xZ5RCWPpA&utm_campaign=yelp_api_v3&utm_medium=api_v3_business_search&utm_source=yhLoLzsNXKw40xZ5RCWPpA", "price": "$", "distance": 2398.3258508630274, "coordinates": {"latitude": 40.6884819380007, "longitude": -73.9168920367956}, "alias": "the-platform-brooklyn", "image_url": "https://s3-media3.fl.yelpcdn.com/bphoto/hqbkDlMVNfzRl54hoN8Cvg/o.jpg", "categories": [{"alias": "bars", "title": "Bars"}, {"alias": "cafes", "title": "Cafes"}], "display_phone": "(718) 975-4822", "phone": "+17189754822", "id": "2xb7iTP8NcW-Wf0fZfnBJQ", "is_closed": false, "location": {"city": "Brooklyn", "display_address": ["1178 Bushwick Ave", "Brooklyn, NY 11221"], "country": "US", "address2": "", "address3": null, "state": "NY", "address1": "1178 Bushwick Ave", "zip_code": "11221"}}, {"rating": 5.0, "review_count": 1, "name": "Popped Collar Comedy", "transactions": [], "url": "https://www.yelp.com/biz/popped-collar-comedy-brooklyn?adjust_creative=yhLoLzsNXKw40xZ5RCWPpA&utm_campaign=yelp_api_v3&utm_medium=api_v3_business_search&utm_source=yhLoLzsNXKw40xZ5RCWPpA", "distance": 2398.842492612666, "coordinates": {"latitude": 40.688472, "longitude": -73.916946}, "alias": "popped-collar-comedy-brooklyn", "image_url": "https://s3-media3.fl.yelpcdn.com/bphoto/yBEd_WAceNVuFzeQBZg1SA/o.jpg", "categories": [{"alias": "comedyclubs", "title": "Comedy Clubs"}], "display_phone": "", "phone": "", "id": "9LpRLqQiOM6BdKgBqgvWzw", "is_closed": false, "location": {"city": "Brooklyn", "display_address": ["1178 Bushwick Ave", "Brooklyn, NY 11221"], "country": "US", "address2": "", "address3": null, "state": "NY", "address1": "1178 Bushwick Ave", "zip_code": "11221"}}, {"rating": 3.5, "review_count": 434, "name": "Chez Oskar", "transactions": ["delivery", "pickup"], "url": "https://www.yelp.com/biz/chez-oskar-brooklyn?adjust_creative=yhLoLzsNXKw40xZ5RCWPpA&utm_campaign=yelp_api_v3&utm_medium=api_v3_business_search&utm_source=yhLoLzsNXKw40xZ5RCWPpA", "price": "$$", "distance": 2417.286062283833, "coordinates": {"latitude": 40.6822491, "longitude": -73.9290779}, "alias": "chez-oskar-brooklyn", "image_url": "https://s3-media3.fl.yelpcdn.com/bphoto/S8QATOFwNhMPCUiUjHTy2w/o.jpg", "categories": [{"alias": "french", "title": "French"}, {"alias": "cocktailbars", "title": "Cocktail Bars"}], "display_phone": "(718) 852-6250", "phone": "+17188526250", "id": "cpfBJVV-5Jo5w2KcbOBtVQ", "is_closed": false, "location": {"city": "Brooklyn", "display_address": ["310 Malcolm X Blvd", "Brooklyn, NY 11233"], "country": "US", "address2": "", "address3": "", "state": "NY", "address1": "310 Malcolm X Blvd", "zip_code": "11233"}}, {"rating": 4.0, "review_count": 200, "name": "Father Knows Best", "transactions": [], "url": "https://www.yelp.com/biz/father-knows-best-brooklyn?adjust_creative=yhLoLzsNXKw40xZ5RCWPpA&utm_campaign=yelp_api_v3&utm_medium=api_v3_business_search&utm_source=yhLoLzsNXKw40xZ5RCWPpA", "price": "$$", "distance": 2442.889667797963, "coordinates": {"latitude": 40.6901735, "longitude": -73.9069755}, "alias": "father-knows-best-brooklyn", "image_url": "https://s3-media1.fl.yelpcdn.com/bphoto/aFjQ0dF_2Er-DqYlYimkDw/o.jpg", "categories": [{"alias": "bars", "title": "Bars"}, {"alias": "cafes", "title": "Cafes"}], "display_phone": "(718) 975-6840", "phone": "+17189756840", "id": "eN8Cmf0Vxucyg02NyP7mbw", "is_closed": false, "location": {"city": "Brooklyn", "display_address": ["611A Wilson Ave", "Brooklyn, NY 11207"], "country": "US", "address2": "", "address3": "", "state": "NY", "address1": "611A Wilson Ave", "zip_code": "11207"}}, {"rating": 4.0, "review_count": 116, "name": "Casablanca Cocktail Lounge", "transactions": [], "url": "https://www.yelp.com/biz/casablanca-cocktail-lounge-brooklyn?adjust_creative=yhLoLzsNXKw40xZ5RCWPpA&utm_campaign=yelp_api_v3&utm_medium=api_v3_business_search&utm_source=yhLoLzsNXKw40xZ5RCWPpA", "price": "$$", "distance": 2452.6932943806773, "coordinates": {"latitude": 40.6826777021563, "longitude": -73.9291463344934}, "alias": "casablanca-cocktail-lounge-brooklyn", "image_url": "https://s3-media1.fl.yelpcdn.com/bphoto/CclihbFFEn7aVTilSrzZKA/o.jpg", "categories": [{"alias": "cocktailbars", "title": "Cocktail Bars"}], "display_phone": "", "phone": "", "id": "OhfQPmvbkLoEYJGDpJ7bSw", "is_closed": false, "location": {"city": "Brooklyn", "display_address": ["300 Malcolm X Blvd", "Brooklyn, NY 11233"], "country": "US", "address2": "", "address3": "", "state": "NY", "address1": "300 Malcolm X Blvd", "zip_code": "11233"}}, {"rating": 3.0, "review_count": 4, "name": "Bamboo tavern", "transactions": [], "url": "https://www.yelp.com/biz/bamboo-tavern-brooklyn?adjust_creative=yhLoLzsNXKw40xZ5RCWPpA&utm_campaign=yelp_api_v3&utm_medium=api_v3_business_search&utm_source=yhLoLzsNXKw40xZ5RCWPpA", "price": "$$", "distance": 2458.791392407484, "coordinates": {"latitude": 40.6462, "longitude": -73.90368}, "alias": "bamboo-tavern-brooklyn", "image_url": "", "categories": [{"alias": "bars", "title": "Bars"}], "display_phone": "(646) 523-7149", "phone": "+16465237149", "id": "LrbOaAD8B9R5LJoKhRZVBg", "is_closed": false, "location": {"city": "Brooklyn", "display_address": ["1370 Rockaway Pkwy", "Brooklyn, NY 11236"], "country": "US", "address2": "", "address3": null, "state": "NY", "address1": "1370 Rockaway Pkwy", "zip_code": "11236"}}, {"rating": 4.5, "review_count": 22, "name": "Petra Bar & Restaurant", "transactions": [], "url": "https://www.yelp.com/biz/petra-bar-and-restaurant-brooklyn?adjust_creative=yhLoLzsNXKw40xZ5RCWPpA&utm_campaign=yelp_api_v3&utm_medium=api_v3_business_search&utm_source=yhLoLzsNXKw40xZ5RCWPpA", "price": "$$", "distance": 2572.757676328065, "coordinates": {"latitude": 40.69046, "longitude": -73.91544}, "alias": "petra-bar-and-restaurant-brooklyn", "image_url": "https://s3-media1.fl.yelpcdn.com/bphoto/t7fvbMgJnVefJcQUTAf8SQ/o.jpg", "categories": [{"alias": "bars", "title": "Bars"}, {"alias": "newamerican", "title": "American (New)"}], "display_phone": "(718) 676-0926", "phone": "+17186760926", "id": "Vs5yyxnkokrVkP0q8UOtAw", "is_closed": false, "location": {"city": "Brooklyn", "display_address": ["523 Evergreen Ave", "Brooklyn, NY 11221"], "country": "US", "address2": null, "address3": "", "state": "NY", "address1": "523 Evergreen Ave", "zip_code": "11221"}}, {"rating": 5.0, "review_count": 1, "name": "Rakit Club", "transactions": [], "url": "https://www.yelp.com/biz/rakit-club-brooklyn?adjust_creative=yhLoLzsNXKw40xZ5RCWPpA&utm_campaign=yelp_api_v3&utm_medium=api_v3_business_search&utm_source=yhLoLzsNXKw40xZ5RCWPpA", "price": "$$", "distance": 2619.5043867448153, "coordinates": {"latitude": 40.69105, "longitude": -73.90282}, "alias": "rakit-club-brooklyn", "image_url": "https://s3-media1.fl.yelpcdn.com/bphoto/vRhgooKOQutywnzp4I-iag/o.jpg", "categories": [{"alias": "musicvenues", "title": "Music Venues"}], "display_phone": "(917) 719-0364", "phone": "+19177190364", "id": "l5bWfwcFNhgxXHEkq-QqOw", "is_closed": false, "location": {"city": "Brooklyn", "display_address": ["338 Moffat St", "Unit L", "Brooklyn, NY 11237"], "country": "US", "address2": "Unit L", "address3": null, "state": "NY", "address1": "338 Moffat St", "zip_code": "11237"}}, {"rating": 3.0, "review_count": 60, "name": "Essence Bar", "transactions": ["delivery", "pickup"], "url": "https://www.yelp.com/biz/essence-bar-brooklyn?adjust_creative=yhLoLzsNXKw40xZ5RCWPpA&utm_campaign=yelp_api_v3&utm_medium=api_v3_business_search&utm_source=yhLoLzsNXKw40xZ5RCWPpA", "price": "$$", "distance": 2620.211621769321, "coordinates": {"latitude": 40.6775607702948, "longitude": -73.9357138134918}, "alias": "essence-bar-brooklyn", "image_url": "https://s3-media3.fl.yelpcdn.com/bphoto/LCPTBJczI2mI5zH095J3cw/o.jpg", "categories": [{"alias": "soulfood", "title": "Soul Food"}, {"alias": "lounges", "title": "Lounges"}, {"alias": "southern", "title": "Southern"}], "display_phone": "(718) 467-3300", "phone": "+17184673300", "id": "Cndh8_bW8NAwSV3neNRUKQ", "is_closed": false, "location": {"city": "Brooklyn", "display_address": ["1662 Atlantic Ave", "Brooklyn, NY 11213"], "country": "US", "address2": "", "address3": "", "state": "NY", "address1": "1662 Atlantic Ave", "zip_code": "11213"}}, {"rating": 4.5, "review_count": 236, "name": "L'Antagoniste", "transactions": [], "url": "https://www.yelp.com/biz/l-antagoniste-bedford-stuyvesant?adjust_creative=yhLoLzsNXKw40xZ5RCWPpA&utm_campaign=yelp_api_v3&utm_medium=api_v3_business_search&utm_source=yhLoLzsNXKw40xZ5RCWPpA", "price": "$$$", "distance": 2658.9105221766686, "coordinates": {"latitude": 40.685019, "longitude": -73.929617}, "alias": "l-antagoniste-bedford-stuyvesant", "image_url": "https://s3-media1.fl.yelpcdn.com/bphoto/plBppjUFH-xRieUJQLtIOg/o.jpg", "categories": [{"alias": "french", "title": "French"}, {"alias": "breakfast_brunch", "title": "Breakfast & Brunch"}, {"alias": "wine_bars", "title": "Wine Bars"}], "display_phone": "(917) 966-5300", "phone": "+19179665300", "id": "mxDfu4bHwSXoCr3FRpyMsw", "is_closed": false, "location": {"city": "Bedford-Stuyvesant", "display_address": ["238 Malcolm X Blvd", "Bedford-Stuyvesant, NY 11221"], "country": "US", "address2": "", "address3": "", "state": "NY", "address1": "238 Malcolm X Blvd", "zip_code": "11221"}}, {"rating": 4.0, "review_count": 5, "name": "Turtles All The Way Down", "transactions": [], "url": "https://www.yelp.com/biz/turtles-all-the-way-down-brooklyn?adjust_creative=yhLoLzsNXKw40xZ5RCWPpA&utm_campaign=yelp_api_v3&utm_medium=api_v3_business_search&utm_source=yhLoLzsNXKw40xZ5RCWPpA", "distance": 2664.115657602876, "coordinates": {"latitude": 40.68509, "longitude": -73.92963}, "alias": "turtles-all-the-way-down-brooklyn", "image_url": "https://s3-media4.fl.yelpcdn.com/bphoto/cw3B2hTCP60turu7Quc_5g/o.jpg", "categories": [{"alias": "bars", "title": "Bars"}], "display_phone": "", "phone": "", "id": "OAZYJvUaCuWqj-VqvjD2qA", "is_closed": false, "location": {"city": "Brooklyn", "display_address": ["236 Malcolm X Blvd", "Brooklyn, NY 11221"], "country": "US", "address2": "", "address3": null, "state": "NY", "address1": "236 Malcolm X Blvd", "zip_code": "11221"}}, {"rating": 3.5, "review_count": 15, "name": "Bar At Peaches", "transactions": [], "url": "https://www.yelp.com/biz/bar-at-peaches-new-york?adjust_creative=yhLoLzsNXKw40xZ5RCWPpA&utm_campaign=yelp_api_v3&utm_medium=api_v3_business_search&utm_source=yhLoLzsNXKw40xZ5RCWPpA", "price": "$$", "distance": 2754.580024044903, "coordinates": {"latitude": 40.6816864013672, "longitude": -73.9347273856401}, "alias": "bar-at-peaches-new-york", "image_url": "https://s3-media4.fl.yelpcdn.com/bphoto/xi235bdoMDx6FTn_8qveKw/o.jpg", "categories": [{"alias": "bars", "title": "Bars"}], "display_phone": "", "phone": "", "id": "uTsJrQadmE03_JBDRU7XEw", "is_closed": false, "location": {"city": "New York", "display_address": ["403 Lewis Ave", "New York, NY 11233"], "country": "US", "address2": "", "address3": "", "state": "NY", "address1": "403 Lewis Ave", "zip_code": "11233"}}, {"rating": 4.5, "review_count": 2, "name": "El Nuevo Puerto Plata", "transactions": [], "url": "https://www.yelp.com/biz/el-nuevo-puerto-plata-cypress-hills?adjust_creative=yhLoLzsNXKw40xZ5RCWPpA&utm_campaign=yelp_api_v3&utm_medium=api_v3_business_search&utm_source=yhLoLzsNXKw40xZ5RCWPpA", "price": "$", "distance": 2755.478578190061, "coordinates": {"latitude": 40.681759, "longitude": -73.879796}, "alias": "el-nuevo-puerto-plata-cypress-hills", "image_url": "", "categories": [{"alias": "bars", "title": "Bars"}, {"alias": "seafood", "title": "Seafood"}], "display_phone": "(718) 235-3564", "phone": "+17182353564", "id": "1GPeGJw_AHRAT7L7AmLSCA", "is_closed": false, "location": {"city": "Cypress Hills", "display_address": ["3123 Fulton St", "Cypress Hills, NY 11208"], "country": "US", "address2": "", "address3": "", "state": "NY", "address1": "3123 Fulton St", "zip_code": "11208"}}, {"rating": 4.5, "review_count": 141, "name": "The Wilky", "transactions": [], "url": "https://www.yelp.com/biz/the-wilky-brooklyn?adjust_creative=yhLoLzsNXKw40xZ5RCWPpA&utm_campaign=yelp_api_v3&utm_medium=api_v3_business_search&utm_source=yhLoLzsNXKw40xZ5RCWPpA", "price": "$$", "distance": 2776.864374312859, "coordinates": {"latitude": 40.68802, "longitude": -73.92735}, "alias": "the-wilky-brooklyn", "image_url": "https://s3-media2.fl.yelpcdn.com/bphoto/uQsAAFI9pf0Gmu-mmK-ryA/o.jpg", "categories": [{"alias": "beerbar", "title": "Beer Bar"}, {"alias": "beergardens", "title": "Beer Gardens"}, {"alias": "cocktailbars", "title": "Cocktail Bars"}], "display_phone": "(718) 484-7458", "phone": "+17184847458", "id": "-NglVrPdjl3dG-z8ZBzJyQ", "is_closed": false, "location": {"city": "Brooklyn", "display_address": ["108 Patchen Ave", "Brooklyn, NY 11221"], "country": "US", "address2": null, "address3": "", "state": "NY", "address1": "108 Patchen Ave", "zip_code": "11221"}}, {"rating": 4.0, "review_count": 129, "name": "Nowadays", "transactions": [], "url": "https://www.yelp.com/biz/nowadays-ridgewood?adjust_creative=yhLoLzsNXKw40xZ5RCWPpA&utm_campaign=yelp_api_v3&utm_medium=api_v3_business_search&utm_source=yhLoLzsNXKw40xZ5RCWPpA", "price": "$$", "distance": 2804.6195755331332, "coordinates": {"latitude": 40.6930436149127, "longitude": -73.901419658197}, "alias": "nowadays-ridgewood", "image_url": "https://s3-media1.fl.yelpcdn.com/bphoto/0FD0Do7MzBPjOqVYNVJr7w/o.jpg", "categories": [{"alias": "bars", "title": "Bars"}, {"alias": "tradamerican", "title": "American (Traditional)"}], "display_phone": "(347) 523-8535", "phone": "+13475238535", "id": "_hNMRzm0QhR7I41plTbyXw", "is_closed": false, "location": {"city": "Ridgewood", "display_address": ["56-06 Cooper Ave", "Ridgewood, NY 11385"], "country": "US", "address2": "", "address3": "", "state": "NY", "address1": "56-06 Cooper Ave", "zip_code": "11385"}}, {"rating": 4.5, "review_count": 86, "name": "Lun\u00c0tico", "transactions": [], "url": "https://www.yelp.com/biz/lun%C3%A0tico-brooklyn?adjust_creative=yhLoLzsNXKw40xZ5RCWPpA&utm_campaign=yelp_api_v3&utm_medium=api_v3_business_search&utm_source=yhLoLzsNXKw40xZ5RCWPpA", "price": "$$", "distance": 2865.699589949688, "coordinates": {"latitude": 40.6834345006833, "longitude": -73.9346118563989}, "alias": "lun\u00e0tico-brooklyn", "image_url": "https://s3-media4.fl.yelpcdn.com/bphoto/Yu-D0xX4546p9xKxqVIPcg/o.jpg", "categories": [{"alias": "cocktailbars", "title": "Cocktail Bars"}, {"alias": "tapasmallplates", "title": "Tapas/Small Plates"}, {"alias": "musicvenues", "title": "Music Venues"}], "display_phone": "(718) 513-0339", "phone": "+17185130339", "id": "WyFvM4kmgNm19jip0tDBqA", "is_closed": false, "location": {"city": "Brooklyn", "display_address": ["486 Halsey St", "Brooklyn, NY 11233"], "country": "US", "address2": "", "address3": "", "state": "NY", "address1": "486 Halsey St", "zip_code": "11233"}}, {"rating": 5.0, "review_count": 40, "name": "Bridge and Tunnel Brewery", "transactions": [], "url": "https://www.yelp.com/biz/bridge-and-tunnel-brewery-ridgewood?adjust_creative=yhLoLzsNXKw40xZ5RCWPpA&utm_campaign=yelp_api_v3&utm_medium=api_v3_business_search&utm_source=yhLoLzsNXKw40xZ5RCWPpA", "price": "$", "distance": 2871.522522079619, "coordinates": {"latitude": 40.6935067, "longitude": -73.9030978}, "alias": "bridge-and-tunnel-brewery-ridgewood", "image_url": "https://s3-media1.fl.yelpcdn.com/bphoto/Ukql4oHqksbwGXPTXKqSAg/o.jpg", "categories": [{"alias": "breweries", "title": "Breweries"}, {"alias": "beerbar", "title": "Beer Bar"}], "display_phone": "(347) 392-8593", "phone": "+13473928593", "id": "7gH6Gcf8tnLlctw9kzKNHw", "is_closed": false, "location": {"city": "Ridgewood", "display_address": ["15-35 Decatur St", "Ridgewood, NY 11385"], "country": "US", "address2": "", "address3": "", "state": "NY", "address1": "15-35 Decatur St", "zip_code": "11385"}}, {"rating": 3.0, "review_count": 269, "name": "Brooklyn Beso Restaurant & Bar", "transactions": ["pickup"], "url": "https://www.yelp.com/biz/brooklyn-beso-restaurant-and-bar-brooklyn?adjust_creative=yhLoLzsNXKw40xZ5RCWPpA&utm_campaign=yelp_api_v3&utm_medium=api_v3_business_search&utm_source=yhLoLzsNXKw40xZ5RCWPpA", "price": "$$", "distance": 2879.1881990061747, "coordinates": {"latitude": 40.68293, "longitude": -73.93533}, "alias": "brooklyn-beso-restaurant-and-bar-brooklyn", "image_url": "https://s3-media1.fl.yelpcdn.com/bphoto/KuXsY6E_-96y95DyoAb3ng/o.jpg", "categories": [{"alias": "latin", "title": "Latin American"}, {"alias": "bars", "title": "Bars"}, {"alias": "breakfast_brunch", "title": "Breakfast & Brunch"}], "display_phone": "(347) 915-2900", "phone": "+13479152900", "id": "gbKPnTbdLqqpro-jTYKvBA", "is_closed": false, "location": {"city": "Brooklyn", "display_address": ["370 Lewis Ave", "Brooklyn, NY 11233"], "country": "US", "address2": null, "address3": "", "state": "NY", "address1": "370 Lewis Ave", "zip_code": "11233"}}, {"rating": 4.5, "review_count": 2, "name": "Acoustik Garden", "transactions": [], "url": "https://www.yelp.com/biz/acoustik-garden-brooklyn?adjust_creative=yhLoLzsNXKw40xZ5RCWPpA&utm_campaign=yelp_api_v3&utm_medium=api_v3_business_search&utm_source=yhLoLzsNXKw40xZ5RCWPpA", "price": "$$", "distance": 2886.6665021812496, "coordinates": {"latitude": 40.67815, "longitude": -73.93882}, "alias": "acoustik-garden-brooklyn", "image_url": "", "categories": [{"alias": "lounges", "title": "Lounges"}], "display_phone": "(718) 483-8943", "phone": "+17184838943", "id": "I58KnZSnK4UNc8WiIGWcTA", "is_closed": false, "location": {"city": "Brooklyn", "display_address": ["1515 Atlantic Ave", "Brooklyn, NY 11213"], "country": "US", "address2": "", "address3": null, "state": "NY", "address1": "1515 Atlantic Ave", "zip_code": "11213"}}, {"rating": 3.5, "review_count": 155, "name": "Sumner Wine Bar & Kitchen", "transactions": ["pickup"], "url": "https://www.yelp.com/biz/sumner-wine-bar-and-kitchen-brooklyn?adjust_creative=yhLoLzsNXKw40xZ5RCWPpA&utm_campaign=yelp_api_v3&utm_medium=api_v3_business_search&utm_source=yhLoLzsNXKw40xZ5RCWPpA", "price": "$$", "distance": 2901.7183084744297, "coordinates": {"latitude": 40.68088, "longitude": -73.93743}, "alias": "sumner-wine-bar-and-kitchen-brooklyn", "image_url": "https://s3-media1.fl.yelpcdn.com/bphoto/fBZ0sudW7JcezfmrzBBLGQ/o.jpg", "categories": [{"alias": "breakfast_brunch", "title": "Breakfast & Brunch"}, {"alias": "wine_bars", "title": "Wine Bars"}], "display_phone": "(347) 404-6832", "phone": "+13474046832", "id": "ZIpYYB3Lt71UsABHeh2mlg", "is_closed": false, "location": {"city": "Brooklyn", "display_address": ["144 Decatur St", "Brooklyn, NY 11233"], "country": "US", "address2": null, "address3": "", "state": "NY", "address1": "144 Decatur St", "zip_code": "11233"}}, {"rating": 2.5, "review_count": 39, "name": "El Gran Mar De Plata Restaurant", "transactions": ["delivery", "pickup"], "url": "https://www.yelp.com/biz/el-gran-mar-de-plata-restaurant-brooklyn?adjust_creative=yhLoLzsNXKw40xZ5RCWPpA&utm_campaign=yelp_api_v3&utm_medium=api_v3_business_search&utm_source=yhLoLzsNXKw40xZ5RCWPpA", "price": "$$", "distance": 2938.050974292812, "coordinates": {"latitude": 40.6822299, "longitude": -73.87763}, "alias": "el-gran-mar-de-plata-restaurant-brooklyn", "image_url": "https://s3-media1.fl.yelpcdn.com/bphoto/Y8IB3K04Z7VJK8kqeSeobw/o.jpg", "categories": [{"alias": "spanish", "title": "Spanish"}, {"alias": "danceclubs", "title": "Dance Clubs"}, {"alias": "latin", "title": "Latin American"}], "display_phone": "(718) 827-1717", "phone": "+17188271717", "id": "X29NW0Yjb4z1LOoEDnZPQg", "is_closed": false, "location": {"city": "Brooklyn", "display_address": ["3175 Fulton St", "Brooklyn, NY 11208"], "country": "US", "address2": "", "address3": "", "state": "NY", "address1": "3175 Fulton St", "zip_code": "11208"}}, {"rating": 4.5, "review_count": 24, "name": "The Deep End", "transactions": ["delivery", "pickup"], "url": "https://www.yelp.com/biz/the-deep-end-queens?adjust_creative=yhLoLzsNXKw40xZ5RCWPpA&utm_campaign=yelp_api_v3&utm_medium=api_v3_business_search&utm_source=yhLoLzsNXKw40xZ5RCWPpA", "price": "$$", "distance": 2940.500709945853, "coordinates": {"latitude": 40.6943930345841, "longitude": -73.902355909787}, "alias": "the-deep-end-queens", "image_url": "https://s3-media2.fl.yelpcdn.com/bphoto/FZTyUxG6iw1IFhsbxUVBMA/o.jpg", "categories": [{"alias": "bars", "title": "Bars"}, {"alias": "newamerican", "title": "American (New)"}, {"alias": "mexican", "title": "Mexican"}], "display_phone": "(347) 689-4996", "phone": "+13476894996", "id": "6oH3qLZrBEeSp35ols195g", "is_closed": false, "location": {"city": "Queens", "display_address": ["1080 Wyckoff Ave", "Queens, NY 11385"], "country": "US", "address2": null, "address3": "", "state": "NY", "address1": "1080 Wyckoff Ave", "zip_code": "11385"}}, {"rating": 4.0, "review_count": 217, "name": "Industry 1332", "transactions": ["delivery", "pickup"], "url": "https://www.yelp.com/biz/industry-1332-brooklyn-4?adjust_creative=yhLoLzsNXKw40xZ5RCWPpA&utm_campaign=yelp_api_v3&utm_medium=api_v3_business_search&utm_source=yhLoLzsNXKw40xZ5RCWPpA", "price": "$$", "distance": 2947.2180449418825, "coordinates": {"latitude": 40.694676, "longitude": -73.906246}, "alias": "industry-1332-brooklyn-4", "image_url": "https://s3-media2.fl.yelpcdn.com/bphoto/RDI4RdMGyxuOH_DmeFAnLg/o.jpg", "categories": [{"alias": "bars", "title": "Bars"}, {"alias": "latin", "title": "Latin American"}, {"alias": "tapasmallplates", "title": "Tapas/Small Plates"}], "display_phone": "(718) 484-8338", "phone": "+17184848338", "id": "t3I27_5vj_NA2COPSWg66g", "is_closed": false, "location": {"city": "Brooklyn", "display_address": ["1332 Halsey St", "Brooklyn, NY 11237"], "country": "US", "address2": null, "address3": "", "state": "NY", "address1": "1332 Halsey St", "zip_code": "11237"}}, {"rating": 4.0, "review_count": 9, "name": "Maxwell's Restaurant Bar", "transactions": [], "url": "https://www.yelp.com/biz/maxwells-restaurant-bar-brooklyn-2?adjust_creative=yhLoLzsNXKw40xZ5RCWPpA&utm_campaign=yelp_api_v3&utm_medium=api_v3_business_search&utm_source=yhLoLzsNXKw40xZ5RCWPpA", "price": "$", "distance": 2950.5429616177553, "coordinates": {"latitude": 40.6708771845998, "longitude": -73.9420050073016}, "alias": "maxwells-restaurant-bar-brooklyn-2", "image_url": "https://s3-media2.fl.yelpcdn.com/bphoto/WaBRr9BZwJsxvKddsVfEYw/o.jpg", "categories": [{"alias": "cocktailbars", "title": "Cocktail Bars"}, {"alias": "lounges", "title": "Lounges"}, {"alias": "tradamerican", "title": "American (Traditional)"}], "display_phone": "(917) 893-9933", "phone": "+19178939933", "id": "BI2PbVOOGLnkgcpbWg3_Gw", "is_closed": false, "location": {"city": "Brooklyn", "display_address": ["259 Kingston Ave", "Ste A", "Brooklyn, NY 11213"], "country": "US", "address2": "Ste A", "address3": "", "state": "NY", "address1": "259 Kingston Ave", "zip_code": "11213"}}, {"rating": 3.5, "review_count": 216, "name": "Basil", "transactions": [], "url": "https://www.yelp.com/biz/basil-brooklyn?adjust_creative=yhLoLzsNXKw40xZ5RCWPpA&utm_campaign=yelp_api_v3&utm_medium=api_v3_business_search&utm_source=yhLoLzsNXKw40xZ5RCWPpA", "price": "$$$", "distance": 2953.478512030475, "coordinates": {"latitude": 40.6701630483264, "longitude": -73.9421222019838}, "alias": "basil-brooklyn", "image_url": "https://s3-media4.fl.yelpcdn.com/bphoto/uDwKlPyU7DMMSHOo6VLB8w/o.jpg", "categories": [{"alias": "kosher", "title": "Kosher"}, {"alias": "wine_bars", "title": "Wine Bars"}, {"alias": "pizza", "title": "Pizza"}], "display_phone": "(718) 285-8777", "phone": "+17182858777", "id": "0K14fz91-JSZd-wselihxA", "is_closed": false, "location": {"city": "Brooklyn", "display_address": ["270 Kingston Ave", "Brooklyn, NY 11213"], "country": "US", "address2": "", "address3": null, "state": "NY", "address1": "270 Kingston Ave", "zip_code": "11213"}}, {"rating": 5.0, "review_count": 24, "name": "Phil's", "transactions": [], "url": "https://www.yelp.com/biz/phils-brooklyn-2?adjust_creative=yhLoLzsNXKw40xZ5RCWPpA&utm_campaign=yelp_api_v3&utm_medium=api_v3_business_search&utm_source=yhLoLzsNXKw40xZ5RCWPpA", "price": "$$", "distance": 2953.716959228481, "coordinates": {"latitude": 40.69467, "longitude": -73.910586}, "alias": "phils-brooklyn-2", "image_url": "https://s3-media2.fl.yelpcdn.com/bphoto/GWLqdJWzfOVgCNeX7P7t6w/o.jpg", "categories": [{"alias": "bars", "title": "Bars"}], "display_phone": "(347) 627-4585", "phone": "+13476274585", "id": "HLxiEvpJgmRMo2niM2FjOg", "is_closed": false, "location": {"city": "Brooklyn", "display_address": ["695 Knickerbocker Ave", "Brooklyn, NY 11221"], "country": "US", "address2": "", "address3": null, "state": "NY", "address1": "695 Knickerbocker Ave", "zip_code": "11221"}}, {"rating": 4.0, "review_count": 4, "name": "H0l0", "transactions": [], "url": "https://www.yelp.com/biz/h0l0-ridgewood?adjust_creative=yhLoLzsNXKw40xZ5RCWPpA&utm_campaign=yelp_api_v3&utm_medium=api_v3_business_search&utm_source=yhLoLzsNXKw40xZ5RCWPpA", "distance": 2958.532298119144, "coordinates": {"latitude": 40.6946336, "longitude": -73.9026863}, "alias": "h0l0-ridgewood", "image_url": "https://s3-media3.fl.yelpcdn.com/bphoto/Ai3VkTa74SrlJ5HuiZBHiw/o.jpg", "categories": [{"alias": "musicvenues", "title": "Music Venues"}], "display_phone": "", "phone": "", "id": "3sKwK3gAghzkNipoCDQ7_A", "is_closed": false, "location": {"city": "Ridgewood", "display_address": ["1090 Wyckoff Ave", "Ridgewood, NY 11385"], "country": "US", "address2": "", "address3": null, "state": "NY", "address1": "1090 Wyckoff Ave", "zip_code": "11385"}}, {"rating": 2.5, "review_count": 6, "name": "Chimi Mundo", "transactions": [], "url": "https://www.yelp.com/biz/chimi-mundo-brooklyn-2?adjust_creative=yhLoLzsNXKw40xZ5RCWPpA&utm_campaign=yelp_api_v3&utm_medium=api_v3_business_search&utm_source=yhLoLzsNXKw40xZ5RCWPpA", "distance": 2996.0014889993427, "coordinates": {"latitude": 40.6949420741481, "longitude": -73.9115872979164}, "alias": "chimi-mundo-brooklyn-2", "image_url": "https://s3-media2.fl.yelpcdn.com/bphoto/0Hz2iukBYd4k3YBeP2G-qQ/o.jpg", "categories": [{"alias": "dominican", "title": "Dominican"}, {"alias": "hookah_bars", "title": "Hookah Bars"}], "display_phone": "(347) 295-3600", "phone": "+13472953600", "id": "3Wn2thSXeUQ2AmTYOeVnfg", "is_closed": false, "location": {"city": "Brooklyn", "display_address": ["664 Knickerbocker Ave", "Brooklyn, NY 11221"], "country": "US", "address2": "", "address3": null, "state": "NY", "address1": "664 Knickerbocker Ave", "zip_code": "11221"}}, {"rating": 2.5, "review_count": 14, "name": "Brown Sugar Club", "transactions": ["pickup"], "url": "https://www.yelp.com/biz/brown-sugar-club-brooklyn-2?adjust_creative=yhLoLzsNXKw40xZ5RCWPpA&utm_campaign=yelp_api_v3&utm_medium=api_v3_business_search&utm_source=yhLoLzsNXKw40xZ5RCWPpA", "price": "$", "distance": 3007.5938564440116, "coordinates": {"latitude": 40.68225, "longitude": -73.93776}, "alias": "brown-sugar-club-brooklyn-2", "image_url": "https://s3-media3.fl.yelpcdn.com/bphoto/CAeRt7q7LeQ5sH0mtfWYsw/o.jpg", "categories": [{"alias": "danceclubs", "title": "Dance Clubs"}, {"alias": "tradamerican", "title": "American (Traditional)"}, {"alias": "venues", "title": "Venues & Event Spaces"}], "display_phone": "(718) 552-2705", "phone": "+17185522705", "id": "DKn7z4H9MzmqRlSeftIFag", "is_closed": false, "location": {"city": "Brooklyn", "display_address": ["433 Marcus Garvey Blvd", "Brooklyn, NY 11216"], "country": "US", "address2": "", "address3": "", "state": "NY", "address1": "433 Marcus Garvey Blvd", "zip_code": "11216"}}, {"rating": 4.0, "review_count": 88, "name": "Tree House", "transactions": [], "url": "https://www.yelp.com/biz/tree-house-brooklyn?adjust_creative=yhLoLzsNXKw40xZ5RCWPpA&utm_campaign=yelp_api_v3&utm_medium=api_v3_business_search&utm_source=yhLoLzsNXKw40xZ5RCWPpA", "price": "$$", "distance": 3049.680324238467, "coordinates": {"latitude": 40.68281, "longitude": -73.93786}, "alias": "tree-house-brooklyn", "image_url": "https://s3-media2.fl.yelpcdn.com/bphoto/Ok-x1RE4dSNnhSDzZFZFyw/o.jpg", "categories": [{"alias": "bars", "title": "Bars"}, {"alias": "caribbean", "title": "Caribbean"}, {"alias": "african", "title": "African"}], "display_phone": "(718) 483-8044", "phone": "+17184838044", "id": "82odHh211DgOSBWtewUYOg", "is_closed": false, "location": {"city": "Brooklyn", "display_address": ["417 Marcus Garvey Blvd", "Brooklyn, NY 11216"], "country": "US", "address2": "", "address3": "", "state": "NY", "address1": "417 Marcus Garvey Blvd", "zip_code": "11216"}}, {"rating": 1.0, "review_count": 2, "name": "Blue Iguana", "transactions": [], "url": "https://www.yelp.com/biz/blue-iguana-brooklyn?adjust_creative=yhLoLzsNXKw40xZ5RCWPpA&utm_campaign=yelp_api_v3&utm_medium=api_v3_business_search&utm_source=yhLoLzsNXKw40xZ5RCWPpA", "distance": 3070.9351058414486, "coordinates": {"latitude": 40.6826907, "longitude": -73.876195}, "alias": "blue-iguana-brooklyn", "image_url": "", "categories": [{"alias": "lounges", "title": "Lounges"}], "display_phone": "(718) 880-6696", "phone": "+17188806696", "id": "1FYkpRezPb3r1KYwEwq9fg", "is_closed": false, "location": {"city": "Brooklyn", "display_address": ["3219 Fulton St", "Brooklyn, NY 11208"], "country": "US", "address2": "", "address3": "", "state": "NY", "address1": "3219 Fulton St", "zip_code": "11208"}}, {"rating": 2.0, "review_count": 1, "name": "Blue Parrot Bar", "transactions": [], "url": "https://www.yelp.com/biz/blue-parrot-bar-cypress-hills?adjust_creative=yhLoLzsNXKw40xZ5RCWPpA&utm_campaign=yelp_api_v3&utm_medium=api_v3_business_search&utm_source=yhLoLzsNXKw40xZ5RCWPpA", "distance": 3070.9351058414486, "coordinates": {"latitude": 40.6826907, "longitude": -73.876195}, "alias": "blue-parrot-bar-cypress-hills", "image_url": "https://s3-media3.fl.yelpcdn.com/bphoto/K_Oo08hU3k1CMaSgZ-BPhw/o.jpg", "categories": [{"alias": "bars", "title": "Bars"}], "display_phone": "(718) 484-9010", "phone": "+17184849010", "id": "O3bHsxKTm5EMMZEbrF5N3Q", "is_closed": false, "location": {"city": "Cypress Hills", "display_address": ["3219 Fulton St", "Cypress Hills, NY 11208"], "country": "US", "address2": "", "address3": "", "state": "NY", "address1": "3219 Fulton St", "zip_code": "11208"}}, {"rating": 2.0, "review_count": 6, "name": "The Buren", "transactions": [], "url": "https://www.yelp.com/biz/the-buren-brooklyn-2?adjust_creative=yhLoLzsNXKw40xZ5RCWPpA&utm_campaign=yelp_api_v3&utm_medium=api_v3_business_search&utm_source=yhLoLzsNXKw40xZ5RCWPpA", "distance": 3090.533863840988, "coordinates": {"latitude": 40.69196, "longitude": -73.92608}, "alias": "the-buren-brooklyn-2", "image_url": "https://s3-media2.fl.yelpcdn.com/bphoto/nBwhMhpWvb1bVm5WL_KvMA/o.jpg", "categories": [{"alias": "cafes", "title": "Cafes"}, {"alias": "bars", "title": "Bars"}], "display_phone": "(718) 684-3023", "phone": "+17186843023", "id": "5QfE9v_IfCgAezqnHNzHWg", "is_closed": false, "location": {"city": "Brooklyn", "display_address": ["1223 Broadway", "Brooklyn, NY 11221"], "country": "US", "address2": null, "address3": "", "state": "NY", "address1": "1223 Broadway", "zip_code": "11221"}}]}