{"region": {"center": {"latitude": 40.6649707959, "longitude": -73.8775240554}}, "total": 1100, "businesses": [{"rating": 1.5, "review_count": 245, "name": "Applebee's Grill + Bar", "transactions": [], "url": "https://www.yelp.com/biz/applebees-grill-bar-brooklyn-4?adjust_creative=yhLoLzsNXKw40xZ5RCWPpA&utm_campaign=yelp_api_v3&utm_medium=api_v3_business_search&utm_source=yhLoLzsNXKw40xZ5RCWPpA", "price": "$$", "distance": 1279.506944940861, "coordinates": {"latitude": 40.6539397067806, "longitude": -73.8732072527008}, "alias": "applebees-grill-bar-brooklyn-4", "image_url": "https://s3-media3.fl.yelpcdn.com/bphoto/lOdcdr3mbEXIL7L_5U_YYQ/o.jpg", "categories": [{"alias": "tradamerican", "title": "American (Traditional)"}, {"alias": "sportsbars", "title": "Sports Bars"}, {"alias": "burgers", "title": "Burgers"}], "display_phone": "(718) 827-2527", "phone": "+17188272527", "id": "DbgNpmzjkU_l56a0uumw8Q", "is_closed": false, "location": {"city": "Brooklyn", "display_address": ["448 Gateway Dr", "Building M", "Brooklyn, NY 11239"], "country": "US", "address2": "Building M", "address3": "", "state": "NY", "address1": "448 Gateway Dr", "zip_code": "11239"}}, {"rating": 2.0, "review_count": 250, "name": "Buffalo Wild Wings", "transactions": [], "url": "https://www.yelp.com/biz/buffalo-wild-wings-brooklyn-4?adjust_creative=yhLoLzsNXKw40xZ5RCWPpA&utm_campaign=yelp_api_v3&utm_medium=api_v3_business_search&utm_source=yhLoLzsNXKw40xZ5RCWPpA", "price": "$$", "distance": 1334.9101310167462, "coordinates": {"latitude": 40.6552718773655, "longitude": -73.8681976155914}, "alias": "buffalo-wild-wings-brooklyn-4", "image_url": "https://s3-media1.fl.yelpcdn.com/bphoto/ASJ-5eCG4XN3TeLVk36xRQ/o.jpg", "categories": [{"alias": "sportsbars", "title": "Sports Bars"}, {"alias": "tradamerican", "title": "American (Traditional)"}, {"alias": "chicken_wings", "title": "Chicken Wings"}], "display_phone": "(718) 235-9453", "phone": "+17182359453", "id": "vk9EHO8qqwFacLeelnbPcg", "is_closed": false, "location": {"city": "Brooklyn", "display_address": ["501 Gateway Drive", "Brooklyn, NY 11239"], "country": "US", "address2": "", "address3": "", "state": "NY", "address1": "501 Gateway Drive", "zip_code": "11239"}}, {"rating": 4.0, "review_count": 5, "name": "Oracle Lounge", "transactions": ["delivery", "pickup"], "url": "https://www.yelp.com/biz/oracle-lounge-brooklyn?adjust_creative=yhLoLzsNXKw40xZ5RCWPpA&utm_campaign=yelp_api_v3&utm_medium=api_v3_business_search&utm_source=yhLoLzsNXKw40xZ5RCWPpA", "distance": 1598.0398497987694, "coordinates": {"latitude": 40.67795, "longitude": -73.88583}, "alias": "oracle-lounge-brooklyn", "image_url": "https://s3-media2.fl.yelpcdn.com/bphoto/twS2FVtP-XQkN-qprnd79A/o.jpg", "categories": [{"alias": "lounges", "title": "Lounges"}, {"alias": "sportsbars", "title": "Sports Bars"}], "display_phone": "(718) 827-7007", "phone": "+17188277007", "id": "Z6BM0HayUS5tHW41DrxtbA", "is_closed": false, "location": {"city": "Brooklyn", "display_address": ["2937 Atlantic Ave", "Brooklyn, NY 11207"], "country": "US", "address2": "", "address3": null, "state": "NY", "address1": "2937 Atlantic Ave", "zip_code": "11207"}}, {"rating": 2.0, "review_count": 1, "name": "Loveras 2843 Lounge", "transactions": [], "url": "https://www.yelp.com/biz/loveras-2843-lounge-new-york?adjust_creative=yhLoLzsNXKw40xZ5RCWPpA&utm_campaign=yelp_api_v3&utm_medium=api_v3_business_search&utm_source=yhLoLzsNXKw40xZ5RCWPpA", "price": "$$", "distance": 1741.576177951193, "coordinates": {"latitude": 40.6792400989066, "longitude": -73.8860379159451}, "alias": "loveras-2843-lounge-new-york", "image_url": "https://s3-media2.fl.yelpcdn.com/bphoto/PYHpQ1tVKvGWWBSCtEhpJw/o.jpg", "categories": [{"alias": "lounges", "title": "Lounges"}], "display_phone": "", "phone": "", "id": "mjf8phnWxMgFBktUZ1zwuw", "is_closed": false, "location": {"city": "New York", "display_address": ["2942-2944 Fulton St", "New York, NY 11207"], "country": "US", "address2": "", "address3": "", "state": "NY", "address1": "2942-2944 Fulton St", "zip_code": "11207"}}, {"rating": 3.0, "review_count": 1, "name": "Trilogies", "transactions": [], "url": "https://www.yelp.com/biz/trilogies-cypress-hills?adjust_creative=yhLoLzsNXKw40xZ5RCWPpA&utm_campaign=yelp_api_v3&utm_medium=api_v3_business_search&utm_source=yhLoLzsNXKw40xZ5RCWPpA", "price": "$", "distance": 1759.8036252055952, "coordinates": {"latitude": 40.6793338948611, "longitude": -73.8862870679559}, "alias": "trilogies-cypress-hills", "image_url": "https://s3-media4.fl.yelpcdn.com/bphoto/vo6HYZpRWFpG-rmI-14f_A/o.jpg", "categories": [{"alias": "danceclubs", "title": "Dance Clubs"}], "display_phone": "(929) 332-1386", "phone": "+19293321386", "id": "wrV5tE1y9gw1_wA1Os3JXw", "is_closed": false, "location": {"city": "Cypress Hills", "display_address": ["2936 Fulton St", "Cypress Hills, NY 11207"], "country": "US", "address2": "", "address3": "", "state": "NY", "address1": "2936 Fulton St", "zip_code": "11207"}}, {"rating": 5.0, "review_count": 3, "name": "El Cacique Restaurant And Bar", "transactions": ["delivery", "pickup"], "url": "https://www.yelp.com/biz/el-cacique-restaurant-and-bar-cypress-hills?adjust_creative=yhLoLzsNXKw40xZ5RCWPpA&utm_campaign=yelp_api_v3&utm_medium=api_v3_business_search&utm_source=yhLoLzsNXKw40xZ5RCWPpA", "price": "$$", "distance": 1841.3051501179568, "coordinates": {"latitude": 40.6811813727993, "longitude": -73.8730670884252}, "alias": "el-cacique-restaurant-and-bar-cypress-hills", "image_url": "https://s3-media1.fl.yelpcdn.com/bphoto/5BL9_nm1UqXfEWWwGCTE6g/o.jpg", "categories": [{"alias": "latin", "title": "Latin American"}, {"alias": "bars", "title": "Bars"}], "display_phone": "(718) 235-2525", "phone": "+17182352525", "id": "HAX5vD2qq2plQSsphyjHmg", "is_closed": false, "location": {"city": "Cypress Hills", "display_address": ["3294 Atlantic Ave", "Cypress Hills, NY 11208"], "country": "US", "address2": "", "address3": "", "state": "NY", "address1": "3294 Atlantic Ave", "zip_code": "11208"}}, {"rating": 4.5, "review_count": 2, "name": "El Nuevo Puerto Plata", "transactions": [], "url": "https://www.yelp.com/biz/el-nuevo-puerto-plata-cypress-hills?adjust_creative=yhLoLzsNXKw40xZ5RCWPpA&utm_campaign=yelp_api_v3&utm_medium=api_v3_business_search&utm_source=yhLoLzsNXKw40xZ5RCWPpA", "price": "$", "distance": 1868.7459749974907, "coordinates": {"latitude": 40.681759, "longitude": -73.879796}, "alias": "el-nuevo-puerto-plata-cypress-hills", "image_url": "", "categories": [{"alias": "bars", "title": "Bars"}, {"alias": "seafood", "title": "Seafood"}], "display_phone": "(718) 235-3564", "phone": "+17182353564", "id": "1GPeGJw_AHRAT7L7AmLSCA", "is_closed": false, "location": {"city": "Cypress Hills", "display_address": ["3123 Fulton St", "Cypress Hills, NY 11208"], "country": "US", "address2": "", "address3": "", "state": "NY", "address1": "3123 Fulton St", "zip_code": "11208"}}, {"rating": 2.5, "review_count": 39, "name": "El Gran Mar De Plata Restaurant", "transactions": ["delivery", "pickup"], "url": "https://www.yelp.com/biz/el-gran-mar-de-plata-restaurant-brooklyn?adjust_creative=yhLoLzsNXKw40xZ5RCWPpA&utm_campaign=yelp_api_v3&utm_medium=api_v3_business_search&utm_source=yhLoLzsNXKw40xZ5RCWPpA", "price": "$$", "distance": 1918.6947135996074, "coordinates": {"latitude": 40.6822299, "longitude": -73.87763}, "alias": "el-gran-mar-de-plata-restaurant-brooklyn", "image_url": "https://s3-media1.fl.yelpcdn.com/bphoto/Y8IB3K04Z7VJK8kqeSeobw/o.jpg", "categories": [{"alias": "spanish", "title": "Spanish"}, {"alias": "danceclubs", "title": "Dance Clubs"}, {"alias": "latin", "title": "Latin American"}], "display_phone": "(718) 827-1717", "phone": "+17188271717", "id": "X29NW0Yjb4z1LOoEDnZPQg", "is_closed": false, "location": {"city": "Brooklyn", "display_address": ["3175 Fulton St", "Brooklyn, NY 11208"], "country": "US", "address2": "", "address3": "", "state": "NY", "address1": "3175 Fulton St", "zip_code": "11208"}}, {"rating": 1.0, "review_count": 2, "name": "Blue Iguana", "transactions": [], "url": "https://www.yelp.com/biz/blue-iguana-brooklyn?adjust_creative=yhLoLzsNXKw40xZ5RCWPpA&utm_campaign=yelp_api_v3&utm_medium=api_v3_business_search&utm_source=yhLoLzsNXKw40xZ5RCWPpA", "distance": 1973.5466351423183, "coordinates": {"latitude": 40.6826907, "longitude": -73.876195}, "alias": "blue-iguana-brooklyn", "image_url": "", "categories": [{"alias": "lounges", "title": "Lounges"}], "display_phone": "(718) 880-6696", "phone": "+17188806696", "id": "1FYkpRezPb3r1KYwEwq9fg", "is_closed": false, "location": {"city": "Brooklyn", "display_address": ["3219 Fulton St", "Brooklyn, NY 11208"], "country": "US", "address2": "", "address3": "", "state": "NY", "address1": "3219 Fulton St", "zip_code": "11208"}}, {"rating": 2.0, "review_count": 1, "name": "Blue Parrot Bar", "transactions": [], "url": "https://www.yelp.com/biz/blue-parrot-bar-cypress-hills?adjust_creative=yhLoLzsNXKw40xZ5RCWPpA&utm_campaign=yelp_api_v3&utm_medium=api_v3_business_search&utm_source=yhLoLzsNXKw40xZ5RCWPpA", "distance": 1973.5466351423183, "coordinates": {"latitude": 40.6826907, "longitude": -73.876195}, "alias": "blue-parrot-bar-cypress-hills", "image_url": "https://s3-media3.fl.yelpcdn.com/bphoto/K_Oo08hU3k1CMaSgZ-BPhw/o.jpg", "categories": [{"alias": "bars", "title": "Bars"}], "display_phone": "(718) 484-9010", "phone": "+17184849010", "id": "O3bHsxKTm5EMMZEbrF5N3Q", "is_closed": false, "location": {"city": "Cypress Hills", "display_address": ["3219 Fulton St", "Cypress Hills, NY 11208"], "country": "US", "address2": "", "address3": "", "state": "NY", "address1": "3219 Fulton St", "zip_code": "11208"}}, {"rating": 3.0, "review_count": 49, "name": "Caoba Brooklyn Bistro", "transactions": ["delivery", "pickup"], "url": "https://www.yelp.com/biz/caoba-brooklyn-bistro-brooklyn?adjust_creative=yhLoLzsNXKw40xZ5RCWPpA&utm_campaign=yelp_api_v3&utm_medium=api_v3_business_search&utm_source=yhLoLzsNXKw40xZ5RCWPpA", "price": "$$", "distance": 2188.2719439756092, "coordinates": {"latitude": 40.67843, "longitude": -73.89635}, "alias": "caoba-brooklyn-bistro-brooklyn", "image_url": "https://s3-media1.fl.yelpcdn.com/bphoto/lxqO6h5Rs0eMEJvpmaFqaA/o.jpg", "categories": [{"alias": "bars", "title": "Bars"}, {"alias": "dominican", "title": "Dominican"}, {"alias": "latin", "title": "Latin American"}], "display_phone": "(347) 404-6886", "phone": "+13474046886", "id": "g5VNncYsBv7LWQcW17FapQ", "is_closed": false, "location": {"city": "Brooklyn", "display_address": ["100 Jamaica Ave", "Brooklyn, NY 11207"], "country": "US", "address2": null, "address3": "", "state": "NY", "address1": "100 Jamaica Ave", "zip_code": "11207"}}, {"rating": 3.0, "review_count": 36, "name": "Carro Cafe", "transactions": ["delivery", "pickup"], "url": "https://www.yelp.com/biz/carro-cafe-brooklyn-2?adjust_creative=yhLoLzsNXKw40xZ5RCWPpA&utm_campaign=yelp_api_v3&utm_medium=api_v3_business_search&utm_source=yhLoLzsNXKw40xZ5RCWPpA", "price": "$$", "distance": 2361.660229675925, "coordinates": {"latitude": 40.684775, "longitude": -73.867406}, "alias": "carro-cafe-brooklyn-2", "image_url": "https://s3-media1.fl.yelpcdn.com/bphoto/gZLgKXkW3uJvpBLPwLK4YA/o.jpg", "categories": [{"alias": "latin", "title": "Latin American"}, {"alias": "lounges", "title": "Lounges"}, {"alias": "caribbean", "title": "Caribbean"}], "display_phone": "(718) 348-9406", "phone": "+17183489406", "id": "zGuO10vKVJz0XwmLOl4YdQ", "is_closed": false, "location": {"city": "Brooklyn", "display_address": ["3472 Fulton St", "Brooklyn, NY 11208"], "country": "US", "address2": "", "address3": "", "state": "NY", "address1": "3472 Fulton St", "zip_code": "11208"}}, {"rating": 1.0, "review_count": 1, "name": "El Faro Lounge", "transactions": [], "url": "https://www.yelp.com/biz/el-faro-lounge-brooklyn?adjust_creative=yhLoLzsNXKw40xZ5RCWPpA&utm_campaign=yelp_api_v3&utm_medium=api_v3_business_search&utm_source=yhLoLzsNXKw40xZ5RCWPpA", "distance": 2437.6115309233664, "coordinates": {"latitude": 40.677425, "longitude": -73.901459}, "alias": "el-faro-lounge-brooklyn", "image_url": "https://s3-media2.fl.yelpcdn.com/bphoto/EEDsl0aVkw1izz4RJlLiaQ/o.jpg", "categories": [{"alias": "lounges", "title": "Lounges"}], "display_phone": "(718) 345-2211", "phone": "+17183452211", "id": "CWZKJ06B_uYIMfToPsPIAw", "is_closed": false, "location": {"city": "Brooklyn", "display_address": ["2501 Fulton St", "Brooklyn, NY 11207"], "country": "US", "address2": "", "address3": "", "state": "NY", "address1": "2501 Fulton St", "zip_code": "11207"}}, {"rating": 2.5, "review_count": 46, "name": "El Rey IV Billiard & Lounge", "transactions": ["delivery", "pickup"], "url": "https://www.yelp.com/biz/el-rey-iv-billiard-and-lounge-woodhaven-2?adjust_creative=yhLoLzsNXKw40xZ5RCWPpA&utm_campaign=yelp_api_v3&utm_medium=api_v3_business_search&utm_source=yhLoLzsNXKw40xZ5RCWPpA", "price": "$$", "distance": 2542.631746686871, "coordinates": {"latitude": 40.685609, "longitude": -73.864542}, "alias": "el-rey-iv-billiard-and-lounge-woodhaven-2", "image_url": "https://s3-media1.fl.yelpcdn.com/bphoto/mw35qSNVWojJlDzBYSscYw/o.jpg", "categories": [{"alias": "bars", "title": "Bars"}, {"alias": "steak", "title": "Steakhouses"}, {"alias": "poolhalls", "title": "Pool Halls"}], "display_phone": "(718) 296-1717", "phone": "+17182961717", "id": "cAoEjhHS_dgi8Gd9w9CAZQ", "is_closed": false, "location": {"city": "Woodhaven", "display_address": ["7516 Rockaway Blvd", "Woodhaven, NY 11421"], "country": "US", "address2": "", "address3": null, "state": "NY", "address1": "7516 Rockaway Blvd", "zip_code": "11421"}}, {"rating": 4.0, "review_count": 8, "name": "La Selva Bar & Restaurant", "transactions": [], "url": "https://www.yelp.com/biz/la-selva-bar-and-restaurant-queens-2?adjust_creative=yhLoLzsNXKw40xZ5RCWPpA&utm_campaign=yelp_api_v3&utm_medium=api_v3_business_search&utm_source=yhLoLzsNXKw40xZ5RCWPpA", "price": "$$", "distance": 2582.3400104592392, "coordinates": {"latitude": 40.68449, "longitude": -73.86097}, "alias": "la-selva-bar-and-restaurant-queens-2", "image_url": "https://s3-media2.fl.yelpcdn.com/bphoto/uamXiDQ7uEwApFdNgZ4Yxg/o.jpg", "categories": [{"alias": "latin", "title": "Latin American"}, {"alias": "bars", "title": "Bars"}], "display_phone": "(718) 296-2785", "phone": "+17182962785", "id": "mzum2_jxCud4vNLLgOGRBg", "is_closed": false, "location": {"city": "Queens", "display_address": ["94-02 80th St", "Queens, NY 11416"], "country": "US", "address2": "", "address3": null, "state": "NY", "address1": "94-02 80th St", "zip_code": "11416"}}, {"rating": 3.0, "review_count": 1, "name": "RRR Lounge & Bar", "transactions": [], "url": "https://www.yelp.com/biz/rrr-lounge-and-bar-queens?adjust_creative=yhLoLzsNXKw40xZ5RCWPpA&utm_campaign=yelp_api_v3&utm_medium=api_v3_business_search&utm_source=yhLoLzsNXKw40xZ5RCWPpA", "distance": 2787.0329402827833, "coordinates": {"latitude": 40.6795854051432, "longitude": -73.8506763083788}, "alias": "rrr-lounge-and-bar-queens", "image_url": "", "categories": [{"alias": "lounges", "title": "Lounges"}], "display_phone": "(347) 408-6935", "phone": "+13474086935", "id": "HsubhE-U4nkIwJUcdZVO4A", "is_closed": false, "location": {"city": "Queens", "display_address": ["87-18 Liberty Ave", "Queens, NY 11417"], "country": "US", "address2": "", "address3": null, "state": "NY", "address1": "87-18 Liberty Ave", "zip_code": "11417"}}, {"rating": 1.0, "review_count": 1, "name": "Juicy Bar and Lounge", "transactions": [], "url": "https://www.yelp.com/biz/juicy-bar-and-lounge-ozone-park?adjust_creative=yhLoLzsNXKw40xZ5RCWPpA&utm_campaign=yelp_api_v3&utm_medium=api_v3_business_search&utm_source=yhLoLzsNXKw40xZ5RCWPpA", "distance": 2788.982405655958, "coordinates": {"latitude": 40.6796684, "longitude": -73.8507767}, "alias": "juicy-bar-and-lounge-ozone-park", "image_url": "https://s3-media1.fl.yelpcdn.com/bphoto/HF8u7gTvykflxcedPvA9QQ/o.jpg", "categories": [{"alias": "lounges", "title": "Lounges"}], "display_phone": "", "phone": "", "id": "ZojtGnA16D8z2xYc86XLog", "is_closed": false, "location": {"city": "Ozone Park", "display_address": ["87-18 Liberty Ave", "Ozone Park, NY 11417"], "country": "US", "address2": null, "address3": "", "state": "NY", "address1": "87-18 Liberty Ave", "zip_code": "11417"}}, {"rating": 3.0, "review_count": 1, "name": "Exotic Zone Bar & Lounge", "transactions": [], "url": "https://www.yelp.com/biz/exotic-zone-bar-and-lounge-ozone-park?adjust_creative=yhLoLzsNXKw40xZ5RCWPpA&utm_campaign=yelp_api_v3&utm_medium=api_v3_business_search&utm_source=yhLoLzsNXKw40xZ5RCWPpA", "distance": 2789.4056446853624, "coordinates": {"latitude": 40.679668, "longitude": -73.850776}, "alias": "exotic-zone-bar-and-lounge-ozone-park", "image_url": "https://s3-media2.fl.yelpcdn.com/bphoto/MUPHkwxS6xxCKJUe_j-ccQ/o.jpg", "categories": [{"alias": "bars", "title": "Bars"}], "display_phone": "(718) 843-1853", "phone": "+17188431853", "id": "E7x3qAZZdO2Ch5ibi5igOg", "is_closed": false, "location": {"city": "Ozone Park", "display_address": ["8718 Liberty Ave", "Ozone Park, NY 11417"], "country": "US", "address2": "", "address3": "", "state": "NY", "address1": "8718 Liberty Ave", "zip_code": "11417"}}, {"rating": 5.0, "review_count": 2, "name": "88 Liquor and Wine Store", "transactions": [], "url": "https://www.yelp.com/biz/88-liquor-and-wine-store-ozone-park?adjust_creative=yhLoLzsNXKw40xZ5RCWPpA&utm_campaign=yelp_api_v3&utm_medium=api_v3_business_search&utm_source=yhLoLzsNXKw40xZ5RCWPpA", "price": "$$", "distance": 2814.556053082322, "coordinates": {"latitude": 40.6798741047023, "longitude": -73.8505487551745}, "alias": "88-liquor-and-wine-store-ozone-park", "image_url": "", "categories": [{"alias": "wine_bars", "title": "Wine Bars"}], "display_phone": "", "phone": "", "id": "DQ0HELIhvfNE7tEydXYW0A", "is_closed": false, "location": {"city": "Ozone Park", "display_address": ["88-17 Liberty Ave", "Ozone Park, NY 11417"], "country": "US", "address2": "", "address3": "", "state": "NY", "address1": "88-17 Liberty Ave", "zip_code": "11417"}}, {"rating": 3.5, "review_count": 6, "name": "Mike's Tavern", "transactions": [], "url": "https://www.yelp.com/biz/mikes-tavern-jamaica?adjust_creative=yhLoLzsNXKw40xZ5RCWPpA&utm_campaign=yelp_api_v3&utm_medium=api_v3_business_search&utm_source=yhLoLzsNXKw40xZ5RCWPpA", "price": "$", "distance": 2842.072580438864, "coordinates": {"latitude": 40.6796531677246, "longitude": -73.8499450683594}, "alias": "mikes-tavern-jamaica", "image_url": "https://s3-media1.fl.yelpcdn.com/bphoto/-apr4JYF__VlxIITEqRiQw/o.jpg", "categories": [{"alias": "pubs", "title": "Pubs"}], "display_phone": "(718) 845-9322", "phone": "+17188459322", "id": "o-xxl9iFJczUbJeZe3-pQw", "is_closed": false, "location": {"city": "Jamaica", "display_address": ["8814 Liberty Ave", "Jamaica, NY 11417"], "country": "US", "address2": "", "address3": "", "state": "NY", "address1": "8814 Liberty Ave", "zip_code": "11417"}}, {"rating": 5.0, "review_count": 2, "name": "Hydra Lounge", "transactions": [], "url": "https://www.yelp.com/biz/hydra-lounge-ozone-park?adjust_creative=yhLoLzsNXKw40xZ5RCWPpA&utm_campaign=yelp_api_v3&utm_medium=api_v3_business_search&utm_source=yhLoLzsNXKw40xZ5RCWPpA", "price": "$", "distance": 2857.875727991043, "coordinates": {"latitude": 40.67972, "longitude": -73.8498199}, "alias": "hydra-lounge-ozone-park", "image_url": "https://s3-media2.fl.yelpcdn.com/bphoto/lrKTvhDK9bdKqdB89rhI3A/o.jpg", "categories": [{"alias": "hookah_bars", "title": "Hookah Bars"}, {"alias": "lounges", "title": "Lounges"}], "display_phone": "(347) 441-6426", "phone": "+13474416426", "id": "txF1G1hrwZaM9LGM_PS-ZQ", "is_closed": false, "location": {"city": "Ozone Park", "display_address": ["88-18 Liberty Ave", "Ozone Park, NY 11417"], "country": "US", "address2": null, "address3": "", "state": "NY", "address1": "88-18 Liberty Ave", "zip_code": "11417"}}, {"rating": 4.0, "review_count": 79, "name": "Neir's Tavern", "transactions": [], "url": "https://www.yelp.com/biz/neirs-tavern-woodhaven-2?adjust_creative=yhLoLzsNXKw40xZ5RCWPpA&utm_campaign=yelp_api_v3&utm_medium=api_v3_business_search&utm_source=yhLoLzsNXKw40xZ5RCWPpA", "price": "$$", "distance": 2999.248146995135, "coordinates": {"latitude": 40.689768, "longitude": -73.8635299}, "alias": "neirs-tavern-woodhaven-2", "image_url": "https://s3-media3.fl.yelpcdn.com/bphoto/1ztcmffD1YBeolC9KIHRuQ/o.jpg", "categories": [{"alias": "bars", "title": "Bars"}, {"alias": "tradamerican", "title": "American (Traditional)"}], "display_phone": "(718) 296-0600", "phone": "+17182960600", "id": "_47YmtM-8Ffkyo9752KuoA", "is_closed": false, "location": {"city": "Woodhaven", "display_address": ["87-48 78th St", "Woodhaven, NY 11421"], "country": "US", "address2": null, "address3": null, "state": "NY", "address1": "87-48 78th St", "zip_code": "11421"}}, {"rating": 3.5, "review_count": 54, "name": "CJ's Bar and Lounge", "transactions": [], "url": "https://www.yelp.com/biz/cjs-bar-and-lounge-ozone-park?adjust_creative=yhLoLzsNXKw40xZ5RCWPpA&utm_campaign=yelp_api_v3&utm_medium=api_v3_business_search&utm_source=yhLoLzsNXKw40xZ5RCWPpA", "price": "$$", "distance": 3020.873015132182, "coordinates": {"latitude": 40.6717612145833, "longitude": -73.8428433902073}, "alias": "cjs-bar-and-lounge-ozone-park", "image_url": "https://s3-media2.fl.yelpcdn.com/bphoto/WaHiyuXULwC4-8dijW0tUA/o.jpg", "categories": [{"alias": "lounges", "title": "Lounges"}, {"alias": "sportsbars", "title": "Sports Bars"}, {"alias": "chicken_wings", "title": "Chicken Wings"}], "display_phone": "(718) 848-2498", "phone": "+17188482498", "id": "EfCZ79gw5KdgW5zJzj8-2Q", "is_closed": false, "location": {"city": "Ozone Park", "display_address": ["137-09 Crossbay Blvd", "Ozone Park, NY 11417"], "country": "US", "address2": "", "address3": "", "state": "NY", "address1": "137-09 Crossbay Blvd", "zip_code": "11417"}}, {"rating": 3.5, "review_count": 160, "name": "Hana Asian Bistro", "transactions": [], "url": "https://www.yelp.com/biz/hana-asian-bistro-ozone-park-2?adjust_creative=yhLoLzsNXKw40xZ5RCWPpA&utm_campaign=yelp_api_v3&utm_medium=api_v3_business_search&utm_source=yhLoLzsNXKw40xZ5RCWPpA", "price": "$$", "distance": 3031.73989026552, "coordinates": {"latitude": 40.6699939531997, "longitude": -73.8424712286242}, "alias": "hana-asian-bistro-ozone-park-2", "image_url": "https://s3-media2.fl.yelpcdn.com/bphoto/ef5QlqWFTzclnGn9QqZfVw/o.jpg", "categories": [{"alias": "sushi", "title": "Sushi Bars"}, {"alias": "asianfusion", "title": "Asian Fusion"}, {"alias": "cocktailbars", "title": "Cocktail Bars"}], "display_phone": "(718) 835-6888", "phone": "+17188356888", "id": "XD9XiCUvbvCt7laocvAadw", "is_closed": false, "location": {"city": "Ozone Park", "display_address": ["150-03 Crossbay Blvd", "Ozone Park, NY 11417"], "country": "US", "address2": null, "address3": null, "state": "NY", "address1": "150-03 Crossbay Blvd", "zip_code": "11417"}}, {"rating": 3.0, "review_count": 4, "name": "Bamboo tavern", "transactions": [], "url": "https://www.yelp.com/biz/bamboo-tavern-brooklyn?adjust_creative=yhLoLzsNXKw40xZ5RCWPpA&utm_campaign=yelp_api_v3&utm_medium=api_v3_business_search&utm_source=yhLoLzsNXKw40xZ5RCWPpA", "price": "$$", "distance": 3039.9046764184336, "coordinates": {"latitude": 40.6462, "longitude": -73.90368}, "alias": "bamboo-tavern-brooklyn", "image_url": "", "categories": [{"alias": "bars", "title": "Bars"}], "display_phone": "(646) 523-7149", "phone": "+16465237149", "id": "LrbOaAD8B9R5LJoKhRZVBg", "is_closed": false, "location": {"city": "Brooklyn", "display_address": ["1370 Rockaway Pkwy", "Brooklyn, NY 11236"], "country": "US", "address2": "", "address3": null, "state": "NY", "address1": "1370 Rockaway Pkwy", "zip_code": "11236"}}, {"rating": 4.5, "review_count": 7, "name": "Armond's Lounge", "transactions": [], "url": "https://www.yelp.com/biz/armonds-lounge-brooklyn?adjust_creative=yhLoLzsNXKw40xZ5RCWPpA&utm_campaign=yelp_api_v3&utm_medium=api_v3_business_search&utm_source=yhLoLzsNXKw40xZ5RCWPpA", "price": "$$", "distance": 3152.5456576808992, "coordinates": {"latitude": 40.678399, "longitude": -73.910446}, "alias": "armonds-lounge-brooklyn", "image_url": "https://s3-media3.fl.yelpcdn.com/bphoto/iVC_OyUpA8mKShP2ScoEMg/o.jpg", "categories": [{"alias": "lounges", "title": "Lounges"}], "display_phone": "(347) 356-7039", "phone": "+13473567039", "id": "CMYr0mS6WKAGj-R4h-Ib4g", "is_closed": false, "location": {"city": "Brooklyn", "display_address": ["2065 Fulton St", "Brooklyn, NY 11233"], "country": "US", "address2": null, "address3": "", "state": "NY", "address1": "2065 Fulton St", "zip_code": "11233"}}, {"rating": 4.0, "review_count": 46, "name": "Daily Press Coffee", "transactions": [], "url": "https://www.yelp.com/biz/daily-press-coffee-brooklyn-13?adjust_creative=yhLoLzsNXKw40xZ5RCWPpA&utm_campaign=yelp_api_v3&utm_medium=api_v3_business_search&utm_source=yhLoLzsNXKw40xZ5RCWPpA", "price": "$$", "distance": 3166.620738370319, "coordinates": {"latitude": 40.67871, "longitude": -73.91074}, "alias": "daily-press-coffee-brooklyn-13", "image_url": "https://s3-media3.fl.yelpcdn.com/bphoto/21_niNjOyxRHk4HVo-rLXQ/o.jpg", "categories": [{"alias": "coffee", "title": "Coffee & Tea"}, {"alias": "bars", "title": "Bars"}, {"alias": "breakfast_brunch", "title": "Breakfast & Brunch"}], "display_phone": "(347) 442-1410", "phone": "+13474421410", "id": "KGAF6jKzyQ9fDbtUm_iHWQ", "is_closed": false, "location": {"city": "Brooklyn", "display_address": ["38 Somers St", "Brooklyn, NY 11233"], "country": "US", "address2": "", "address3": null, "state": "NY", "address1": "38 Somers St", "zip_code": "11233"}}, {"rating": 4.0, "review_count": 1, "name": "Galapagos Enterprises", "transactions": [], "url": "https://www.yelp.com/biz/galapagos-enterprises-brooklyn-2?adjust_creative=yhLoLzsNXKw40xZ5RCWPpA&utm_campaign=yelp_api_v3&utm_medium=api_v3_business_search&utm_source=yhLoLzsNXKw40xZ5RCWPpA", "distance": 3250.3027985819895, "coordinates": {"latitude": 40.66909, "longitude": -73.91565}, "alias": "galapagos-enterprises-brooklyn-2", "image_url": "", "categories": [{"alias": "bars", "title": "Bars"}], "display_phone": "", "phone": "", "id": "ymuU7LLinVQe8SloLe4zVg", "is_closed": false, "location": {"city": "Brooklyn", "display_address": ["1567 Pitkin Ave", "Brooklyn, NY 11212"], "country": "US", "address2": "", "address3": "", "state": "NY", "address1": "1567 Pitkin Ave", "zip_code": "11212"}}, {"rating": 4.0, "review_count": 62, "name": "Nebu Hookah Lounge", "transactions": [], "url": "https://www.yelp.com/biz/nebu-hookah-lounge-woodhaven-2?adjust_creative=yhLoLzsNXKw40xZ5RCWPpA&utm_campaign=yelp_api_v3&utm_medium=api_v3_business_search&utm_source=yhLoLzsNXKw40xZ5RCWPpA", "price": "$", "distance": 3256.6111850098714, "coordinates": {"latitude": 40.6918178272484, "longitude": -73.8621319375113}, "alias": "nebu-hookah-lounge-woodhaven-2", "image_url": "https://s3-media1.fl.yelpcdn.com/bphoto/bqeSXG2YsXIlLLGEvTbPcQ/o.jpg", "categories": [{"alias": "hookah_bars", "title": "Hookah Bars"}, {"alias": "lounges", "title": "Lounges"}, {"alias": "champagne_bars", "title": "Champagne Bars"}], "display_phone": "(347) 881-7700", "phone": "+13478817700", "id": "kPxKFGOyHohpuBloIBgPmQ", "is_closed": false, "location": {"city": "Woodhaven", "display_address": ["86-72 80th St", "Woodhaven, NY 11421"], "country": "US", "address2": null, "address3": "", "state": "NY", "address1": "86-72 80th St", "zip_code": "11421"}}, {"rating": 5.0, "review_count": 1, "name": "96 south park", "transactions": [], "url": "https://www.yelp.com/biz/96-south-park-jamaica?adjust_creative=yhLoLzsNXKw40xZ5RCWPpA&utm_campaign=yelp_api_v3&utm_medium=api_v3_business_search&utm_source=yhLoLzsNXKw40xZ5RCWPpA", "price": "$$", "distance": 3342.8834612550045, "coordinates": {"latitude": 40.6736984, "longitude": -73.839592}, "alias": "96-south-park-jamaica", "image_url": "https://s3-media4.fl.yelpcdn.com/bphoto/3T4kiHWJhTFrp1zIIlHIcg/o.jpg", "categories": [{"alias": "bars", "title": "Bars"}], "display_phone": "", "phone": "", "id": "ZE8c4aNdJwDWEMhn_-bZYA", "is_closed": false, "location": {"city": "Jamaica", "display_address": ["96-30 Linden Blvd", "Jamaica, NY 11417"], "country": "US", "address2": "", "address3": "", "state": "NY", "address1": "96-30 Linden Blvd", "zip_code": "11417"}}, {"rating": 4.0, "review_count": 28, "name": "Hookah On the Bay", "transactions": [], "url": "https://www.yelp.com/biz/hookah-on-the-bay-howard-beach?adjust_creative=yhLoLzsNXKw40xZ5RCWPpA&utm_campaign=yelp_api_v3&utm_medium=api_v3_business_search&utm_source=yhLoLzsNXKw40xZ5RCWPpA", "price": "$$", "distance": 3409.190091170421, "coordinates": {"latitude": 40.6551364957032, "longitude": -73.8392429660078}, "alias": "hookah-on-the-bay-howard-beach", "image_url": "https://s3-media1.fl.yelpcdn.com/bphoto/erCjT0WwM9geMFo3XM5NYw/o.jpg", "categories": [{"alias": "hookah_bars", "title": "Hookah Bars"}, {"alias": "lounges", "title": "Lounges"}], "display_phone": "(347) 248-3810", "phone": "+13472483810", "id": "ikr6bPVtbbuXeky86dsIVw", "is_closed": false, "location": {"city": "Howard Beach", "display_address": ["161-08 Cross Bay Blvd", "Howard Beach, NY 11414"], "country": "US", "address2": "", "address3": "", "state": "NY", "address1": "161-08 Cross Bay Blvd", "zip_code": "11414"}}, {"rating": 1.5, "review_count": 3, "name": "Jim Byrne's Wee Pub", "transactions": [], "url": "https://www.yelp.com/biz/jim-byrnes-wee-pub-new-york?adjust_creative=yhLoLzsNXKw40xZ5RCWPpA&utm_campaign=yelp_api_v3&utm_medium=api_v3_business_search&utm_source=yhLoLzsNXKw40xZ5RCWPpA", "distance": 3418.386787155961, "coordinates": {"latitude": 40.686779, "longitude": -73.848954}, "alias": "jim-byrnes-wee-pub-new-york", "image_url": "https://s3-media2.fl.yelpcdn.com/bphoto/Djc_gApFvEwM2rCLypFofw/o.jpg", "categories": [{"alias": "divebars", "title": "Dive Bars"}], "display_phone": "(718) 845-9892", "phone": "+17188459892", "id": "3_U0trUDiIz2bkhNwi6-MQ", "is_closed": false, "location": {"city": "New York", "display_address": ["9301 95th Ave", "New York, NY 11416"], "country": "US", "address2": "", "address3": "", "state": "NY", "address1": "9301 95th Ave", "zip_code": "11416"}}, {"rating": 4.0, "review_count": 257, "name": "Salud Bar & Grill", "transactions": [], "url": "https://www.yelp.com/biz/salud-bar-and-grill-brooklyn?adjust_creative=yhLoLzsNXKw40xZ5RCWPpA&utm_campaign=yelp_api_v3&utm_medium=api_v3_business_search&utm_source=yhLoLzsNXKw40xZ5RCWPpA", "price": "$$", "distance": 3444.406753810729, "coordinates": {"latitude": 40.6846559, "longitude": -73.9090595}, "alias": "salud-bar-and-grill-brooklyn", "image_url": "https://s3-media3.fl.yelpcdn.com/bphoto/bk3L-62oZN58G4h2SKkN8A/o.jpg", "categories": [{"alias": "latin", "title": "Latin American"}, {"alias": "beerbar", "title": "Beer Bar"}], "display_phone": "(347) 365-7257", "phone": "+13473657257", "id": "jhpeHVxJSmGdD61MTrKi7A", "is_closed": false, "location": {"city": "Brooklyn", "display_address": ["1413 Bushwick Ave", "Brooklyn, NY 11207"], "country": "US", "address2": "", "address3": "", "state": "NY", "address1": "1413 Bushwick Ave", "zip_code": "11207"}}, {"rating": 4.5, "review_count": 42, "name": "The Evergreen", "transactions": [], "url": "https://www.yelp.com/biz/the-evergreen-brooklyn?adjust_creative=yhLoLzsNXKw40xZ5RCWPpA&utm_campaign=yelp_api_v3&utm_medium=api_v3_business_search&utm_source=yhLoLzsNXKw40xZ5RCWPpA", "price": "$", "distance": 3486.302804637499, "coordinates": {"latitude": 40.686017, "longitude": -73.908236}, "alias": "the-evergreen-brooklyn", "image_url": "https://s3-media3.fl.yelpcdn.com/bphoto/-5QovbDLLpm2QVFDDgXYTg/o.jpg", "categories": [{"alias": "wine_bars", "title": "Wine Bars"}, {"alias": "beerbar", "title": "Beer Bar"}, {"alias": "cocktailbars", "title": "Cocktail Bars"}], "display_phone": "(718) 484-7399", "phone": "+17184847399", "id": "HsFv6pTnpIGya6Yf5ztn_g", "is_closed": false, "location": {"city": "Brooklyn", "display_address": ["109 Moffat St", "Brooklyn, NY 11207"], "country": "US", "address2": null, "address3": "", "state": "NY", "address1": "109 Moffat St", "zip_code": "11207"}}, {"rating": 3.0, "review_count": 2, "name": "Port O'call", "transactions": [], "url": "https://www.yelp.com/biz/port-o-call-woodhaven?adjust_creative=yhLoLzsNXKw40xZ5RCWPpA&utm_campaign=yelp_api_v3&utm_medium=api_v3_business_search&utm_source=yhLoLzsNXKw40xZ5RCWPpA", "price": "$$$$", "distance": 3526.4175843647363, "coordinates": {"latitude": 40.688182, "longitude": -73.849464}, "alias": "port-o-call-woodhaven", "image_url": "https://s3-media1.fl.yelpcdn.com/bphoto/O6civqpg4D-IiJL-XjjHkA/o.jpg", "categories": [{"alias": "bars", "title": "Bars"}, {"alias": "danceclubs", "title": "Dance Clubs"}], "display_phone": "(718) 846-9717", "phone": "+17188469717", "id": "q9mLtTEPh-frBkdwbr_NiQ", "is_closed": false, "location": {"city": "Woodhaven", "display_address": ["9310 Woodhaven Blvd", "Woodhaven, NY 11421"], "country": "US", "address2": "", "address3": "", "state": "NY", "address1": "9310 Woodhaven Blvd", "zip_code": "11421"}}, {"rating": 4.5, "review_count": 3, "name": "The Quiet Man", "transactions": [], "url": "https://www.yelp.com/biz/the-quiet-man-ozone-park?adjust_creative=yhLoLzsNXKw40xZ5RCWPpA&utm_campaign=yelp_api_v3&utm_medium=api_v3_business_search&utm_source=yhLoLzsNXKw40xZ5RCWPpA", "price": "$", "distance": 3534.646163721865, "coordinates": {"latitude": 40.68483, "longitude": -73.84479}, "alias": "the-quiet-man-ozone-park", "image_url": "https://s3-media2.fl.yelpcdn.com/bphoto/ZbeLAvp6e25RJeeMpuIbXw/o.jpg", "categories": [{"alias": "bars", "title": "Bars"}], "display_phone": "(917) 834-2687", "phone": "+19178342687", "id": "gUYh5p3pU17S8kuXYD0CBg", "is_closed": false, "location": {"city": "Ozone Park", "display_address": ["9603 101st Ave", "Ozone Park, NY 11416"], "country": "US", "address2": "", "address3": "", "state": "NY", "address1": "9603 101st Ave", "zip_code": "11416"}}, {"rating": 5.0, "review_count": 1, "name": "Rakit Club", "transactions": [], "url": "https://www.yelp.com/biz/rakit-club-brooklyn?adjust_creative=yhLoLzsNXKw40xZ5RCWPpA&utm_campaign=yelp_api_v3&utm_medium=api_v3_business_search&utm_source=yhLoLzsNXKw40xZ5RCWPpA", "price": "$$", "distance": 3619.3528590276987, "coordinates": {"latitude": 40.69105, "longitude": -73.90282}, "alias": "rakit-club-brooklyn", "image_url": "https://s3-media1.fl.yelpcdn.com/bphoto/vRhgooKOQutywnzp4I-iag/o.jpg", "categories": [{"alias": "musicvenues", "title": "Music Venues"}], "display_phone": "(917) 719-0364", "phone": "+19177190364", "id": "l5bWfwcFNhgxXHEkq-QqOw", "is_closed": false, "location": {"city": "Brooklyn", "display_address": ["338 Moffat St", "Unit L", "Brooklyn, NY 11237"], "country": "US", "address2": "Unit L", "address3": null, "state": "NY", "address1": "338 Moffat St", "zip_code": "11237"}}, {"rating": 1.0, "review_count": 1, "name": "Ooh La La Lounge", "transactions": [], "url": "https://www.yelp.com/biz/ooh-la-la-lounge-crown-heights?adjust_creative=yhLoLzsNXKw40xZ5RCWPpA&utm_campaign=yelp_api_v3&utm_medium=api_v3_business_search&utm_source=yhLoLzsNXKw40xZ5RCWPpA", "distance": 3690.206584782423, "coordinates": {"latitude": 40.6743542458684, "longitude": -73.9194931089878}, "alias": "ooh-la-la-lounge-crown-heights", "image_url": "", "categories": [{"alias": "lounges", "title": "Lounges"}], "display_phone": "(917) 400-8384", "phone": "+19174008384", "id": "kCEQLeFkFv9pFDprhviYlw", "is_closed": false, "location": {"city": "Crown Heights", "display_address": ["319 Howard Ave", "Crown Heights, NY 11233"], "country": "US", "address2": "", "address3": "", "state": "NY", "address1": "319 Howard Ave", "zip_code": "11233"}}, {"rating": 4.5, "review_count": 27, "name": "Anda Lucia Bar & Lounge", "transactions": [], "url": "https://www.yelp.com/biz/anda-lucia-bar-and-lounge-new-york?adjust_creative=yhLoLzsNXKw40xZ5RCWPpA&utm_campaign=yelp_api_v3&utm_medium=api_v3_business_search&utm_source=yhLoLzsNXKw40xZ5RCWPpA", "price": "$$", "distance": 3705.6100889244035, "coordinates": {"latitude": 40.68568, "longitude": -73.911933}, "alias": "anda-lucia-bar-and-lounge-new-york", "image_url": "https://s3-media3.fl.yelpcdn.com/bphoto/ljW9BVodn6HAbfjWPYrxDg/o.jpg", "categories": [{"alias": "italian", "title": "Italian"}, {"alias": "lounges", "title": "Lounges"}], "display_phone": "(347) 295-1655", "phone": "+13472951655", "id": "EdnuIsyyDI51N1723Vd1HQ", "is_closed": false, "location": {"city": "New York", "display_address": ["1336 Bushwick Ave", "New York, NY 11207"], "country": "US", "address2": "", "address3": "", "state": "NY", "address1": "1336 Bushwick Ave", "zip_code": "11207"}}, {"rating": 4.0, "review_count": 129, "name": "Nowadays", "transactions": [], "url": "https://www.yelp.com/biz/nowadays-ridgewood?adjust_creative=yhLoLzsNXKw40xZ5RCWPpA&utm_campaign=yelp_api_v3&utm_medium=api_v3_business_search&utm_source=yhLoLzsNXKw40xZ5RCWPpA", "price": "$$", "distance": 3715.4412603988258, "coordinates": {"latitude": 40.6930436149127, "longitude": -73.901419658197}, "alias": "nowadays-ridgewood", "image_url": "https://s3-media1.fl.yelpcdn.com/bphoto/0FD0Do7MzBPjOqVYNVJr7w/o.jpg", "categories": [{"alias": "bars", "title": "Bars"}, {"alias": "tradamerican", "title": "American (Traditional)"}], "display_phone": "(347) 523-8535", "phone": "+13475238535", "id": "_hNMRzm0QhR7I41plTbyXw", "is_closed": false, "location": {"city": "Ridgewood", "display_address": ["56-06 Cooper Ave", "Ridgewood, NY 11385"], "country": "US", "address2": "", "address3": "", "state": "NY", "address1": "56-06 Cooper Ave", "zip_code": "11385"}}, {"rating": 4.0, "review_count": 200, "name": "Father Knows Best", "transactions": [], "url": "https://www.yelp.com/biz/father-knows-best-brooklyn?adjust_creative=yhLoLzsNXKw40xZ5RCWPpA&utm_campaign=yelp_api_v3&utm_medium=api_v3_business_search&utm_source=yhLoLzsNXKw40xZ5RCWPpA", "price": "$$", "distance": 3744.571968879495, "coordinates": {"latitude": 40.6901735, "longitude": -73.9069755}, "alias": "father-knows-best-brooklyn", "image_url": "https://s3-media1.fl.yelpcdn.com/bphoto/aFjQ0dF_2Er-DqYlYimkDw/o.jpg", "categories": [{"alias": "bars", "title": "Bars"}, {"alias": "cafes", "title": "Cafes"}], "display_phone": "(718) 975-6840", "phone": "+17189756840", "id": "eN8Cmf0Vxucyg02NyP7mbw", "is_closed": false, "location": {"city": "Brooklyn", "display_address": ["611A Wilson Ave", "Brooklyn, NY 11207"], "country": "US", "address2": "", "address3": "", "state": "NY", "address1": "611A Wilson Ave", "zip_code": "11207"}}, {"rating": 4.0, "review_count": 230, "name": "Vetro Restaurant & Wine Bar", "transactions": [], "url": "https://www.yelp.com/biz/vetro-restaurant-and-wine-bar-howard-beach-2?adjust_creative=yhLoLzsNXKw40xZ5RCWPpA&utm_campaign=yelp_api_v3&utm_medium=api_v3_business_search&utm_source=yhLoLzsNXKw40xZ5RCWPpA", "price": "$$$", "distance": 3829.637403526137, "coordinates": {"latitude": 40.6494053, "longitude": -73.837026}, "alias": "vetro-restaurant-and-wine-bar-howard-beach-2", "image_url": "https://s3-media3.fl.yelpcdn.com/bphoto/CPNvCBVYr3poXtjQMGY5XA/o.jpg", "categories": [{"alias": "italian", "title": "Italian"}, {"alias": "lounges", "title": "Lounges"}], "display_phone": "(718) 843-8387", "phone": "+17188438387", "id": "L1gs262Sz476G9tOzuoJxg", "is_closed": false, "location": {"city": "Howard Beach", "display_address": ["164-49 Crossbay Blvd", "Howard Beach, NY 11414"], "country": "US", "address2": null, "address3": "", "state": "NY", "address1": "164-49 Crossbay Blvd", "zip_code": "11414"}}, {"rating": 3.5, "review_count": 2, "name": "Equestris Restaurant", "transactions": [], "url": "https://www.yelp.com/biz/equestris-restaurant-south-ozone-park?adjust_creative=yhLoLzsNXKw40xZ5RCWPpA&utm_campaign=yelp_api_v3&utm_medium=api_v3_business_search&utm_source=yhLoLzsNXKw40xZ5RCWPpA", "distance": 3850.4143148837543, "coordinates": {"latitude": 40.677987, "longitude": -73.8309196}, "alias": "equestris-restaurant-south-ozone-park", "image_url": "", "categories": [{"alias": "bars", "title": "Bars"}, {"alias": "buffets", "title": "Buffets"}], "display_phone": "(718) 641-4700", "phone": "+17186414700", "id": "XTtcYt55x_MamoMe1K4TBg", "is_closed": false, "location": {"city": "South Ozone Park", "display_address": ["110-00 Rockaway Blvd", "South Ozone Park, NY 11420"], "country": "US", "address2": "", "address3": "", "state": "NY", "address1": "110-00 Rockaway Blvd", "zip_code": "11420"}}, {"rating": 5.0, "review_count": 40, "name": "Bridge and Tunnel Brewery", "transactions": [], "url": "https://www.yelp.com/biz/bridge-and-tunnel-brewery-ridgewood?adjust_creative=yhLoLzsNXKw40xZ5RCWPpA&utm_campaign=yelp_api_v3&utm_medium=api_v3_business_search&utm_source=yhLoLzsNXKw40xZ5RCWPpA", "price": "$", "distance": 3856.1117827162675, "coordinates": {"latitude": 40.6935067, "longitude": -73.9030978}, "alias": "bridge-and-tunnel-brewery-ridgewood", "image_url": "https://s3-media1.fl.yelpcdn.com/bphoto/Ukql4oHqksbwGXPTXKqSAg/o.jpg", "categories": [{"alias": "breweries", "title": "Breweries"}, {"alias": "beerbar", "title": "Beer Bar"}], "display_phone": "(347) 392-8593", "phone": "+13473928593", "id": "7gH6Gcf8tnLlctw9kzKNHw", "is_closed": false, "location": {"city": "Ridgewood", "display_address": ["15-35 Decatur St", "Ridgewood, NY 11385"], "country": "US", "address2": "", "address3": "", "state": "NY", "address1": "15-35 Decatur St", "zip_code": "11385"}}, {"rating": 3.0, "review_count": 9, "name": "Pollos DoA Maria", "transactions": [], "url": "https://www.yelp.com/biz/pollos-doa-maria-woodhaven-2?adjust_creative=yhLoLzsNXKw40xZ5RCWPpA&utm_campaign=yelp_api_v3&utm_medium=api_v3_business_search&utm_source=yhLoLzsNXKw40xZ5RCWPpA", "distance": 3878.1384252400094, "coordinates": {"latitude": 40.6939041768748, "longitude": -73.8518443517742}, "alias": "pollos-doa-maria-woodhaven-2", "image_url": "https://s3-media3.fl.yelpcdn.com/bphoto/n9khRq0v6L3KyZbQFI_aaw/o.jpg", "categories": [{"alias": "bars", "title": "Bars"}, {"alias": "seafood", "title": "Seafood"}, {"alias": "colombian", "title": "Colombian"}], "display_phone": "(718) 805-4000", "phone": "+17188054000", "id": "f_dKEHbfTmGPjgu8tCiQ-Q", "is_closed": false, "location": {"city": "Woodhaven", "display_address": ["93-03 Jamaica Ave", "Woodhaven, NY 11421"], "country": "US", "address2": null, "address3": "", "state": "NY", "address1": "93-03 Jamaica Ave", "zip_code": "11421"}}, {"rating": 5.0, "review_count": 5, "name": "Tee Dee's Tavern", "transactions": [], "url": "https://www.yelp.com/biz/tee-dees-tavern-queens?adjust_creative=yhLoLzsNXKw40xZ5RCWPpA&utm_campaign=yelp_api_v3&utm_medium=api_v3_business_search&utm_source=yhLoLzsNXKw40xZ5RCWPpA", "price": "$", "distance": 3883.5998929075004, "coordinates": {"latitude": 40.6982827, "longitude": -73.8909624}, "alias": "tee-dees-tavern-queens", "image_url": "https://s3-media2.fl.yelpcdn.com/bphoto/SziPAnLcsQ5NwoGVMmr3Jg/o.jpg", "categories": [{"alias": "pubs", "title": "Pubs"}], "display_phone": "(718) 821-8229", "phone": "+17188218229", "id": "L_4WU4C-5fAHT7r5GbQbFQ", "is_closed": false, "location": {"city": "Queens", "display_address": ["6431 Cooper Ave", "Queens, NY 11385"], "country": "US", "address2": "", "address3": "", "state": "NY", "address1": "6431 Cooper Ave", "zip_code": "11385"}}, {"rating": 4.5, "review_count": 24, "name": "The Deep End", "transactions": ["delivery", "pickup"], "url": "https://www.yelp.com/biz/the-deep-end-queens?adjust_creative=yhLoLzsNXKw40xZ5RCWPpA&utm_campaign=yelp_api_v3&utm_medium=api_v3_business_search&utm_source=yhLoLzsNXKw40xZ5RCWPpA", "price": "$$", "distance": 3884.3419935061206, "coordinates": {"latitude": 40.6943930345841, "longitude": -73.902355909787}, "alias": "the-deep-end-queens", "image_url": "https://s3-media2.fl.yelpcdn.com/bphoto/FZTyUxG6iw1IFhsbxUVBMA/o.jpg", "categories": [{"alias": "bars", "title": "Bars"}, {"alias": "newamerican", "title": "American (New)"}, {"alias": "mexican", "title": "Mexican"}], "display_phone": "(347) 689-4996", "phone": "+13476894996", "id": "6oH3qLZrBEeSp35ols195g", "is_closed": false, "location": {"city": "Queens", "display_address": ["1080 Wyckoff Ave", "Queens, NY 11385"], "country": "US", "address2": null, "address3": "", "state": "NY", "address1": "1080 Wyckoff Ave", "zip_code": "11385"}}, {"rating": 4.0, "review_count": 4, "name": "H0l0", "transactions": [], "url": "https://www.yelp.com/biz/h0l0-ridgewood?adjust_creative=yhLoLzsNXKw40xZ5RCWPpA&utm_campaign=yelp_api_v3&utm_medium=api_v3_business_search&utm_source=yhLoLzsNXKw40xZ5RCWPpA", "distance": 3896.9982539036473, "coordinates": {"latitude": 40.6946336, "longitude": -73.9026863}, "alias": "h0l0-ridgewood", "image_url": "https://s3-media3.fl.yelpcdn.com/bphoto/Ai3VkTa74SrlJ5HuiZBHiw/o.jpg", "categories": [{"alias": "musicvenues", "title": "Music Venues"}], "display_phone": "", "phone": "", "id": "3sKwK3gAghzkNipoCDQ7_A", "is_closed": false, "location": {"city": "Ridgewood", "display_address": ["1090 Wyckoff Ave", "Ridgewood, NY 11385"], "country": "US", "address2": "", "address3": null, "state": "NY", "address1": "1090 Wyckoff Ave", "zip_code": "11385"}}, {"rating": 3.0, "review_count": 1, "name": "Lynx Lounge", "transactions": [], "url": "https://www.yelp.com/biz/lynx-lounge-queens?adjust_creative=yhLoLzsNXKw40xZ5RCWPpA&utm_campaign=yelp_api_v3&utm_medium=api_v3_business_search&utm_source=yhLoLzsNXKw40xZ5RCWPpA", "distance": 3942.6616901459456, "coordinates": {"latitude": 40.6822192382808, "longitude": -73.8366778939962}, "alias": "lynx-lounge-queens", "image_url": "https://s3-media3.fl.yelpcdn.com/bphoto/arIIu1VfYmiBSazppkMAqA/o.jpg", "categories": [{"alias": "lounges", "title": "Lounges"}], "display_phone": "", "phone": "", "id": "PMi2ofpcFajw0oxn6VDfrg", "is_closed": false, "location": {"city": "Queens", "display_address": ["10407 Liberty Ave", "Ozone Park", "Queens, NY 11417"], "country": "US", "address2": null, "address3": "Ozone Park", "state": "NY", "address1": "10407 Liberty Ave", "zip_code": "11417"}}, {"rating": 4.5, "review_count": 75, "name": "Heat Caribbean Kitchen & Lounge", "transactions": ["delivery", "pickup"], "url": "https://www.yelp.com/biz/heat-caribbean-kitchen-and-lounge-ozone-park?adjust_creative=yhLoLzsNXKw40xZ5RCWPpA&utm_campaign=yelp_api_v3&utm_medium=api_v3_business_search&utm_source=yhLoLzsNXKw40xZ5RCWPpA", "price": "$$", "distance": 3943.1459403214103, "coordinates": {"latitude": 40.68976, "longitude": -73.84408}, "alias": "heat-caribbean-kitchen-and-lounge-ozone-park", "image_url": "https://s3-media2.fl.yelpcdn.com/bphoto/MDXhYE1Ze7CWlXVoGP9M5w/o.jpg", "categories": [{"alias": "caribbean", "title": "Caribbean"}, {"alias": "lounges", "title": "Lounges"}, {"alias": "cocktailbars", "title": "Cocktail Bars"}], "display_phone": "(718) 847-7300", "phone": "+17188477300", "id": "fy3Ljo2DxiLJOdOY7vqvRA", "is_closed": false, "location": {"city": "Ozone Park", "display_address": ["100-05 Atlantic Ave", "Ozone Park, NY 11418"], "country": "US", "address2": null, "address3": "", "state": "NY", "address1": "100-05 Atlantic Ave", "zip_code": "11418"}}]}