{"region": {"center": {"latitude": 40.6156445623, "longitude": -73.9033284253}}, "total": 653, "businesses": [{"rating": 2.5, "review_count": 15, "name": "Funfest Family Entertainment", "transactions": [], "url": "https://www.yelp.com/biz/funfest-family-entertainment-brooklyn-2?adjust_creative=yhLoLzsNXKw40xZ5RCWPpA&utm_campaign=yelp_api_v3&utm_medium=api_v3_business_search&utm_source=yhLoLzsNXKw40xZ5RCWPpA", "price": "$", "distance": 881.1208799019233, "coordinates": {"latitude": 40.6133129, "longitude": -73.9122929}, "alias": "funfest-family-entertainment-brooklyn-2", "image_url": "https://s3-media2.fl.yelpcdn.com/bphoto/EuUzUMQEdvg3cbG7RIH3Ow/o.jpg", "categories": [{"alias": "sportsbars", "title": "Sports Bars"}, {"alias": "bowling", "title": "Bowling"}, {"alias": "eventplanning", "title": "Party & Event Planning"}], "display_phone": "(718) 763-6800", "phone": "+17187636800", "id": "F45PCUskJWuxwG60bgOd8w", "is_closed": false, "location": {"city": "Brooklyn", "display_address": ["6161 Strickland Ave", "Brooklyn, NY 11234"], "country": "US", "address2": null, "address3": null, "state": "NY", "address1": "6161 Strickland Ave", "zip_code": "11234"}}, {"rating": 4.5, "review_count": 6, "name": "Bill's Bar", "transactions": [], "url": "https://www.yelp.com/biz/bills-bar-brooklyn?adjust_creative=yhLoLzsNXKw40xZ5RCWPpA&utm_campaign=yelp_api_v3&utm_medium=api_v3_business_search&utm_source=yhLoLzsNXKw40xZ5RCWPpA", "price": "$", "distance": 1168.5606156634933, "coordinates": {"latitude": 40.6195392638414, "longitude": -73.916187286377}, "alias": "bills-bar-brooklyn", "image_url": "", "categories": [{"alias": "bars", "title": "Bars"}], "display_phone": "", "phone": "", "id": "eRerTyDX3BcgVMnf1RIlWg", "is_closed": false, "location": {"city": "Brooklyn", "display_address": ["6324 Ave N", "Brooklyn, NY 11234"], "country": "US", "address2": "", "address3": "", "state": "NY", "address1": "6324 Ave N", "zip_code": "11234"}}, {"rating": 4.0, "review_count": 38, "name": "Fontanas Pasta & Heros", "transactions": [], "url": "https://www.yelp.com/biz/fontanas-pasta-and-heros-new-york-2?adjust_creative=yhLoLzsNXKw40xZ5RCWPpA&utm_campaign=yelp_api_v3&utm_medium=api_v3_business_search&utm_source=yhLoLzsNXKw40xZ5RCWPpA", "price": "$$", "distance": 1312.3767307638757, "coordinates": {"latitude": 40.6206692162697, "longitude": -73.9173977165707}, "alias": "fontanas-pasta-and-heros-new-york-2", "image_url": "https://s3-media3.fl.yelpcdn.com/bphoto/l9D88_CQ5D-DaJz_fS11Ig/o.jpg", "categories": [{"alias": "italian", "title": "Italian"}, {"alias": "beerbar", "title": "Beer Bar"}, {"alias": "sandwiches", "title": "Sandwiches"}], "display_phone": "(718) 444-4300", "phone": "+17184444300", "id": "v0hkLLp0W7Hdi0NOhuXvGQ", "is_closed": false, "location": {"city": "New York", "display_address": ["2359 Ralph Ave", "New York, NY 11234"], "country": "US", "address2": "", "address3": "", "state": "NY", "address1": "2359 Ralph Ave", "zip_code": "11234"}}, {"rating": 4.5, "review_count": 24, "name": "Dolce Vita Restaurant & Bar", "transactions": [], "url": "https://www.yelp.com/biz/dolce-vita-restaurant-and-bar-brooklyn?adjust_creative=yhLoLzsNXKw40xZ5RCWPpA&utm_campaign=yelp_api_v3&utm_medium=api_v3_business_search&utm_source=yhLoLzsNXKw40xZ5RCWPpA", "price": "$$$", "distance": 1379.7366238625962, "coordinates": {"latitude": 40.619697, "longitude": -73.918792}, "alias": "dolce-vita-restaurant-and-bar-brooklyn", "image_url": "https://s3-media2.fl.yelpcdn.com/bphoto/675dsnxIuZqRH3yMk1CLKA/o.jpg", "categories": [{"alias": "bars", "title": "Bars"}, {"alias": "italian", "title": "Italian"}], "display_phone": "(718) 444-3537", "phone": "+17184443537", "id": "bH6kFlRLtfIo2dtjs1gJ8g", "is_closed": false, "location": {"city": "Brooklyn", "display_address": ["5811 Ave N", "Brooklyn, NY 11234"], "country": "US", "address2": null, "address3": "", "state": "NY", "address1": "5811 Ave N", "zip_code": "11234"}}, {"rating": 4.5, "review_count": 25, "name": "Bellyful", "transactions": ["delivery", "pickup"], "url": "https://www.yelp.com/biz/bellyful-brooklyn?adjust_creative=yhLoLzsNXKw40xZ5RCWPpA&utm_campaign=yelp_api_v3&utm_medium=api_v3_business_search&utm_source=yhLoLzsNXKw40xZ5RCWPpA", "distance": 2102.418518968102, "coordinates": {"latitude": 40.62037, "longitude": -73.927391}, "alias": "bellyful-brooklyn", "image_url": "https://s3-media1.fl.yelpcdn.com/bphoto/_X3I3-xvASH7tKp0f3Z8gA/o.jpg", "categories": [{"alias": "bars", "title": "Bars"}, {"alias": "caribbean", "title": "Caribbean"}], "display_phone": "(718) 304-4644", "phone": "+17183044644", "id": "SCoO6GaTZVluTzAsazH5Tg", "is_closed": false, "location": {"city": "Brooklyn", "display_address": ["2102 Utica Ave", "Brooklyn, NY 11234"], "country": "US", "address2": null, "address3": "", "state": "NY", "address1": "2102 Utica Ave", "zip_code": "11234"}}, {"rating": 5.0, "review_count": 1, "name": "Kache", "transactions": [], "url": "https://www.yelp.com/biz/kache-brooklyn-2?adjust_creative=yhLoLzsNXKw40xZ5RCWPpA&utm_campaign=yelp_api_v3&utm_medium=api_v3_business_search&utm_source=yhLoLzsNXKw40xZ5RCWPpA", "distance": 2297.65349473069, "coordinates": {"latitude": 40.61653, "longitude": -73.93043}, "alias": "kache-brooklyn-2", "image_url": "https://s3-media1.fl.yelpcdn.com/bphoto/gAe24jd-i4erXlGH_MF9VA/o.jpg", "categories": [{"alias": "lounges", "title": "Lounges"}], "display_phone": "", "phone": "", "id": "09U-eay0t0xjv9sgV39qIg", "is_closed": false, "location": {"city": "Brooklyn", "display_address": ["2192 Flatbush Ave", "Brooklyn, NY 11234"], "country": "US", "address2": null, "address3": "", "state": "NY", "address1": "2192 Flatbush Ave", "zip_code": "11234"}}, {"rating": 2.0, "review_count": 2, "name": "SIM Vintage Music Parlor", "transactions": [], "url": "https://www.yelp.com/biz/sim-vintage-music-parlor-marine-park?adjust_creative=yhLoLzsNXKw40xZ5RCWPpA&utm_campaign=yelp_api_v3&utm_medium=api_v3_business_search&utm_source=yhLoLzsNXKw40xZ5RCWPpA", "distance": 2339.7932863789424, "coordinates": {"latitude": 40.61685, "longitude": -73.931}, "alias": "sim-vintage-music-parlor-marine-park", "image_url": "https://s3-media2.fl.yelpcdn.com/bphoto/MVN2qFL3KCE334oXpIgapA/o.jpg", "categories": [{"alias": "lounges", "title": "Lounges"}, {"alias": "sportsbars", "title": "Sports Bars"}], "display_phone": "(718) 338-4707", "phone": "+17183384707", "id": "6GVDCy7ovrFFrpP8NlfAUQ", "is_closed": false, "location": {"city": "Marine Park", "display_address": ["2172 Flatbush Ave", "Marine Park, NY 11234"], "country": "US", "address2": "", "address3": "", "state": "NY", "address1": "2172 Flatbush Ave", "zip_code": "11234"}}, {"rating": 4.0, "review_count": 4, "name": "Legends Bar", "transactions": [], "url": "https://www.yelp.com/biz/legends-bar-brooklyn?adjust_creative=yhLoLzsNXKw40xZ5RCWPpA&utm_campaign=yelp_api_v3&utm_medium=api_v3_business_search&utm_source=yhLoLzsNXKw40xZ5RCWPpA", "price": "$", "distance": 2450.44577471864, "coordinates": {"latitude": 40.61794, "longitude": -73.9322}, "alias": "legends-bar-brooklyn", "image_url": "", "categories": [{"alias": "bars", "title": "Bars"}], "display_phone": "(347) 462-3572", "phone": "+13474623572", "id": "uuOQVq7ilBHF3puDwc30Xg", "is_closed": false, "location": {"city": "Brooklyn", "display_address": ["2128 Flatbush Ave", "Brooklyn, NY 11234"], "country": "US", "address2": null, "address3": "", "state": "NY", "address1": "2128 Flatbush Ave", "zip_code": "11234"}}, {"rating": 5.0, "review_count": 1, "name": "Mariners Inn", "transactions": [], "url": "https://www.yelp.com/biz/mariners-inn-brooklyn?adjust_creative=yhLoLzsNXKw40xZ5RCWPpA&utm_campaign=yelp_api_v3&utm_medium=api_v3_business_search&utm_source=yhLoLzsNXKw40xZ5RCWPpA", "price": "$", "distance": 2527.2317908415466, "coordinates": {"latitude": 40.609511, "longitude": -73.932163}, "alias": "mariners-inn-brooklyn", "image_url": "", "categories": [{"alias": "bars", "title": "Bars"}], "display_phone": "(718) 376-8058", "phone": "+17183768058", "id": "4Wv_cIRGpAutWoS69u1NGw", "is_closed": false, "location": {"city": "Brooklyn", "display_address": ["3501 Ave S", "Brooklyn, NY 11234"], "country": "US", "address2": "", "address3": "", "state": "NY", "address1": "3501 Ave S", "zip_code": "11234"}}, {"rating": 4.0, "review_count": 11, "name": "Bulls Eye Sports Pub", "transactions": [], "url": "https://www.yelp.com/biz/bulls-eye-sports-pub-brooklyn?adjust_creative=yhLoLzsNXKw40xZ5RCWPpA&utm_campaign=yelp_api_v3&utm_medium=api_v3_business_search&utm_source=yhLoLzsNXKw40xZ5RCWPpA", "price": "$", "distance": 2557.7722644217733, "coordinates": {"latitude": 40.61951, "longitude": -73.93322}, "alias": "bulls-eye-sports-pub-brooklyn", "image_url": "https://s3-media4.fl.yelpcdn.com/bphoto/DN-kP4pSOWoz8cdsjYoNMQ/o.jpg", "categories": [{"alias": "sportsbars", "title": "Sports Bars"}], "display_phone": "(718) 627-9408", "phone": "+17186279408", "id": "0ts6LQlnZYUhpMD0x6gA-g", "is_closed": false, "location": {"city": "Brooklyn", "display_address": ["2073 Flatbush Ave", "Brooklyn, NY 11234"], "country": "US", "address2": "", "address3": "", "state": "NY", "address1": "2073 Flatbush Ave", "zip_code": "11234"}}, {"rating": 3.5, "review_count": 58, "name": "3rd & 7", "transactions": [], "url": "https://www.yelp.com/biz/3rd-and-7-brooklyn?adjust_creative=yhLoLzsNXKw40xZ5RCWPpA&utm_campaign=yelp_api_v3&utm_medium=api_v3_business_search&utm_source=yhLoLzsNXKw40xZ5RCWPpA", "price": "$$", "distance": 2758.4484884362005, "coordinates": {"latitude": 40.61497, "longitude": -73.93606}, "alias": "3rd-and-7-brooklyn", "image_url": "https://s3-media3.fl.yelpcdn.com/bphoto/PvZJOoECJE4hmPlULNEOBQ/o.jpg", "categories": [{"alias": "sportsbars", "title": "Sports Bars"}, {"alias": "tradamerican", "title": "American (Traditional)"}], "display_phone": "(718) 336-6300", "phone": "+17183366300", "id": "enbGceHhbBWe4cgMSePd1g", "is_closed": false, "location": {"city": "Brooklyn", "display_address": ["3622 Quentin Rd", "Brooklyn, NY 11234"], "country": "US", "address2": "", "address3": "", "state": "NY", "address1": "3622 Quentin Rd", "zip_code": "11234"}}, {"rating": 3.0, "review_count": 43, "name": "Tracks Cafe", "transactions": [], "url": "https://www.yelp.com/biz/tracks-cafe-brooklyn?adjust_creative=yhLoLzsNXKw40xZ5RCWPpA&utm_campaign=yelp_api_v3&utm_medium=api_v3_business_search&utm_source=yhLoLzsNXKw40xZ5RCWPpA", "price": "$", "distance": 2936.101510696997, "coordinates": {"latitude": 40.638966, "longitude": -73.919644}, "alias": "tracks-cafe-brooklyn", "image_url": "https://s3-media2.fl.yelpcdn.com/bphoto/yZRaKdjfxpTEKXYeMbKqaw/o.jpg", "categories": [{"alias": "caribbean", "title": "Caribbean"}, {"alias": "lounges", "title": "Lounges"}, {"alias": "karaoke", "title": "Karaoke"}], "display_phone": "", "phone": "", "id": "E0OCTADk2NKIABVWjVMzoQ", "is_closed": false, "location": {"city": "Brooklyn", "display_address": ["1556 Ralph Ave", "Brooklyn, NY 11236"], "country": "US", "address2": "", "address3": "", "state": "NY", "address1": "1556 Ralph Ave", "zip_code": "11236"}}, {"rating": 4.0, "review_count": 30, "name": "The Gather Inn Again", "transactions": ["delivery", "pickup"], "url": "https://www.yelp.com/biz/the-gather-inn-again-brooklyn?adjust_creative=yhLoLzsNXKw40xZ5RCWPpA&utm_campaign=yelp_api_v3&utm_medium=api_v3_business_search&utm_source=yhLoLzsNXKw40xZ5RCWPpA", "price": "$$", "distance": 3140.41941334098, "coordinates": {"latitude": 40.5928247988916, "longitude": -73.9252458686653}, "alias": "the-gather-inn-again-brooklyn", "image_url": "https://s3-media1.fl.yelpcdn.com/bphoto/qLWUGXmf6pX53xBs-MN5MA/o.jpg", "categories": [{"alias": "newamerican", "title": "American (New)"}, {"alias": "pubs", "title": "Pubs"}, {"alias": "coffee", "title": "Coffee & Tea"}], "display_phone": "(718) 513-6245", "phone": "+17185136245", "id": "HUSbdxCau6rw1eIyYvdsHQ", "is_closed": false, "location": {"city": "Brooklyn", "display_address": ["2718 Gerritsen Ave", "Brooklyn, NY 11229"], "country": "US", "address2": "", "address3": "", "state": "NY", "address1": "2718 Gerritsen Ave", "zip_code": "11229"}}, {"rating": 4.5, "review_count": 2, "name": "Beach Bar", "transactions": [], "url": "https://www.yelp.com/biz/beach-bar-brooklyn-2?adjust_creative=yhLoLzsNXKw40xZ5RCWPpA&utm_campaign=yelp_api_v3&utm_medium=api_v3_business_search&utm_source=yhLoLzsNXKw40xZ5RCWPpA", "price": "$", "distance": 3152.660384961826, "coordinates": {"latitude": 40.592744, "longitude": -73.925346}, "alias": "beach-bar-brooklyn-2", "image_url": "https://s3-media1.fl.yelpcdn.com/bphoto/KPn3hLaTxyOQOz3kc-Eyww/o.jpg", "categories": [{"alias": "bars", "title": "Bars"}], "display_phone": "(347) 713-4117", "phone": "+13477134117", "id": "jUJwVMKnE9gzqhMizTz84Q", "is_closed": false, "location": {"city": "Brooklyn", "display_address": ["2722 Gerritsen Ave", "Brooklyn, NY 11229"], "country": "US", "address2": null, "address3": null, "state": "NY", "address1": "2722 Gerritsen Ave", "zip_code": "11229"}}, {"rating": 4.0, "review_count": 17, "name": "Halsey Bar And Grill", "transactions": [], "url": "https://www.yelp.com/biz/halsey-bar-and-grill-brooklyn?adjust_creative=yhLoLzsNXKw40xZ5RCWPpA&utm_campaign=yelp_api_v3&utm_medium=api_v3_business_search&utm_source=yhLoLzsNXKw40xZ5RCWPpA", "price": "$$", "distance": 3184.1113105724926, "coordinates": {"latitude": 40.6323818690394, "longitude": -73.933940719251}, "alias": "halsey-bar-and-grill-brooklyn", "image_url": "https://s3-media2.fl.yelpcdn.com/bphoto/CMO5nbogKCx2I0NeUYV4KQ/o.jpg", "categories": [{"alias": "cocktailbars", "title": "Cocktail Bars"}], "display_phone": "(347) 587-2688", "phone": "+13475872688", "id": "fD8eRYGUPQkxjFs9AUF6-w", "is_closed": false, "location": {"city": "Brooklyn", "display_address": ["4404 Avenue H", "Brooklyn, NY 11234"], "country": "US", "address2": "", "address3": null, "state": "NY", "address1": "4404 Avenue H", "zip_code": "11234"}}, {"rating": 2.5, "review_count": 165, "name": "Trelawni Place Seafood Bar and Grill", "transactions": ["pickup"], "url": "https://www.yelp.com/biz/trelawni-place-seafood-bar-and-grill-brooklyn?adjust_creative=yhLoLzsNXKw40xZ5RCWPpA&utm_campaign=yelp_api_v3&utm_medium=api_v3_business_search&utm_source=yhLoLzsNXKw40xZ5RCWPpA", "price": "$$", "distance": 3244.922674857985, "coordinates": {"latitude": 40.637241635688, "longitude": -73.9291869416641}, "alias": "trelawni-place-seafood-bar-and-grill-brooklyn", "image_url": "https://s3-media1.fl.yelpcdn.com/bphoto/-6c3kLMhtBTuiEKmNPibQg/o.jpg", "categories": [{"alias": "seafood", "title": "Seafood"}, {"alias": "caribbean", "title": "Caribbean"}, {"alias": "bars", "title": "Bars"}], "display_phone": "(347) 492-6100", "phone": "+13474926100", "id": "CKQmnahGJhVQAbNwNmdP2g", "is_closed": false, "location": {"city": "Brooklyn", "display_address": ["1440 Utica Ave", "Brooklyn, NY 11203"], "country": "US", "address2": "", "address3": "", "state": "NY", "address1": "1440 Utica Ave", "zip_code": "11203"}}, {"rating": 5.0, "review_count": 1, "name": "Tamaqua Bar & Marina", "transactions": [], "url": "https://www.yelp.com/biz/tamaqua-bar-and-marina-brooklyn?adjust_creative=yhLoLzsNXKw40xZ5RCWPpA&utm_campaign=yelp_api_v3&utm_medium=api_v3_business_search&utm_source=yhLoLzsNXKw40xZ5RCWPpA", "distance": 3267.431275850249, "coordinates": {"latitude": 40.5939674377441, "longitude": -73.9299163818359}, "alias": "tamaqua-bar-and-marina-brooklyn", "image_url": "https://s3-media1.fl.yelpcdn.com/bphoto/vSqdhFsK1pVRuq9J6eYZWQ/o.jpg", "categories": [{"alias": "bars", "title": "Bars"}, {"alias": "seafood", "title": "Seafood"}], "display_phone": "(718) 646-9212", "phone": "+17186469212", "id": "SCTIio8NX0WJVrKA-8DuXw", "is_closed": false, "location": {"city": "Brooklyn", "display_address": ["84 Ebony Ct", "Brooklyn, NY 11229"], "country": "US", "address2": "", "address3": "", "state": "NY", "address1": "84 Ebony Ct", "zip_code": "11229"}}, {"rating": 3.0, "review_count": 4, "name": "Bamboo tavern", "transactions": [], "url": "https://www.yelp.com/biz/bamboo-tavern-brooklyn?adjust_creative=yhLoLzsNXKw40xZ5RCWPpA&utm_campaign=yelp_api_v3&utm_medium=api_v3_business_search&utm_source=yhLoLzsNXKw40xZ5RCWPpA", "price": "$$", "distance": 3402.8112567995267, "coordinates": {"latitude": 40.6462, "longitude": -73.90368}, "alias": "bamboo-tavern-brooklyn", "image_url": "", "categories": [{"alias": "bars", "title": "Bars"}], "display_phone": "(646) 523-7149", "phone": "+16465237149", "id": "LrbOaAD8B9R5LJoKhRZVBg", "is_closed": false, "location": {"city": "Brooklyn", "display_address": ["1370 Rockaway Pkwy", "Brooklyn, NY 11236"], "country": "US", "address2": "", "address3": null, "state": "NY", "address1": "1370 Rockaway Pkwy", "zip_code": "11236"}}, {"rating": 5.0, "review_count": 1, "name": "Casa De Aces", "transactions": [], "url": "https://www.yelp.com/biz/casa-de-aces-kings?adjust_creative=yhLoLzsNXKw40xZ5RCWPpA&utm_campaign=yelp_api_v3&utm_medium=api_v3_business_search&utm_source=yhLoLzsNXKw40xZ5RCWPpA", "distance": 3473.633101370799, "coordinates": {"latitude": 40.6125016462776, "longitude": -73.944271905584}, "alias": "casa-de-aces-kings", "image_url": "https://s3-media1.fl.yelpcdn.com/bphoto/66oQmo8WmacqLothmUv2mg/o.jpg", "categories": [{"alias": "bars", "title": "Bars"}], "display_phone": "", "phone": "", "id": "e3BDfIcVJ4_F7MWUeNoF9Q", "is_closed": false, "location": {"city": "Kings", "display_address": ["Kings, NY"], "country": "US", "address2": "", "address3": "", "state": "NY", "address1": "", "zip_code": ""}}, {"rating": 3.0, "review_count": 4, "name": "Costello's Bar", "transactions": [], "url": "https://www.yelp.com/biz/costellos-bar-brooklyn?adjust_creative=yhLoLzsNXKw40xZ5RCWPpA&utm_campaign=yelp_api_v3&utm_medium=api_v3_business_search&utm_source=yhLoLzsNXKw40xZ5RCWPpA", "price": "$", "distance": 3487.2824451320816, "coordinates": {"latitude": 40.6102, "longitude": -73.9439}, "alias": "costellos-bar-brooklyn", "image_url": "https://s3-media2.fl.yelpcdn.com/bphoto/kT2nVrEDoqPoqtV2jysFyA/o.jpg", "categories": [{"alias": "bars", "title": "Bars"}], "display_phone": "(718) 377-9798", "phone": "+17183779798", "id": "HjbPuRESpwGK7vnl-Kb2OQ", "is_closed": false, "location": {"city": "Brooklyn", "display_address": ["3042 Nostrand Ave", "Brooklyn, NY 11229"], "country": "US", "address2": "", "address3": "", "state": "NY", "address1": "3042 Nostrand Ave", "zip_code": "11229"}}, {"rating": 3.5, "review_count": 109, "name": "Buckley's", "transactions": [], "url": "https://www.yelp.com/biz/buckleys-brooklyn?adjust_creative=yhLoLzsNXKw40xZ5RCWPpA&utm_campaign=yelp_api_v3&utm_medium=api_v3_business_search&utm_source=yhLoLzsNXKw40xZ5RCWPpA", "price": "$$", "distance": 3557.9848015699536, "coordinates": {"latitude": 40.60492, "longitude": -73.94308}, "alias": "buckleys-brooklyn", "image_url": "https://s3-media3.fl.yelpcdn.com/bphoto/1AhJwp74VX-KkoyrVqpH7w/o.jpg", "categories": [{"alias": "tradamerican", "title": "American (Traditional)"}, {"alias": "bars", "title": "Bars"}], "display_phone": "(718) 998-4222", "phone": "+17189984222", "id": "7O8RMiHmijSFFjB9FCBx2Q", "is_closed": false, "location": {"city": "Brooklyn", "display_address": ["2926 Ave S", "Brooklyn, NY 11229"], "country": "US", "address2": "", "address3": "", "state": "NY", "address1": "2926 Ave S", "zip_code": "11229"}}, {"rating": 3.5, "review_count": 8, "name": "BKLYN PRIME", "transactions": [], "url": "https://www.yelp.com/biz/bklyn-prime-brooklyn?adjust_creative=yhLoLzsNXKw40xZ5RCWPpA&utm_campaign=yelp_api_v3&utm_medium=api_v3_business_search&utm_source=yhLoLzsNXKw40xZ5RCWPpA", "price": "$$", "distance": 3588.370274831161, "coordinates": {"latitude": 40.6372199843608, "longitude": -73.9349479973316}, "alias": "bklyn-prime-brooklyn", "image_url": "https://s3-media4.fl.yelpcdn.com/bphoto/9dmq4VJ6NfmogMsiPfjAVA/o.jpg", "categories": [{"alias": "pubs", "title": "Pubs"}, {"alias": "sportsbars", "title": "Sports Bars"}], "display_phone": "(347) 627-5103", "phone": "+13476275103", "id": "n-Og71MQ6b5udctldzj14Q", "is_closed": false, "location": {"city": "Brooklyn", "display_address": ["4315 Farragut Rd", "Brooklyn, NY 11203"], "country": "US", "address2": "", "address3": null, "state": "NY", "address1": "4315 Farragut Rd", "zip_code": "11203"}}, {"rating": 2.0, "review_count": 38, "name": "Round 2 Cafe", "transactions": [], "url": "https://www.yelp.com/biz/round-2-cafe-brooklyn?adjust_creative=yhLoLzsNXKw40xZ5RCWPpA&utm_campaign=yelp_api_v3&utm_medium=api_v3_business_search&utm_source=yhLoLzsNXKw40xZ5RCWPpA", "price": "$$", "distance": 3845.0886569321615, "coordinates": {"latitude": 40.6440659, "longitude": -73.9292825}, "alias": "round-2-cafe-brooklyn", "image_url": "https://s3-media3.fl.yelpcdn.com/bphoto/qzp-ZUpU4cKRlE6KsgluEA/o.jpg", "categories": [{"alias": "caribbean", "title": "Caribbean"}, {"alias": "lounges", "title": "Lounges"}], "display_phone": "(347) 442-0825", "phone": "+13474420825", "id": "xKWPlU3M73xMxawWWq7Ndw", "is_closed": false, "location": {"city": "Brooklyn", "display_address": ["1165 Utica Ave", "Brooklyn, NY 11203"], "country": "US", "address2": "", "address3": null, "state": "NY", "address1": "1165 Utica Ave", "zip_code": "11203"}}, {"rating": 2.0, "review_count": 134, "name": "Applebee's Grill + Bar", "transactions": [], "url": "https://www.yelp.com/biz/applebees-grill-bar-brooklyn-6?adjust_creative=yhLoLzsNXKw40xZ5RCWPpA&utm_campaign=yelp_api_v3&utm_medium=api_v3_business_search&utm_source=yhLoLzsNXKw40xZ5RCWPpA", "price": "$$", "distance": 4107.766113101052, "coordinates": {"latitude": 40.63133, "longitude": -73.947395}, "alias": "applebees-grill-bar-brooklyn-6", "image_url": "https://s3-media3.fl.yelpcdn.com/bphoto/tKRwT7c1qMXKNQR3Fc3jbQ/o.jpg", "categories": [{"alias": "tradamerican", "title": "American (Traditional)"}, {"alias": "sportsbars", "title": "Sports Bars"}, {"alias": "burgers", "title": "Burgers"}], "display_phone": "(347) 505-3300", "phone": "+13475053300", "id": "8WfatOyG52EeoplgjFoKSQ", "is_closed": false, "location": {"city": "Brooklyn", "display_address": ["2201 Nostrand Ave", "Brooklyn, NY 11210"], "country": "US", "address2": "", "address3": "", "state": "NY", "address1": "2201 Nostrand Ave", "zip_code": "11210"}}, {"rating": 3.5, "review_count": 98, "name": "La Vue", "transactions": [], "url": "https://www.yelp.com/biz/la-vue-brooklyn?adjust_creative=yhLoLzsNXKw40xZ5RCWPpA&utm_campaign=yelp_api_v3&utm_medium=api_v3_business_search&utm_source=yhLoLzsNXKw40xZ5RCWPpA", "price": "$$$$", "distance": 4317.963629639296, "coordinates": {"latitude": 40.58395, "longitude": -73.93277}, "alias": "la-vue-brooklyn", "image_url": "https://s3-media1.fl.yelpcdn.com/bphoto/ZikUjD1a9oIsmyQ6-s_UwA/o.jpg", "categories": [{"alias": "lounges", "title": "Lounges"}, {"alias": "french", "title": "French"}, {"alias": "venues", "title": "Venues & Event Spaces"}], "display_phone": "(718) 513-6004", "phone": "+17185136004", "id": "4pNgTzw8Ru4bW7hXAeO6eA", "is_closed": false, "location": {"city": "Brooklyn", "display_address": ["3202 Emmons Ave", "Brooklyn, NY 11235"], "country": "US", "address2": null, "address3": "", "state": "NY", "address1": "3202 Emmons Ave", "zip_code": "11235"}}, {"rating": 3.5, "review_count": 31, "name": "Priv\u00e9 Bklyn Lounge", "transactions": [], "url": "https://www.yelp.com/biz/priv%C3%A9-bklyn-lounge-brooklyn-2?adjust_creative=yhLoLzsNXKw40xZ5RCWPpA&utm_campaign=yelp_api_v3&utm_medium=api_v3_business_search&utm_source=yhLoLzsNXKw40xZ5RCWPpA", "price": "$$$", "distance": 4515.801615250562, "coordinates": {"latitude": 40.6350026, "longitude": -73.9503665}, "alias": "priv\u00e9-bklyn-lounge-brooklyn-2", "image_url": "https://s3-media4.fl.yelpcdn.com/bphoto/5a2WYCHEzFGDG5xhP15GNQ/o.jpg", "categories": [{"alias": "lounges", "title": "Lounges"}, {"alias": "asianfusion", "title": "Asian Fusion"}], "display_phone": "(347) 425-7546", "phone": "+13474257546", "id": "ql3DTdRvH1EjnOv2pcGU8w", "is_closed": false, "location": {"city": "Brooklyn", "display_address": ["1460 A Flatbush Ave", "Brooklyn, NY 11210"], "country": "US", "address2": "", "address3": null, "state": "NY", "address1": "1460 A Flatbush Ave", "zip_code": "11210"}}, {"rating": 3.0, "review_count": 55, "name": "Cafe Tabu", "transactions": [], "url": "https://www.yelp.com/biz/cafe-tabu-brooklyn?adjust_creative=yhLoLzsNXKw40xZ5RCWPpA&utm_campaign=yelp_api_v3&utm_medium=api_v3_business_search&utm_source=yhLoLzsNXKw40xZ5RCWPpA", "price": "$$$", "distance": 4519.2487093302025, "coordinates": {"latitude": 40.59325, "longitude": -73.94795}, "alias": "cafe-tabu-brooklyn", "image_url": "https://s3-media1.fl.yelpcdn.com/bphoto/iNrHpUzNHK6Ygd0SlG21OA/o.jpg", "categories": [{"alias": "hookah_bars", "title": "Hookah Bars"}, {"alias": "cocktailbars", "title": "Cocktail Bars"}, {"alias": "lounges", "title": "Lounges"}], "display_phone": "(718) 934-0177", "phone": "+17189340177", "id": "yCirollWTa6vns7wmlxwXg", "is_closed": false, "location": {"city": "Brooklyn", "display_address": ["2205 Ave X", "Brooklyn, NY 11235"], "country": "US", "address2": "", "address3": "", "state": "NY", "address1": "2205 Ave X", "zip_code": "11235"}}, {"rating": 4.5, "review_count": 17, "name": "Zamaan", "transactions": [], "url": "https://www.yelp.com/biz/zamaan-brooklyn?adjust_creative=yhLoLzsNXKw40xZ5RCWPpA&utm_campaign=yelp_api_v3&utm_medium=api_v3_business_search&utm_source=yhLoLzsNXKw40xZ5RCWPpA", "price": "$", "distance": 4545.878459072459, "coordinates": {"latitude": 40.5927499766836, "longitude": -73.9479399472475}, "alias": "zamaan-brooklyn", "image_url": "https://s3-media3.fl.yelpcdn.com/bphoto/gCvFWqLZCNlII4GQWlpfLw/o.jpg", "categories": [{"alias": "hookah_bars", "title": "Hookah Bars"}, {"alias": "mideastern", "title": "Middle Eastern"}], "display_phone": "(718) 600-4300", "phone": "+17186004300", "id": "-dILzdbETB5vFhd4uHn1lg", "is_closed": false, "location": {"city": "Brooklyn", "display_address": ["2204 Ave X", "Brooklyn, NY 11235"], "country": "US", "address2": "", "address3": null, "state": "NY", "address1": "2204 Ave X", "zip_code": "11235"}}, {"rating": 2.5, "review_count": 31, "name": "Estelle Cafe Lounge", "transactions": [], "url": "https://www.yelp.com/biz/estelle-cafe-lounge-brooklyn-2?adjust_creative=yhLoLzsNXKw40xZ5RCWPpA&utm_campaign=yelp_api_v3&utm_medium=api_v3_business_search&utm_source=yhLoLzsNXKw40xZ5RCWPpA", "price": "$$", "distance": 4563.74446360602, "coordinates": {"latitude": 40.59912, "longitude": -73.95274}, "alias": "estelle-cafe-lounge-brooklyn-2", "image_url": "https://s3-media1.fl.yelpcdn.com/bphoto/kD3heyB-gJ20A_bqIuObeg/o.jpg", "categories": [{"alias": "lounges", "title": "Lounges"}, {"alias": "hookah_bars", "title": "Hookah Bars"}, {"alias": "karaoke", "title": "Karaoke"}], "display_phone": "(718) 769-2100", "phone": "+17187692100", "id": "8h5HzKRvnmacOR7dxvXmJQ", "is_closed": false, "location": {"city": "Brooklyn", "display_address": ["1824 Ave U", "Brooklyn, NY 11229"], "country": "US", "address2": "", "address3": "", "state": "NY", "address1": "1824 Ave U", "zip_code": "11229"}}, {"rating": 3.5, "review_count": 89, "name": "Sip N Chat Cocktail Lounge", "transactions": [], "url": "https://www.yelp.com/biz/sip-n-chat-cocktail-lounge-brooklyn?adjust_creative=yhLoLzsNXKw40xZ5RCWPpA&utm_campaign=yelp_api_v3&utm_medium=api_v3_business_search&utm_source=yhLoLzsNXKw40xZ5RCWPpA", "price": "$$", "distance": 4777.14316074925, "coordinates": {"latitude": 40.64079, "longitude": -73.94924}, "alias": "sip-n-chat-cocktail-lounge-brooklyn", "image_url": "https://s3-media2.fl.yelpcdn.com/bphoto/yW-yqNfMzk0l00otvRnhzA/o.jpg", "categories": [{"alias": "caribbean", "title": "Caribbean"}, {"alias": "cocktailbars", "title": "Cocktail Bars"}, {"alias": "tradamerican", "title": "American (Traditional)"}], "display_phone": "(866) 652-9789", "phone": "+18666529789", "id": "paPANd487kHvfwi6ifp3tg", "is_closed": false, "location": {"city": "Brooklyn", "display_address": ["2910 Avenue D", "Brooklyn, NY 11226"], "country": "US", "address2": "", "address3": "", "state": "NY", "address1": "2910 Avenue D", "zip_code": "11226"}}, {"rating": 3.5, "review_count": 15, "name": "Tonel Restaurant & Lounge", "transactions": [], "url": "https://www.yelp.com/biz/tonel-restaurant-and-lounge-brooklyn?adjust_creative=yhLoLzsNXKw40xZ5RCWPpA&utm_campaign=yelp_api_v3&utm_medium=api_v3_business_search&utm_source=yhLoLzsNXKw40xZ5RCWPpA", "price": "$$", "distance": 4874.685508265517, "coordinates": {"latitude": 40.639714, "longitude": -73.951606}, "alias": "tonel-restaurant-and-lounge-brooklyn", "image_url": "https://s3-media1.fl.yelpcdn.com/bphoto/qA44Ow0q0U87iK1vOBVFhQ/o.jpg", "categories": [{"alias": "haitian", "title": "Haitian"}, {"alias": "lounges", "title": "Lounges"}], "display_phone": "(718) 708-5402", "phone": "+17187085402", "id": "d-zwQhcA0SiceSXVdCumdw", "is_closed": false, "location": {"city": "Brooklyn", "display_address": ["1236 Rogers Ave", "Brooklyn, NY 11226"], "country": "US", "address2": "", "address3": "", "state": "NY", "address1": "1236 Rogers Ave", "zip_code": "11226"}}, {"rating": 2.5, "review_count": 181, "name": "Applebee's Grill + Bar", "transactions": [], "url": "https://www.yelp.com/biz/applebees-grill-bar-brooklyn-7?adjust_creative=yhLoLzsNXKw40xZ5RCWPpA&utm_campaign=yelp_api_v3&utm_medium=api_v3_business_search&utm_source=yhLoLzsNXKw40xZ5RCWPpA", "price": "$$", "distance": 4877.229598117719, "coordinates": {"latitude": 40.583966, "longitude": -73.943284}, "alias": "applebees-grill-bar-brooklyn-7", "image_url": "https://s3-media1.fl.yelpcdn.com/bphoto/qjvQNSZuAAzNeszldIfQKA/o.jpg", "categories": [{"alias": "tradamerican", "title": "American (Traditional)"}, {"alias": "sportsbars", "title": "Sports Bars"}, {"alias": "burgers", "title": "Burgers"}], "display_phone": "(718) 769-4889", "phone": "+17187694889", "id": "44ke2pcmgaBRXsh__ESVzA", "is_closed": false, "location": {"city": "Brooklyn", "display_address": ["2505 Emmons Ave", "Brooklyn, NY 11235"], "country": "US", "address2": "", "address3": "", "state": "NY", "address1": "2505 Emmons Ave", "zip_code": "11235"}}, {"rating": 4.0, "review_count": 101, "name": "Anyway Cafe", "transactions": [], "url": "https://www.yelp.com/biz/anyway-cafe-brooklyn?adjust_creative=yhLoLzsNXKw40xZ5RCWPpA&utm_campaign=yelp_api_v3&utm_medium=api_v3_business_search&utm_source=yhLoLzsNXKw40xZ5RCWPpA", "price": "$$", "distance": 4899.85167516218, "coordinates": {"latitude": 40.59502, "longitude": -73.95444}, "alias": "anyway-cafe-brooklyn", "image_url": "https://s3-media2.fl.yelpcdn.com/bphoto/PPvj-Co4VlR5kne7Jwenew/o.jpg", "categories": [{"alias": "lounges", "title": "Lounges"}], "display_phone": "(718) 934-5988", "phone": "+17189345988", "id": "vlbcANpA_kT3nFsa6971Zg", "is_closed": false, "location": {"city": "Brooklyn", "display_address": ["1602 Gravesend Neck Rd", "Brooklyn, NY 11229"], "country": "US", "address2": "", "address3": "", "state": "NY", "address1": "1602 Gravesend Neck Rd", "zip_code": "11229"}}, {"rating": 3.5, "review_count": 10, "name": "1744 Hookah Lounge", "transactions": [], "url": "https://www.yelp.com/biz/1744-hookah-lounge-brooklyn?adjust_creative=yhLoLzsNXKw40xZ5RCWPpA&utm_campaign=yelp_api_v3&utm_medium=api_v3_business_search&utm_source=yhLoLzsNXKw40xZ5RCWPpA", "price": "$$", "distance": 4936.95154309934, "coordinates": {"latitude": 40.6434006, "longitude": -73.9489415}, "alias": "1744-hookah-lounge-brooklyn", "image_url": "https://s3-media4.fl.yelpcdn.com/bphoto/wu6tQ4p5GAaz5GlAyOVhTQ/o.jpg", "categories": [{"alias": "hookah_bars", "title": "Hookah Bars"}, {"alias": "juicebars", "title": "Juice Bars & Smoothies"}], "display_phone": "(718) 484-8822", "phone": "+17184848822", "id": "GcikkIgAhzwYU3hhYPNJmQ", "is_closed": false, "location": {"city": "Brooklyn", "display_address": ["1744 Nostrand Ave", "Brooklyn, NY 11226"], "country": "US", "address2": "", "address3": null, "state": "NY", "address1": "1744 Nostrand Ave", "zip_code": "11226"}}, {"rating": 3.0, "review_count": 135, "name": "Emmons Palace", "transactions": ["pickup"], "url": "https://www.yelp.com/biz/emmons-palace-brooklyn?adjust_creative=yhLoLzsNXKw40xZ5RCWPpA&utm_campaign=yelp_api_v3&utm_medium=api_v3_business_search&utm_source=yhLoLzsNXKw40xZ5RCWPpA", "price": "$$", "distance": 4937.086642579658, "coordinates": {"latitude": 40.58393, "longitude": -73.94427}, "alias": "emmons-palace-brooklyn", "image_url": "https://s3-media3.fl.yelpcdn.com/bphoto/z-ku8mGhNhe7wy1fcYQQLA/o.jpg", "categories": [{"alias": "desserts", "title": "Desserts"}, {"alias": "bars", "title": "Bars"}, {"alias": "newamerican", "title": "American (New)"}], "display_phone": "(718) 616-1272", "phone": "+17186161272", "id": "LvjjUEovF5l7g4Lxw3GgTA", "is_closed": false, "location": {"city": "Brooklyn", "display_address": ["2265 Emmons Ave", "Brooklyn, NY 11235"], "country": "US", "address2": "", "address3": "", "state": "NY", "address1": "2265 Emmons Ave", "zip_code": "11235"}}, {"rating": 1.5, "review_count": 245, "name": "Applebee's Grill + Bar", "transactions": [], "url": "https://www.yelp.com/biz/applebees-grill-bar-brooklyn-4?adjust_creative=yhLoLzsNXKw40xZ5RCWPpA&utm_campaign=yelp_api_v3&utm_medium=api_v3_business_search&utm_source=yhLoLzsNXKw40xZ5RCWPpA", "price": "$$", "distance": 4959.109864200961, "coordinates": {"latitude": 40.6539397067806, "longitude": -73.8732072527008}, "alias": "applebees-grill-bar-brooklyn-4", "image_url": "https://s3-media3.fl.yelpcdn.com/bphoto/lOdcdr3mbEXIL7L_5U_YYQ/o.jpg", "categories": [{"alias": "tradamerican", "title": "American (Traditional)"}, {"alias": "sportsbars", "title": "Sports Bars"}, {"alias": "burgers", "title": "Burgers"}], "display_phone": "(718) 827-2527", "phone": "+17188272527", "id": "DbgNpmzjkU_l56a0uumw8Q", "is_closed": false, "location": {"city": "Brooklyn", "display_address": ["448 Gateway Dr", "Building M", "Brooklyn, NY 11239"], "country": "US", "address2": "Building M", "address3": "", "state": "NY", "address1": "448 Gateway Dr", "zip_code": "11239"}}, {"rating": 3.5, "review_count": 28, "name": "Draft Barn", "transactions": [], "url": "https://www.yelp.com/biz/draft-barn-brooklyn-4?adjust_creative=yhLoLzsNXKw40xZ5RCWPpA&utm_campaign=yelp_api_v3&utm_medium=api_v3_business_search&utm_source=yhLoLzsNXKw40xZ5RCWPpA", "price": "$$", "distance": 4965.308100063611, "coordinates": {"latitude": 40.58437, "longitude": -73.9453}, "alias": "draft-barn-brooklyn-4", "image_url": "https://s3-media2.fl.yelpcdn.com/bphoto/Yp7_tl9ebdqOGPU3510ZPQ/o.jpg", "categories": [{"alias": "tradamerican", "title": "American (Traditional)"}, {"alias": "sportsbars", "title": "Sports Bars"}, {"alias": "beerbar", "title": "Beer Bar"}], "display_phone": "(718) 676-2727", "phone": "+17186762727", "id": "YaSK_pAznqyDImTZLWuErw", "is_closed": false, "location": {"city": "Brooklyn", "display_address": ["28 Dooley St", "Brooklyn, NY 11235"], "country": "US", "address2": "", "address3": "", "state": "NY", "address1": "28 Dooley St", "zip_code": "11235"}}, {"rating": 4.0, "review_count": 6, "name": "Reazon Cafe & Lounge", "transactions": ["delivery", "pickup"], "url": "https://www.yelp.com/biz/reazon-cafe-and-lounge-brooklyn?adjust_creative=yhLoLzsNXKw40xZ5RCWPpA&utm_campaign=yelp_api_v3&utm_medium=api_v3_business_search&utm_source=yhLoLzsNXKw40xZ5RCWPpA", "distance": 5004.215318683487, "coordinates": {"latitude": 40.6110746, "longitude": -73.9623065}, "alias": "reazon-cafe-and-lounge-brooklyn", "image_url": "https://s3-media4.fl.yelpcdn.com/bphoto/1UYIJK4dZ3QGliAMYVQzGQ/o.jpg", "categories": [{"alias": "hookah_bars", "title": "Hookah Bars"}, {"alias": "tradamerican", "title": "American (Traditional)"}], "display_phone": "(860) 367-2282", "phone": "+18603672282", "id": "MMewsMbQBtbj1RYVEKE6EQ", "is_closed": false, "location": {"city": "Brooklyn", "display_address": ["1897 Coney Island Ave", "Brooklyn, NY 11230"], "country": "US", "address2": null, "address3": "", "state": "NY", "address1": "1897 Coney Island Ave", "zip_code": "11230"}}, {"rating": 3.0, "review_count": 2, "name": "Koyla Trilogy", "transactions": [], "url": "https://www.yelp.com/biz/koyla-trilogy-brooklyn?adjust_creative=yhLoLzsNXKw40xZ5RCWPpA&utm_campaign=yelp_api_v3&utm_medium=api_v3_business_search&utm_source=yhLoLzsNXKw40xZ5RCWPpA", "distance": 5021.488061556038, "coordinates": {"latitude": 40.60634, "longitude": -73.9616}, "alias": "koyla-trilogy-brooklyn", "image_url": "https://s3-media1.fl.yelpcdn.com/bphoto/hRswOzbWZ1f8_GRSUlELRg/o.jpg", "categories": [{"alias": "hookah_bars", "title": "Hookah Bars"}], "display_phone": "(631) 790-5106", "phone": "+16317905106", "id": "Vcnf1NFTUENS0Q3f0KUCpw", "is_closed": false, "location": {"city": "Brooklyn", "display_address": ["2085 Coney Island Ave", "Brooklyn, NY 11223"], "country": "US", "address2": null, "address3": "", "state": "NY", "address1": "2085 Coney Island Ave", "zip_code": "11223"}}, {"rating": 2.0, "review_count": 7, "name": "Red Velvet Lounge NY", "transactions": [], "url": "https://www.yelp.com/biz/red-velvet-lounge-ny-midwood?adjust_creative=yhLoLzsNXKw40xZ5RCWPpA&utm_campaign=yelp_api_v3&utm_medium=api_v3_business_search&utm_source=yhLoLzsNXKw40xZ5RCWPpA", "price": "$$", "distance": 5049.408615692911, "coordinates": {"latitude": 40.6123669, "longitude": -73.9629929}, "alias": "red-velvet-lounge-ny-midwood", "image_url": "https://s3-media3.fl.yelpcdn.com/bphoto/ljS43DTIN4lHEYon-nWXhA/o.jpg", "categories": [{"alias": "hookah_bars", "title": "Hookah Bars"}, {"alias": "danceclubs", "title": "Dance Clubs"}, {"alias": "arabian", "title": "Arabian"}], "display_phone": "(347) 962-1419", "phone": "+13479621419", "id": "uU5bffvq6Y-j7gFzBr0Ilg", "is_closed": false, "location": {"city": "Midwood", "display_address": ["1842 Coney Island Ave", "Midwood, NY 11235"], "country": "US", "address2": "", "address3": "", "state": "NY", "address1": "1842 Coney Island Ave", "zip_code": "11235"}}, {"rating": 4.0, "review_count": 2, "name": "Charl-Ena Chateau", "transactions": [], "url": "https://www.yelp.com/biz/charl-ena-chateau-brooklyn?adjust_creative=yhLoLzsNXKw40xZ5RCWPpA&utm_campaign=yelp_api_v3&utm_medium=api_v3_business_search&utm_source=yhLoLzsNXKw40xZ5RCWPpA", "distance": 5066.725855240757, "coordinates": {"latitude": 40.650962, "longitude": -73.941154}, "alias": "charl-ena-chateau-brooklyn", "image_url": "https://s3-media2.fl.yelpcdn.com/bphoto/fgLNfRWRFI2bNZsQctQQLA/o.jpg", "categories": [{"alias": "newamerican", "title": "American (New)"}, {"alias": "bars", "title": "Bars"}], "display_phone": "(718) 941-4777", "phone": "+17189414777", "id": "TX3uUuu_ob5DNlNDf1TbOw", "is_closed": false, "location": {"city": "Brooklyn", "display_address": ["3820 Church Ave", "Brooklyn, NY 11203"], "country": "US", "address2": "", "address3": "", "state": "NY", "address1": "3820 Church Ave", "zip_code": "11203"}}, {"rating": 3.0, "review_count": 30, "name": "Myst Lounge", "transactions": [], "url": "https://www.yelp.com/biz/myst-lounge-brooklyn-7?adjust_creative=yhLoLzsNXKw40xZ5RCWPpA&utm_campaign=yelp_api_v3&utm_medium=api_v3_business_search&utm_source=yhLoLzsNXKw40xZ5RCWPpA", "price": "$$", "distance": 5070.912996171591, "coordinates": {"latitude": 40.606317, "longitude": -73.962131}, "alias": "myst-lounge-brooklyn-7", "image_url": "https://s3-media2.fl.yelpcdn.com/bphoto/MrJ7wgA0w4rmNH3eD2bq6g/o.jpg", "categories": [{"alias": "hookah_bars", "title": "Hookah Bars"}, {"alias": "newamerican", "title": "American (New)"}, {"alias": "juicebars", "title": "Juice Bars & Smoothies"}], "display_phone": "(718) 336-0007", "phone": "+17183360007", "id": "W_1HbrAuJx9OhG4XER47Jw", "is_closed": false, "location": {"city": "Brooklyn", "display_address": ["2086 Coney Island Ave", "Brooklyn, NY 11223"], "country": "US", "address2": null, "address3": "", "state": "NY", "address1": "2086 Coney Island Ave", "zip_code": "11223"}}, {"rating": 5.0, "review_count": 3, "name": "Baku Boulevard", "transactions": [], "url": "https://www.yelp.com/biz/baku-boulevard-sheepshead-bay?adjust_creative=yhLoLzsNXKw40xZ5RCWPpA&utm_campaign=yelp_api_v3&utm_medium=api_v3_business_search&utm_source=yhLoLzsNXKw40xZ5RCWPpA", "distance": 5099.510287114627, "coordinates": {"latitude": 40.598754, "longitude": -73.959442}, "alias": "baku-boulevard-sheepshead-bay", "image_url": "https://s3-media4.fl.yelpcdn.com/bphoto/I-nha3dPXHwfIlmwiN3x-Q/o.jpg", "categories": [{"alias": "bars", "title": "Bars"}, {"alias": "tradamerican", "title": "American (Traditional)"}], "display_phone": "(718) 975-2223", "phone": "+17189752223", "id": "ZvbvOHNc7Z3xxkfmDi2zCQ", "is_closed": false, "location": {"city": "Sheepshead Bay", "display_address": ["1223 Ave U", "Sheepshead Bay, NY 11229"], "country": "US", "address2": "", "address3": "", "state": "NY", "address1": "1223 Ave U", "zip_code": "11229"}}, {"rating": 5.0, "review_count": 4, "name": "Supremacy Grill and Lounge", "transactions": [], "url": "https://www.yelp.com/biz/supremacy-grill-and-lounge-brooklyn?adjust_creative=yhLoLzsNXKw40xZ5RCWPpA&utm_campaign=yelp_api_v3&utm_medium=api_v3_business_search&utm_source=yhLoLzsNXKw40xZ5RCWPpA", "distance": 5140.041449060075, "coordinates": {"latitude": 40.61792, "longitude": -73.96408}, "alias": "supremacy-grill-and-lounge-brooklyn", "image_url": "https://s3-media2.fl.yelpcdn.com/bphoto/tF0682uEK2t9Jo_QBLGj-Q/o.jpg", "categories": [{"alias": "hookah_bars", "title": "Hookah Bars"}, {"alias": "lounges", "title": "Lounges"}], "display_phone": "(718) 676-6065", "phone": "+17186766065", "id": "gcYSrrGq6lFW3rktyOihow", "is_closed": false, "location": {"city": "Brooklyn", "display_address": ["1624 Coney Island Ave", "Brooklyn, NY 11230"], "country": "US", "address2": null, "address3": "", "state": "NY", "address1": "1624 Coney Island Ave", "zip_code": "11230"}}, {"rating": 3.0, "review_count": 39, "name": "Falada Lounge", "transactions": [], "url": "https://www.yelp.com/biz/falada-lounge-brooklyn?adjust_creative=yhLoLzsNXKw40xZ5RCWPpA&utm_campaign=yelp_api_v3&utm_medium=api_v3_business_search&utm_source=yhLoLzsNXKw40xZ5RCWPpA", "price": "$$$", "distance": 5152.861654587074, "coordinates": {"latitude": 40.5838899, "longitude": -73.94784}, "alias": "falada-lounge-brooklyn", "image_url": "https://s3-media2.fl.yelpcdn.com/bphoto/6Kj8sRwxzwUYC4jKn211uw/o.jpg", "categories": [{"alias": "lounges", "title": "Lounges"}, {"alias": "steak", "title": "Steakhouses"}, {"alias": "seafood", "title": "Seafood"}], "display_phone": "(718) 332-4040", "phone": "+17183324040", "id": "IJPtbTjtS3AMU-Uaj4IfQw", "is_closed": false, "location": {"city": "Brooklyn", "display_address": ["2011 Emmons Ave", "Brooklyn, NY 11235"], "country": "US", "address2": "", "address3": "", "state": "NY", "address1": "2011 Emmons Ave", "zip_code": "11235"}}, {"rating": 4.5, "review_count": 55, "name": "Russian Baths on Neck Road", "transactions": [], "url": "https://www.yelp.com/biz/russian-baths-on-neck-road-brooklyn?adjust_creative=yhLoLzsNXKw40xZ5RCWPpA&utm_campaign=yelp_api_v3&utm_medium=api_v3_business_search&utm_source=yhLoLzsNXKw40xZ5RCWPpA", "price": "$$", "distance": 5190.17527319978, "coordinates": {"latitude": 40.59424, "longitude": -73.95788}, "alias": "russian-baths-on-neck-road-brooklyn", "image_url": "https://s3-media2.fl.yelpcdn.com/bphoto/RWFXtIuvM0X5H7HnwKPspg/o.jpg", "categories": [{"alias": "massage", "title": "Massage"}, {"alias": "spas", "title": "Day Spas"}, {"alias": "sportsbars", "title": "Sports Bars"}], "display_phone": "(718) 332-1676", "phone": "+17183321676", "id": "moK8qANVn1gQcF-fnPRnWg", "is_closed": false, "location": {"city": "Brooklyn", "display_address": ["1200 Gravesend Neck Rd", "Brooklyn, NY 11229"], "country": "US", "address2": "", "address3": "", "state": "NY", "address1": "1200 Gravesend Neck Rd", "zip_code": "11229"}}, {"rating": 1.0, "review_count": 1, "name": "El Tequilero Bar & Restaturant", "transactions": [], "url": "https://www.yelp.com/biz/el-tequilero-bar-and-restaturant-brooklyn?adjust_creative=yhLoLzsNXKw40xZ5RCWPpA&utm_campaign=yelp_api_v3&utm_medium=api_v3_business_search&utm_source=yhLoLzsNXKw40xZ5RCWPpA", "price": "$", "distance": 5212.387974190417, "coordinates": {"latitude": 40.5980903160683, "longitude": -73.9605802703617}, "alias": "el-tequilero-bar-and-restaturant-brooklyn", "image_url": "", "categories": [{"alias": "bars", "title": "Bars"}, {"alias": "mexican", "title": "Mexican"}], "display_phone": "(347) 275-5557", "phone": "+13472755557", "id": "q7KxBfDL2xs0kPgr6i48sg", "is_closed": false, "location": {"city": "Brooklyn", "display_address": ["1114 Avenue U", "Brooklyn, NY 11223"], "country": "US", "address2": null, "address3": null, "state": "NY", "address1": "1114 Avenue U", "zip_code": "11223"}}, {"rating": 3.0, "review_count": 78, "name": "Nirvana", "transactions": [], "url": "https://www.yelp.com/biz/nirvana-brooklyn?adjust_creative=yhLoLzsNXKw40xZ5RCWPpA&utm_campaign=yelp_api_v3&utm_medium=api_v3_business_search&utm_source=yhLoLzsNXKw40xZ5RCWPpA", "price": "$$", "distance": 5219.02932796826, "coordinates": {"latitude": 40.5999, "longitude": -73.96172}, "alias": "nirvana-brooklyn", "image_url": "https://s3-media2.fl.yelpcdn.com/bphoto/8P62Sp1Z_o3zs1noRKewgA/o.jpg", "categories": [{"alias": "hookah_bars", "title": "Hookah Bars"}, {"alias": "cocktailbars", "title": "Cocktail Bars"}, {"alias": "tradamerican", "title": "American (Traditional)"}], "display_phone": "(718) 376-2500", "phone": "+17183762500", "id": "0vsGDvo1kbDI4nQr8gUI3g", "is_closed": false, "location": {"city": "Brooklyn", "display_address": ["2340 Coney Island Ave", "Brooklyn, NY 11223"], "country": "US", "address2": "", "address3": "", "state": "NY", "address1": "2340 Coney Island Ave", "zip_code": "11223"}}, {"rating": 5.0, "review_count": 3, "name": "Brooklyn Jazz + Sports Club", "transactions": [], "url": "https://www.yelp.com/biz/brooklyn-jazz-sports-club-brooklyn?adjust_creative=yhLoLzsNXKw40xZ5RCWPpA&utm_campaign=yelp_api_v3&utm_medium=api_v3_business_search&utm_source=yhLoLzsNXKw40xZ5RCWPpA", "price": "$$", "distance": 5228.293791106271, "coordinates": {"latitude": 40.6511819989557, "longitude": -73.9438980634513}, "alias": "brooklyn-jazz-sports-club-brooklyn", "image_url": "https://s3-media4.fl.yelpcdn.com/bphoto/RndW5t3psBsvBIfGdhI1mA/o.jpg", "categories": [{"alias": "caribbean", "title": "Caribbean"}, {"alias": "sportsbars", "title": "Sports Bars"}], "display_phone": "(718) 940-9379", "phone": "+17189409379", "id": "_PCJ7mTFAs3a41llQ7bYyw", "is_closed": false, "location": {"city": "Brooklyn", "display_address": ["3523 Church Ave", "Brooklyn, NY 11203"], "country": "US", "address2": "", "address3": null, "state": "NY", "address1": "3523 Church Ave", "zip_code": "11203"}}, {"rating": 3.0, "review_count": 1, "name": "Night Light Cafe", "transactions": [], "url": "https://www.yelp.com/biz/night-light-cafe-brooklyn?adjust_creative=yhLoLzsNXKw40xZ5RCWPpA&utm_campaign=yelp_api_v3&utm_medium=api_v3_business_search&utm_source=yhLoLzsNXKw40xZ5RCWPpA", "price": "$$$", "distance": 5233.931473805252, "coordinates": {"latitude": 40.5864334106445, "longitude": -73.951904296875}, "alias": "night-light-cafe-brooklyn", "image_url": "https://s3-media1.fl.yelpcdn.com/bphoto/9RDAXExdM7OLrwN60aA4fQ/o.jpg", "categories": [{"alias": "divebars", "title": "Dive Bars"}], "display_phone": "(718) 368-0280", "phone": "+17183680280", "id": "JnrgD8ywRZriVIXWJQlq6g", "is_closed": false, "location": {"city": "Brooklyn", "display_address": ["1657 Sheepshead Bay Rd", "Brooklyn, NY 11235"], "country": "US", "address2": "", "address3": "", "state": "NY", "address1": "1657 Sheepshead Bay Rd", "zip_code": "11235"}}]}