{"region": {"center": {"latitude": 40.6499451626, "longitude": -74.0015521987}}, "total": 1900, "businesses": [{"rating": 5.0, "review_count": 15, "name": "L'Wren", "transactions": [], "url": "https://www.yelp.com/biz/l-wren-brooklyn?adjust_creative=yhLoLzsNXKw40xZ5RCWPpA&utm_campaign=yelp_api_v3&utm_medium=api_v3_business_search&utm_source=yhLoLzsNXKw40xZ5RCWPpA", "distance": 283.43619248912955, "coordinates": {"latitude": 40.65065, "longitude": -74.00476}, "alias": "l-wren-brooklyn", "image_url": "https://s3-media4.fl.yelpcdn.com/bphoto/2UWrF5tr0-cLWqsFjrk5Bg/o.jpg", "categories": [{"alias": "cocktailbars", "title": "Cocktail Bars"}], "display_phone": "(917) 909-1894", "phone": "+19179091894", "id": "v3O_QyIVp5ZthiFgBzoEOA", "is_closed": false, "location": {"city": "Brooklyn", "display_address": ["4004 5th Ave", "Brooklyn, NY 11232"], "country": "US", "address2": "", "address3": null, "state": "NY", "address1": "4004 5th Ave", "zip_code": "11232"}}, {"rating": 2.5, "review_count": 3, "name": "New Era Billiard", "transactions": [], "url": "https://www.yelp.com/biz/new-era-billiard-brooklyn?adjust_creative=yhLoLzsNXKw40xZ5RCWPpA&utm_campaign=yelp_api_v3&utm_medium=api_v3_business_search&utm_source=yhLoLzsNXKw40xZ5RCWPpA", "price": "$$", "distance": 457.6040629458094, "coordinates": {"latitude": 40.646659, "longitude": -73.998352}, "alias": "new-era-billiard-brooklyn", "image_url": "https://s3-media1.fl.yelpcdn.com/bphoto/uyqOy9wzcDU8o2IySvxCcw/o.jpg", "categories": [{"alias": "poolhalls", "title": "Pool Halls"}], "display_phone": "(917) 299-8722", "phone": "+19172998722", "id": "s44X3DMwYVOid7rMbmg0wg", "is_closed": false, "location": {"city": "Brooklyn", "display_address": ["4008 8th Ave", "Brooklyn, NY 11232"], "country": "US", "address2": "", "address3": "", "state": "NY", "address1": "4008 8th Ave", "zip_code": "11232"}}, {"rating": 4.5, "review_count": 3, "name": "39 KTV", "transactions": [], "url": "https://www.yelp.com/biz/39-ktv-brooklyn?adjust_creative=yhLoLzsNXKw40xZ5RCWPpA&utm_campaign=yelp_api_v3&utm_medium=api_v3_business_search&utm_source=yhLoLzsNXKw40xZ5RCWPpA", "price": "$$", "distance": 538.6569597486443, "coordinates": {"latitude": 40.646719, "longitude": -73.996839}, "alias": "39-ktv-brooklyn", "image_url": "https://s3-media1.fl.yelpcdn.com/bphoto/7YnXdfBNJGqV8QxkRJaMAQ/o.jpg", "categories": [{"alias": "karaoke", "title": "Karaoke"}], "display_phone": "(718) 851-8118", "phone": "+17188518118", "id": "WK9yCOdUbClqJoCWzZBDGA", "is_closed": false, "location": {"city": "Brooklyn", "display_address": ["820 39th St", "Brooklyn, NY 11219"], "country": "US", "address2": "", "address3": "", "state": "NY", "address1": "820 39th St", "zip_code": "11219"}}, {"rating": 3.5, "review_count": 15, "name": "La Cucina Mexican Grill And Cantina Bar", "transactions": [], "url": "https://www.yelp.com/biz/la-cucina-mexican-grill-and-cantina-bar-brooklyn-2?adjust_creative=yhLoLzsNXKw40xZ5RCWPpA&utm_campaign=yelp_api_v3&utm_medium=api_v3_business_search&utm_source=yhLoLzsNXKw40xZ5RCWPpA", "price": "$$", "distance": 547.5005839363431, "coordinates": {"latitude": 40.6477, "longitude": -74.0074099}, "alias": "la-cucina-mexican-grill-and-cantina-bar-brooklyn-2", "image_url": "https://s3-media2.fl.yelpcdn.com/bphoto/gUmi1TMBT0RFuOrkIFPkEw/o.jpg", "categories": [{"alias": "mexican", "title": "Mexican"}, {"alias": "bars", "title": "Bars"}], "display_phone": "(718) 972-2380", "phone": "+17189722380", "id": "jB9_WGmZH3oCsXPM6Jkveg", "is_closed": false, "location": {"city": "Brooklyn", "display_address": ["4503 5th Ave", "Brooklyn, NY 11220"], "country": "US", "address2": null, "address3": null, "state": "NY", "address1": "4503 5th Ave", "zip_code": "11220"}}, {"rating": 2.0, "review_count": 1, "name": "La Nueva Concha", "transactions": [], "url": "https://www.yelp.com/biz/la-nueva-concha-brooklyn?adjust_creative=yhLoLzsNXKw40xZ5RCWPpA&utm_campaign=yelp_api_v3&utm_medium=api_v3_business_search&utm_source=yhLoLzsNXKw40xZ5RCWPpA", "distance": 633.8872155831408, "coordinates": {"latitude": 40.644309, "longitude": -74.000778}, "alias": "la-nueva-concha-brooklyn", "image_url": "", "categories": [{"alias": "divebars", "title": "Dive Bars"}], "display_phone": "(718) 686-1396", "phone": "+17186861396", "id": "AnoICfwTIUtieFtLSa__uQ", "is_closed": false, "location": {"city": "Brooklyn", "display_address": ["4414 8th Ave", "Brooklyn, NY 11220"], "country": "US", "address2": "", "address3": "", "state": "NY", "address1": "4414 8th Ave", "zip_code": "11220"}}, {"rating": 5.0, "review_count": 1, "name": "Hunter Bar 888", "transactions": [], "url": "https://www.yelp.com/biz/hunter-bar-888-sunset-park?adjust_creative=yhLoLzsNXKw40xZ5RCWPpA&utm_campaign=yelp_api_v3&utm_medium=api_v3_business_search&utm_source=yhLoLzsNXKw40xZ5RCWPpA", "distance": 636.5494343541037, "coordinates": {"latitude": 40.6442630095111, "longitude": -74.0006347485962}, "alias": "hunter-bar-888-sunset-park", "image_url": "", "categories": [{"alias": "bars", "title": "Bars"}], "display_phone": "", "phone": "", "id": "6UsBUHh4kMet7gvSzDcgqQ", "is_closed": false, "location": {"city": "Sunset Park", "display_address": ["4414 8th Ave", "Sunset Park, NY 11220"], "country": "US", "address2": "", "address3": "", "state": "NY", "address1": "4414 8th Ave", "zip_code": "11220"}}, {"rating": 4.5, "review_count": 4, "name": "Candelas BK Restaurant", "transactions": ["delivery", "pickup"], "url": "https://www.yelp.com/biz/candelas-bk-restaurant-sunset-park?adjust_creative=yhLoLzsNXKw40xZ5RCWPpA&utm_campaign=yelp_api_v3&utm_medium=api_v3_business_search&utm_source=yhLoLzsNXKw40xZ5RCWPpA", "price": "$", "distance": 644.5380935106419, "coordinates": {"latitude": 40.64943, "longitude": -74.00921}, "alias": "candelas-bk-restaurant-sunset-park", "image_url": "https://s3-media3.fl.yelpcdn.com/bphoto/UzOjaiylo_5rufZ-7J3Zow/o.jpg", "categories": [{"alias": "bars", "title": "Bars"}, {"alias": "latin", "title": "Latin American"}], "display_phone": "(718) 438-1994", "phone": "+17184381994", "id": "cWTrtJgBeEXx5lAzBnauVw", "is_closed": false, "location": {"city": "Sunset Park", "display_address": ["4413 4th Ave", "Sunset Park, NY 11220"], "country": "US", "address2": "", "address3": "", "state": "NY", "address1": "4413 4th Ave", "zip_code": "11220"}}, {"rating": 4.0, "review_count": 502, "name": "Tacos El Bronco", "transactions": [], "url": "https://www.yelp.com/biz/tacos-el-bronco-brooklyn-2?adjust_creative=yhLoLzsNXKw40xZ5RCWPpA&utm_campaign=yelp_api_v3&utm_medium=api_v3_business_search&utm_source=yhLoLzsNXKw40xZ5RCWPpA", "price": "$", "distance": 652.7158926184567, "coordinates": {"latitude": 40.65006, "longitude": -74.00915}, "alias": "tacos-el-bronco-brooklyn-2", "image_url": "https://s3-media1.fl.yelpcdn.com/bphoto/F9hv9aUT37cI4HbZfxxbDA/o.jpg", "categories": [{"alias": "mexican", "title": "Mexican"}, {"alias": "seafood", "title": "Seafood"}, {"alias": "cocktailbars", "title": "Cocktail Bars"}], "display_phone": "(718) 788-2229", "phone": "+17187882229", "id": "_M5FVY4hkcuU-ASdVZPfRQ", "is_closed": false, "location": {"city": "Brooklyn", "display_address": ["4324 4th Ave", "Brooklyn, NY 11220"], "country": "US", "address2": "", "address3": "", "state": "NY", "address1": "4324 4th Ave", "zip_code": "11220"}}, {"rating": 4.5, "review_count": 4, "name": "Sev Studio Lounge", "transactions": [], "url": "https://www.yelp.com/biz/sev-studio-lounge-greenwood?adjust_creative=yhLoLzsNXKw40xZ5RCWPpA&utm_campaign=yelp_api_v3&utm_medium=api_v3_business_search&utm_source=yhLoLzsNXKw40xZ5RCWPpA", "price": "$", "distance": 774.2529159106928, "coordinates": {"latitude": 40.6569595, "longitude": -74.0021286}, "alias": "sev-studio-lounge-greenwood", "image_url": "https://s3-media4.fl.yelpcdn.com/bphoto/rBQNfAvLwpg0vD93SStdjQ/o.jpg", "categories": [{"alias": "lounges", "title": "Lounges"}], "display_phone": "(917) 656-4555", "phone": "+19176564555", "id": "k4IrFiSRzwB5Zx7WNV_iVw", "is_closed": false, "location": {"city": "Greenwood", "display_address": ["870 4th Ave", "Greenwood, NY 11232"], "country": "US", "address2": "", "address3": "", "state": "NY", "address1": "870 4th Ave", "zip_code": "11232"}}, {"rating": 4.0, "review_count": 30, "name": "New Victory", "transactions": [], "url": "https://www.yelp.com/biz/new-victory-brooklyn-2?adjust_creative=yhLoLzsNXKw40xZ5RCWPpA&utm_campaign=yelp_api_v3&utm_medium=api_v3_business_search&utm_source=yhLoLzsNXKw40xZ5RCWPpA", "price": "$$", "distance": 775.8052681387603, "coordinates": {"latitude": 40.6459807, "longitude": -74.0091191}, "alias": "new-victory-brooklyn-2", "image_url": "https://s3-media1.fl.yelpcdn.com/bphoto/ud9MrSITUvOGjhRTJdGVOw/o.jpg", "categories": [{"alias": "chinese", "title": "Chinese"}, {"alias": "spanish", "title": "Spanish"}, {"alias": "bars", "title": "Bars"}], "display_phone": "(718) 431-2938", "phone": "+17184312938", "id": "MdD_PgW2A4XP1WMkHbOWng", "is_closed": false, "location": {"city": "Brooklyn", "display_address": ["4803 5th Ave", "Brooklyn, NY 11371"], "country": "US", "address2": "", "address3": "", "state": "NY", "address1": "4803 5th Ave", "zip_code": "11371"}}, {"rating": 4.0, "review_count": 3, "name": "Mister Saturday Night", "transactions": [], "url": "https://www.yelp.com/biz/mister-saturday-night-brooklyn?adjust_creative=yhLoLzsNXKw40xZ5RCWPpA&utm_campaign=yelp_api_v3&utm_medium=api_v3_business_search&utm_source=yhLoLzsNXKw40xZ5RCWPpA", "distance": 869.9463704351044, "coordinates": {"latitude": 40.6560462342352, "longitude": -74.008007652168}, "alias": "mister-saturday-night-brooklyn", "image_url": "https://s3-media4.fl.yelpcdn.com/bphoto/ODowXaeYnoGbW7rQqT_uKg/o.jpg", "categories": [{"alias": "danceclubs", "title": "Dance Clubs"}], "display_phone": "", "phone": "", "id": "pChI1bJthxeWYjtfknjGrQ", "is_closed": false, "location": {"city": "Brooklyn", "display_address": ["220 36th St", "Brooklyn, NY 11204"], "country": "US", "address2": "", "address3": "", "state": "NY", "address1": "220 36th St", "zip_code": "11204"}}, {"rating": 5.0, "review_count": 1, "name": "Brook Brovaz Studio", "transactions": [], "url": "https://www.yelp.com/biz/brook-brovaz-studio-new-york?adjust_creative=yhLoLzsNXKw40xZ5RCWPpA&utm_campaign=yelp_api_v3&utm_medium=api_v3_business_search&utm_source=yhLoLzsNXKw40xZ5RCWPpA", "price": "$$", "distance": 905.1099246540226, "coordinates": {"latitude": 40.6559693813324, "longitude": -74.0072583407164}, "alias": "brook-brovaz-studio-new-york", "image_url": "", "categories": [{"alias": "recording_studios", "title": "Recording & Rehearsal Studios"}, {"alias": "venues", "title": "Venues & Event Spaces"}, {"alias": "musicvenues", "title": "Music Venues"}], "display_phone": "", "phone": "", "id": "0GsqMITDic5t1hxqe3XEMg", "is_closed": false, "location": {"city": "New York", "display_address": ["220 36th St", "New York, NY 11232"], "country": "US", "address2": "", "address3": "", "state": "NY", "address1": "220 36th St", "zip_code": "11232"}}, {"rating": 4.0, "review_count": 22, "name": "Filament at the Landing", "transactions": [], "url": "https://www.yelp.com/biz/filament-at-the-landing-brooklyn?adjust_creative=yhLoLzsNXKw40xZ5RCWPpA&utm_campaign=yelp_api_v3&utm_medium=api_v3_business_search&utm_source=yhLoLzsNXKw40xZ5RCWPpA", "price": "$$", "distance": 953.0756600443889, "coordinates": {"latitude": 40.656632, "longitude": -74.00862}, "alias": "filament-at-the-landing-brooklyn", "image_url": "https://s3-media2.fl.yelpcdn.com/bphoto/_Fx4fHL6jZRuMK6tGAUg_A/o.jpg", "categories": [{"alias": "bars", "title": "Bars"}, {"alias": "cafes", "title": "Cafes"}], "display_phone": "(347) 417-8494", "phone": "+13474178494", "id": "Zwrf1_mSetFmO-Z49bRDbA", "is_closed": false, "location": {"city": "Brooklyn", "display_address": ["220 36th St", "Brooklyn, NY 11232"], "country": "US", "address2": "", "address3": null, "state": "NY", "address1": "220 36th St", "zip_code": "11232"}}, {"rating": 3.5, "review_count": 16, "name": "Xstasy Night Club", "transactions": [], "url": "https://www.yelp.com/biz/xstasy-night-club-brooklyn?adjust_creative=yhLoLzsNXKw40xZ5RCWPpA&utm_campaign=yelp_api_v3&utm_medium=api_v3_business_search&utm_source=yhLoLzsNXKw40xZ5RCWPpA", "price": "$", "distance": 1038.593909746557, "coordinates": {"latitude": 40.6585084, "longitude": -73.9966357}, "alias": "xstasy-night-club-brooklyn", "image_url": "https://s3-media2.fl.yelpcdn.com/bphoto/BC6eRzeqaMwpj_mKNuRcTA/o.jpg", "categories": [{"alias": "danceclubs", "title": "Dance Clubs"}, {"alias": "gaybars", "title": "Gay Bars"}], "display_phone": "(347) 856-4815", "phone": "+13478564815", "id": "DQIvcwGnyT3DKYv4EOpzrA", "is_closed": false, "location": {"city": "Brooklyn", "display_address": ["758 5th Ave", "Brooklyn, NY 11232"], "country": "US", "address2": "", "address3": "", "state": "NY", "address1": "758 5th Ave", "zip_code": "11232"}}, {"rating": 4.0, "review_count": 87, "name": "Bay Market Kitchen", "transactions": ["delivery", "pickup"], "url": "https://www.yelp.com/biz/bay-market-kitchen-brooklyn?adjust_creative=yhLoLzsNXKw40xZ5RCWPpA&utm_campaign=yelp_api_v3&utm_medium=api_v3_business_search&utm_source=yhLoLzsNXKw40xZ5RCWPpA", "price": "$$", "distance": 1079.1943528773495, "coordinates": {"latitude": 40.6593232778945, "longitude": -74.0048465999408}, "alias": "bay-market-kitchen-brooklyn", "image_url": "https://s3-media1.fl.yelpcdn.com/bphoto/IF0tGerCJ-gLb70HPyy_xg/o.jpg", "categories": [{"alias": "beerbar", "title": "Beer Bar"}, {"alias": "newamerican", "title": "American (New)"}, {"alias": "burgers", "title": "Burgers"}], "display_phone": "(929) 305-3838", "phone": "+19293053838", "id": "cDSSZaRd-oW0RK_f7xnZaw", "is_closed": false, "location": {"city": "Brooklyn", "display_address": ["850 3rd Ave", "Brooklyn, NY 11232"], "country": "US", "address2": null, "address3": null, "state": "NY", "address1": "850 3rd Ave", "zip_code": "11232"}}, {"rating": 2.0, "review_count": 1, "name": "ArcoRio Night Club", "transactions": [], "url": "https://www.yelp.com/biz/arcorio-night-club-new-york?adjust_creative=yhLoLzsNXKw40xZ5RCWPpA&utm_campaign=yelp_api_v3&utm_medium=api_v3_business_search&utm_source=yhLoLzsNXKw40xZ5RCWPpA", "distance": 1166.6189384997715, "coordinates": {"latitude": 40.647781, "longitude": -74.015083}, "alias": "arcorio-night-club-new-york", "image_url": "", "categories": [{"alias": "divebars", "title": "Dive Bars"}], "display_phone": "", "phone": "", "id": "aujb1Z2ybYBn3ABaATaxVA", "is_closed": false, "location": {"city": "New York", "display_address": ["5002 3rd Ave", "New York, NY 11220"], "country": "US", "address2": "", "address3": "", "state": "NY", "address1": "5002 3rd Ave", "zip_code": "11220"}}, {"rating": 4.5, "review_count": 48, "name": "Bar 718", "transactions": [], "url": "https://www.yelp.com/biz/bar-718-brooklyn?adjust_creative=yhLoLzsNXKw40xZ5RCWPpA&utm_campaign=yelp_api_v3&utm_medium=api_v3_business_search&utm_source=yhLoLzsNXKw40xZ5RCWPpA", "price": "$", "distance": 1315.655811157195, "coordinates": {"latitude": 40.6605, "longitude": -73.99451}, "alias": "bar-718-brooklyn", "image_url": "https://s3-media3.fl.yelpcdn.com/bphoto/2EiKxbPeNAGhKTPX08PbKQ/o.jpg", "categories": [{"alias": "bars", "title": "Bars"}], "display_phone": "(718) 499-2661", "phone": "+17184992661", "id": "jW7oRgG61dCqBsRNWoS7UA", "is_closed": false, "location": {"city": "Brooklyn", "display_address": ["718 5th Ave", "Brooklyn, NY 11232"], "country": "US", "address2": "", "address3": "", "state": "NY", "address1": "718 5th Ave", "zip_code": "11232"}}, {"rating": 4.0, "review_count": 23, "name": "Panchita's Place", "transactions": ["delivery", "pickup"], "url": "https://www.yelp.com/biz/panchitas-place-brooklyn-2?adjust_creative=yhLoLzsNXKw40xZ5RCWPpA&utm_campaign=yelp_api_v3&utm_medium=api_v3_business_search&utm_source=yhLoLzsNXKw40xZ5RCWPpA", "distance": 1347.93687451585, "coordinates": {"latitude": 40.66062, "longitude": -73.99397}, "alias": "panchitas-place-brooklyn-2", "image_url": "https://s3-media2.fl.yelpcdn.com/bphoto/J6rCLFBDZasFMD6TJ_qokg/o.jpg", "categories": [{"alias": "newmexican", "title": "New Mexican Cuisine"}, {"alias": "bars", "title": "Bars"}], "display_phone": "(917) 909-0404", "phone": "+19179090404", "id": "JUQ1QYsbsWobgYiPn4zp7Q", "is_closed": false, "location": {"city": "Brooklyn", "display_address": ["709 5th Ave", "Brooklyn, NY 11215"], "country": "US", "address2": null, "address3": "", "state": "NY", "address1": "709 5th Ave", "zip_code": "11215"}}, {"rating": 5.0, "review_count": 1, "name": "DJ Byrd Productions", "transactions": [], "url": "https://www.yelp.com/biz/dj-byrd-productions-brooklyn?adjust_creative=yhLoLzsNXKw40xZ5RCWPpA&utm_campaign=yelp_api_v3&utm_medium=api_v3_business_search&utm_source=yhLoLzsNXKw40xZ5RCWPpA", "distance": 1378.127497064875, "coordinates": {"latitude": 40.6375766, "longitude": -74.0025943}, "alias": "dj-byrd-productions-brooklyn", "image_url": "https://s3-media2.fl.yelpcdn.com/bphoto/Z29dsQgM8jvfg2WcfCaKtQ/o.jpg", "categories": [{"alias": "djs", "title": "DJs"}, {"alias": "karaoke", "title": "Karaoke"}], "display_phone": "(917) 403-1016", "phone": "+19174031016", "id": "DVpgAAQk2u7bphCS2Uov5w", "is_closed": false, "location": {"city": "Brooklyn", "display_address": ["930 53rd St", "Brooklyn, NY 11219"], "country": "US", "address2": null, "address3": "", "state": "NY", "address1": "930 53rd St", "zip_code": "11219"}}, {"rating": 4.0, "review_count": 261, "name": "Sea Witch", "transactions": [], "url": "https://www.yelp.com/biz/sea-witch-brooklyn-2?adjust_creative=yhLoLzsNXKw40xZ5RCWPpA&utm_campaign=yelp_api_v3&utm_medium=api_v3_business_search&utm_source=yhLoLzsNXKw40xZ5RCWPpA", "price": "$$", "distance": 1385.3085006323324, "coordinates": {"latitude": 40.66082, "longitude": -73.993538}, "alias": "sea-witch-brooklyn-2", "image_url": "https://s3-media4.fl.yelpcdn.com/bphoto/Puak6yp2V1BKhURkHeEP5Q/o.jpg", "categories": [{"alias": "lounges", "title": "Lounges"}, {"alias": "gastropubs", "title": "Gastropubs"}], "display_phone": "(347) 227-7166", "phone": "+13472277166", "id": "QS7LomUJFfx9LufSx4RVvQ", "is_closed": false, "location": {"city": "Brooklyn", "display_address": ["703 5th Ave", "Brooklyn, NY 11215"], "country": "US", "address2": "", "address3": "", "state": "NY", "address1": "703 5th Ave", "zip_code": "11215"}}, {"rating": 3.0, "review_count": 1, "name": "John Restaurant", "transactions": [], "url": "https://www.yelp.com/biz/john-restaurant-brooklyn?adjust_creative=yhLoLzsNXKw40xZ5RCWPpA&utm_campaign=yelp_api_v3&utm_medium=api_v3_business_search&utm_source=yhLoLzsNXKw40xZ5RCWPpA", "price": "$", "distance": 1393.845366758864, "coordinates": {"latitude": 40.64153, "longitude": -74.01383}, "alias": "john-restaurant-brooklyn", "image_url": "", "categories": [{"alias": "bars", "title": "Bars"}, {"alias": "tacos", "title": "Tacos"}], "display_phone": "(718) 567-9444", "phone": "+17185679444", "id": "R_tEPcKp39Ayxe_YBxwadw", "is_closed": false, "location": {"city": "Brooklyn", "display_address": ["5603 5th Ave", "Brooklyn, NY 11220"], "country": "US", "address2": "", "address3": "", "state": "NY", "address1": "5603 5th Ave", "zip_code": "11220"}}, {"rating": 4.5, "review_count": 19, "name": "Battle Hill Tavern", "transactions": [], "url": "https://www.yelp.com/biz/battle-hill-tavern-brooklyn?adjust_creative=yhLoLzsNXKw40xZ5RCWPpA&utm_campaign=yelp_api_v3&utm_medium=api_v3_business_search&utm_source=yhLoLzsNXKw40xZ5RCWPpA", "price": "$$", "distance": 1432.671213201127, "coordinates": {"latitude": 40.66023, "longitude": -73.99135}, "alias": "battle-hill-tavern-brooklyn", "image_url": "https://s3-media3.fl.yelpcdn.com/bphoto/mst4ntB6f3Jxn9yh0KrqAg/o.jpg", "categories": [{"alias": "pizza", "title": "Pizza"}, {"alias": "sportsbars", "title": "Sports Bars"}, {"alias": "tapasmallplates", "title": "Tapas/Small Plates"}], "display_phone": "(347) 987-3055", "phone": "+13479873055", "id": "WjoxZN23w9rwMF-bsYDcRw", "is_closed": false, "location": {"city": "Brooklyn", "display_address": ["686 6th Ave", "Brooklyn, NY 11215"], "country": "US", "address2": "", "address3": null, "state": "NY", "address1": "686 6th Ave", "zip_code": "11215"}}, {"rating": 4.0, "review_count": 279, "name": "jeatjet?", "transactions": ["delivery", "pickup"], "url": "https://www.yelp.com/biz/jeatjet-brooklyn?adjust_creative=yhLoLzsNXKw40xZ5RCWPpA&utm_campaign=yelp_api_v3&utm_medium=api_v3_business_search&utm_source=yhLoLzsNXKw40xZ5RCWPpA", "price": "$$", "distance": 1468.0358497656555, "coordinates": {"latitude": 40.661421, "longitude": -73.992948}, "alias": "jeatjet-brooklyn", "image_url": "https://s3-media1.fl.yelpcdn.com/bphoto/3iYEfdg8RY2zCqXwQZxc2Q/o.jpg", "categories": [{"alias": "gastropubs", "title": "Gastropubs"}, {"alias": "breakfast_brunch", "title": "Breakfast & Brunch"}, {"alias": "cocktailbars", "title": "Cocktail Bars"}], "display_phone": "(347) 227-7410", "phone": "+13472277410", "id": "FC6TeKytD8-eyF2zlXJ--A", "is_closed": false, "location": {"city": "Brooklyn", "display_address": ["685 5th Ave", "Brooklyn, NY 11215"], "country": "US", "address2": "", "address3": "", "state": "NY", "address1": "685 5th Ave", "zip_code": "11215"}}, {"rating": 4.0, "review_count": 87, "name": "Quarter", "transactions": [], "url": "https://www.yelp.com/biz/quarter-brooklyn?adjust_creative=yhLoLzsNXKw40xZ5RCWPpA&utm_campaign=yelp_api_v3&utm_medium=api_v3_business_search&utm_source=yhLoLzsNXKw40xZ5RCWPpA", "price": "$$", "distance": 1505.450342242053, "coordinates": {"latitude": 40.6618799, "longitude": -73.99314}, "alias": "quarter-brooklyn", "image_url": "https://s3-media3.fl.yelpcdn.com/bphoto/lP0tx9fsMAkxyM_SU5kmxQ/o.jpg", "categories": [{"alias": "cocktailbars", "title": "Cocktail Bars"}], "display_phone": "(718) 788-0989", "phone": "+17187880989", "id": "_5dovFoqS-xKkjSUTcIDVg", "is_closed": false, "location": {"city": "Brooklyn", "display_address": ["676 5th Ave", "Brooklyn, NY 11215"], "country": "US", "address2": "", "address3": "", "state": "NY", "address1": "676 5th Ave", "zip_code": "11215"}}, {"rating": 3.5, "review_count": 81, "name": "Brooklyn Pub", "transactions": ["delivery", "pickup"], "url": "https://www.yelp.com/biz/brooklyn-pub-brooklyn?adjust_creative=yhLoLzsNXKw40xZ5RCWPpA&utm_campaign=yelp_api_v3&utm_medium=api_v3_business_search&utm_source=yhLoLzsNXKw40xZ5RCWPpA", "price": "$$", "distance": 1511.2709847417782, "coordinates": {"latitude": 40.660548, "longitude": -73.990358}, "alias": "brooklyn-pub-brooklyn", "image_url": "https://s3-media3.fl.yelpcdn.com/bphoto/TW2yRdNoea0HJC4uqqDNyA/o.jpg", "categories": [{"alias": "sportsbars", "title": "Sports Bars"}, {"alias": "pubs", "title": "Pubs"}, {"alias": "tradamerican", "title": "American (Traditional)"}], "display_phone": "(718) 369-0088", "phone": "+17183690088", "id": "fj0znZr-YAIPu2-Msyp8NA", "is_closed": false, "location": {"city": "Brooklyn", "display_address": ["689 6th Ave", "Brooklyn, NY 11215"], "country": "US", "address2": "", "address3": "", "state": "NY", "address1": "689 6th Ave", "zip_code": "11215"}}, {"rating": 3.5, "review_count": 382, "name": "Greenwood Park", "transactions": [], "url": "https://www.yelp.com/biz/greenwood-park-brooklyn?adjust_creative=yhLoLzsNXKw40xZ5RCWPpA&utm_campaign=yelp_api_v3&utm_medium=api_v3_business_search&utm_source=yhLoLzsNXKw40xZ5RCWPpA", "price": "$$", "distance": 1556.2276506593666, "coordinates": {"latitude": 40.659353, "longitude": -73.987894}, "alias": "greenwood-park-brooklyn", "image_url": "https://s3-media2.fl.yelpcdn.com/bphoto/nvw9PEIyu29tMJCdV7znGw/o.jpg", "categories": [{"alias": "salad", "title": "Salad"}, {"alias": "cocktailbars", "title": "Cocktail Bars"}, {"alias": "sandwiches", "title": "Sandwiches"}], "display_phone": "(718) 499-7999", "phone": "+17184997999", "id": "hPJ7x8rfSsJ4ObgHeAK5kg", "is_closed": false, "location": {"city": "Brooklyn", "display_address": ["555 7th Ave", "Brooklyn, NY 11215"], "country": "US", "address2": "", "address3": "", "state": "NY", "address1": "555 7th Ave", "zip_code": "11215"}}, {"rating": 4.0, "review_count": 70, "name": "Irish Haven", "transactions": [], "url": "https://www.yelp.com/biz/irish-haven-brooklyn?adjust_creative=yhLoLzsNXKw40xZ5RCWPpA&utm_campaign=yelp_api_v3&utm_medium=api_v3_business_search&utm_source=yhLoLzsNXKw40xZ5RCWPpA", "price": "$", "distance": 1570.930880817927, "coordinates": {"latitude": 40.641891, "longitude": -74.016845}, "alias": "irish-haven-brooklyn", "image_url": "https://s3-media4.fl.yelpcdn.com/bphoto/h-YHOqRinOEyDZA36vkHKw/o.jpg", "categories": [{"alias": "pubs", "title": "Pubs"}], "display_phone": "(718) 439-9893", "phone": "+17184399893", "id": "ZtCD7e_LlW-pwEUY6bvusQ", "is_closed": false, "location": {"city": "Brooklyn", "display_address": ["5721 4th Ave", "Brooklyn, NY 11220"], "country": "US", "address2": "", "address3": "", "state": "NY", "address1": "5721 4th Ave", "zip_code": "11220"}}, {"rating": 4.5, "review_count": 38, "name": "Tambour", "transactions": ["delivery", "pickup"], "url": "https://www.yelp.com/biz/tambour-brooklyn-3?adjust_creative=yhLoLzsNXKw40xZ5RCWPpA&utm_campaign=yelp_api_v3&utm_medium=api_v3_business_search&utm_source=yhLoLzsNXKw40xZ5RCWPpA", "price": "$$$", "distance": 1589.9348597489961, "coordinates": {"latitude": 40.66248, "longitude": -73.9925}, "alias": "tambour-brooklyn-3", "image_url": "https://s3-media4.fl.yelpcdn.com/bphoto/fI8KRR7nuQPtZUgCmS9OIg/o.jpg", "categories": [{"alias": "wine_bars", "title": "Wine Bars"}, {"alias": "jazzandblues", "title": "Jazz & Blues"}, {"alias": "mediterranean", "title": "Mediterranean"}], "display_phone": "(347) 916-1747", "phone": "+13479161747", "id": "eT39RKlQ8i5Z4ml0ZwUK-Q", "is_closed": false, "location": {"city": "Brooklyn", "display_address": ["652 5th Ave", "Brooklyn, NY 11215"], "country": "US", "address2": "", "address3": null, "state": "NY", "address1": "652 5th Ave", "zip_code": "11215"}}, {"rating": 5.0, "review_count": 1, "name": "The canteen on 13", "transactions": [], "url": "https://www.yelp.com/biz/the-canteen-on-13-brooklyn?adjust_creative=yhLoLzsNXKw40xZ5RCWPpA&utm_campaign=yelp_api_v3&utm_medium=api_v3_business_search&utm_source=yhLoLzsNXKw40xZ5RCWPpA", "distance": 1631.3918629199977, "coordinates": {"latitude": 40.64111, "longitude": -73.9860099}, "alias": "the-canteen-on-13-brooklyn", "image_url": "https://s3-media2.fl.yelpcdn.com/bphoto/akH-QZtiKm7rte8sA3gttw/o.jpg", "categories": [{"alias": "kosher", "title": "Kosher"}, {"alias": "vegetarian", "title": "Vegetarian"}, {"alias": "beerbar", "title": "Beer Bar"}], "display_phone": "(718) 425-0009", "phone": "+17184250009", "id": "cjNmXMee8rMr7NAY6zqUcg", "is_closed": false, "location": {"city": "Brooklyn", "display_address": ["3808 13th Ave", "Brooklyn, NY 11218"], "country": "US", "address2": null, "address3": "", "state": "NY", "address1": "3808 13th Ave", "zip_code": "11218"}}, {"rating": 2.5, "review_count": 26, "name": "The Brooklyn Hangar", "transactions": [], "url": "https://www.yelp.com/biz/the-brooklyn-hangar-brooklyn?adjust_creative=yhLoLzsNXKw40xZ5RCWPpA&utm_campaign=yelp_api_v3&utm_medium=api_v3_business_search&utm_source=yhLoLzsNXKw40xZ5RCWPpA", "price": "$$", "distance": 1660.1446388601807, "coordinates": {"latitude": 40.6498549, "longitude": -74.0212302}, "alias": "the-brooklyn-hangar-brooklyn", "image_url": "https://s3-media3.fl.yelpcdn.com/bphoto/rzqygQ36hZEl4QyGZ6d9xQ/o.jpg", "categories": [{"alias": "musicvenues", "title": "Music Venues"}, {"alias": "venues", "title": "Venues & Event Spaces"}], "display_phone": "(718) 492-0800", "phone": "+17184920800", "id": "pUF3o6dzFTGOAmVJPhvK1Q", "is_closed": false, "location": {"city": "Brooklyn", "display_address": ["2 52nd St", "Brooklyn, NY 11232"], "country": "US", "address2": "", "address3": "", "state": "NY", "address1": "2 52nd St", "zip_code": "11232"}}, {"rating": 4.5, "review_count": 154, "name": "South", "transactions": [], "url": "https://www.yelp.com/biz/south-brooklyn?adjust_creative=yhLoLzsNXKw40xZ5RCWPpA&utm_campaign=yelp_api_v3&utm_medium=api_v3_business_search&utm_source=yhLoLzsNXKw40xZ5RCWPpA", "price": "$", "distance": 1708.264155664474, "coordinates": {"latitude": 40.66313, "longitude": -73.99117}, "alias": "south-brooklyn", "image_url": "https://s3-media1.fl.yelpcdn.com/bphoto/AqoQeGSpno8EUCywlfmwAA/o.jpg", "categories": [{"alias": "bars", "title": "Bars"}], "display_phone": "(718) 832-4720", "phone": "+17188324720", "id": "4CheGhBNFK8KBbsVEhYJKA", "is_closed": false, "location": {"city": "Brooklyn", "display_address": ["629 5th Ave", "Brooklyn, NY 11215"], "country": "US", "address2": "", "address3": "", "state": "NY", "address1": "629 5th Ave", "zip_code": "11215"}}, {"rating": 4.5, "review_count": 201, "name": "Freddy's Bar", "transactions": [], "url": "https://www.yelp.com/biz/freddys-bar-brooklyn-2?adjust_creative=yhLoLzsNXKw40xZ5RCWPpA&utm_campaign=yelp_api_v3&utm_medium=api_v3_business_search&utm_source=yhLoLzsNXKw40xZ5RCWPpA", "price": "$", "distance": 1718.8608016457733, "coordinates": {"latitude": 40.6631969, "longitude": -73.991061}, "alias": "freddys-bar-brooklyn-2", "image_url": "https://s3-media2.fl.yelpcdn.com/bphoto/JIBO0-7oWVsgvJvIoQOEow/o.jpg", "categories": [{"alias": "bars", "title": "Bars"}, {"alias": "musicvenues", "title": "Music Venues"}], "display_phone": "(718) 768-0131", "phone": "+17187680131", "id": "HhXM_ZKngz5oY6Hhjo8MqA", "is_closed": false, "location": {"city": "Brooklyn", "display_address": ["627 5th Ave", "Brooklyn, NY 11215"], "country": "US", "address2": "", "address3": "", "state": "NY", "address1": "627 5th Ave", "zip_code": "11215"}}, {"rating": 3.5, "review_count": 3, "name": "Night Degree Suite & Lounge", "transactions": [], "url": "https://www.yelp.com/biz/night-degree-suite-and-lounge-brooklyn?adjust_creative=yhLoLzsNXKw40xZ5RCWPpA&utm_campaign=yelp_api_v3&utm_medium=api_v3_business_search&utm_source=yhLoLzsNXKw40xZ5RCWPpA", "price": "$$", "distance": 1737.7934183110247, "coordinates": {"latitude": 40.63647, "longitude": -74.01191}, "alias": "night-degree-suite-and-lounge-brooklyn", "image_url": "https://s3-media3.fl.yelpcdn.com/bphoto/CYKcSBtVLiZPZbDdnK0bRA/o.jpg", "categories": [{"alias": "karaoke", "title": "Karaoke"}], "display_phone": "(646) 338-5901", "phone": "+16463385901", "id": "o1AVKwqQmgvgK70VB7LjZw", "is_closed": false, "location": {"city": "Brooklyn", "display_address": ["6011 7th Ave", "Brooklyn, NY 11220"], "country": "US", "address2": null, "address3": null, "state": "NY", "address1": "6011 7th Ave", "zip_code": "11220"}}, {"rating": 1.5, "review_count": 28, "name": "DC KTV", "transactions": [], "url": "https://www.yelp.com/biz/dc-ktv-brooklyn-2?adjust_creative=yhLoLzsNXKw40xZ5RCWPpA&utm_campaign=yelp_api_v3&utm_medium=api_v3_business_search&utm_source=yhLoLzsNXKw40xZ5RCWPpA", "price": "$$$", "distance": 1757.5595266060984, "coordinates": {"latitude": 40.63609, "longitude": -74.01165}, "alias": "dc-ktv-brooklyn-2", "image_url": "https://s3-media3.fl.yelpcdn.com/bphoto/Fn6sQdMIa5Qhk9fYvjTqGQ/o.jpg", "categories": [{"alias": "karaoke", "title": "Karaoke"}, {"alias": "lounges", "title": "Lounges"}], "display_phone": "(718) 853-5888", "phone": "+17188535888", "id": "jnRnP2jMBaBYjAvTkPVfQw", "is_closed": false, "location": {"city": "Brooklyn", "display_address": ["715 61th St", "Brooklyn, NY 11220"], "country": "US", "address2": "", "address3": "", "state": "NY", "address1": "715 61th St", "zip_code": "11220"}}, {"rating": 4.0, "review_count": 25, "name": "Soccer Tavern", "transactions": [], "url": "https://www.yelp.com/biz/soccer-tavern-brooklyn?adjust_creative=yhLoLzsNXKw40xZ5RCWPpA&utm_campaign=yelp_api_v3&utm_medium=api_v3_business_search&utm_source=yhLoLzsNXKw40xZ5RCWPpA", "price": "$", "distance": 1759.8902943213538, "coordinates": {"latitude": 40.63547, "longitude": -74.0099}, "alias": "soccer-tavern-brooklyn", "image_url": "https://s3-media2.fl.yelpcdn.com/bphoto/vLg6D8J7-Ee08GDiAHBl0A/o.jpg", "categories": [{"alias": "irish_pubs", "title": "Irish Pub"}], "display_phone": "(718) 439-9336", "phone": "+17184399336", "id": "2I9PQUYfevd27rl3BtfWEg", "is_closed": false, "location": {"city": "Brooklyn", "display_address": ["6004 8th Ave", "Brooklyn, NY 11220"], "country": "US", "address2": "", "address3": "", "state": "NY", "address1": "6004 8th Ave", "zip_code": "11220"}}, {"rating": 3.5, "review_count": 12, "name": "El Sabor Latino Restaurant", "transactions": [], "url": "https://www.yelp.com/biz/el-sabor-latino-restaurant-brooklyn-2?adjust_creative=yhLoLzsNXKw40xZ5RCWPpA&utm_campaign=yelp_api_v3&utm_medium=api_v3_business_search&utm_source=yhLoLzsNXKw40xZ5RCWPpA", "price": "$", "distance": 1780.1363323615808, "coordinates": {"latitude": 40.6647638, "longitude": -73.9938216}, "alias": "el-sabor-latino-restaurant-brooklyn-2", "image_url": "https://s3-media3.fl.yelpcdn.com/bphoto/W0naBrwngmfUOsy3wJksAw/o.jpg", "categories": [{"alias": "mexican", "title": "Mexican"}, {"alias": "latin", "title": "Latin American"}, {"alias": "beerbar", "title": "Beer Bar"}], "display_phone": "(718) 788-9063", "phone": "+17187889063", "id": "iEvK-vJz9S9DIy25SnUT4g", "is_closed": false, "location": {"city": "Brooklyn", "display_address": ["620 4th Ave", "Brooklyn, NY 11215"], "country": "US", "address2": "", "address3": "", "state": "NY", "address1": "620 4th Ave", "zip_code": "11215"}}, {"rating": 3.5, "review_count": 70, "name": "Brooklyn Bavarian Biergarten", "transactions": [], "url": "https://www.yelp.com/biz/brooklyn-bavarian-biergarten-brooklyn-2?adjust_creative=yhLoLzsNXKw40xZ5RCWPpA&utm_campaign=yelp_api_v3&utm_medium=api_v3_business_search&utm_source=yhLoLzsNXKw40xZ5RCWPpA", "price": "$$", "distance": 1822.7294670078475, "coordinates": {"latitude": 40.6636265, "longitude": -73.9896502}, "alias": "brooklyn-bavarian-biergarten-brooklyn-2", "image_url": "https://s3-media2.fl.yelpcdn.com/bphoto/XGT-DS9dhX9eByLieeLWZg/o.jpg", "categories": [{"alias": "beergardens", "title": "Beer Gardens"}, {"alias": "german", "title": "German"}], "display_phone": "(718) 788-0400", "phone": "+17187880400", "id": "1RMzEMaCXK9ItRSBTHkh5g", "is_closed": false, "location": {"city": "Brooklyn", "display_address": ["265 Prospect Ave", "Brooklyn, NY 11215"], "country": "US", "address2": "", "address3": "", "state": "NY", "address1": "265 Prospect Ave", "zip_code": "11215"}}, {"rating": 2.5, "review_count": 16, "name": "Cafe Mix Karaoke Lounge", "transactions": [], "url": "https://www.yelp.com/biz/cafe-mix-karaoke-lounge-brooklyn-2?adjust_creative=yhLoLzsNXKw40xZ5RCWPpA&utm_campaign=yelp_api_v3&utm_medium=api_v3_business_search&utm_source=yhLoLzsNXKw40xZ5RCWPpA", "price": "$", "distance": 1832.830692750964, "coordinates": {"latitude": 40.63564, "longitude": -74.01156}, "alias": "cafe-mix-karaoke-lounge-brooklyn-2", "image_url": "https://s3-media2.fl.yelpcdn.com/bphoto/HB5j8GuWO8NLmD2ZM5J6SA/o.jpg", "categories": [{"alias": "karaoke", "title": "Karaoke"}, {"alias": "sportsbars", "title": "Sports Bars"}], "display_phone": "(718) 492-4131", "phone": "+17184924131", "id": "EBBiZ-zP-dNz8NN81Yn5kw", "is_closed": false, "location": {"city": "Brooklyn", "display_address": ["730 61st St", "Brooklyn, NY 11220"], "country": "US", "address2": null, "address3": null, "state": "NY", "address1": "730 61st St", "zip_code": "11220"}}, {"rating": 4.5, "review_count": 5, "name": "Depot 52", "transactions": [], "url": "https://www.yelp.com/biz/depot-52-brooklyn?adjust_creative=yhLoLzsNXKw40xZ5RCWPpA&utm_campaign=yelp_api_v3&utm_medium=api_v3_business_search&utm_source=yhLoLzsNXKw40xZ5RCWPpA", "distance": 1838.604770727525, "coordinates": {"latitude": 40.6507862137147, "longitude": -74.0233178600483}, "alias": "depot-52-brooklyn", "image_url": "https://s3-media2.fl.yelpcdn.com/bphoto/uN5QjA2z2VWid9OVjUADRg/o.jpg", "categories": [{"alias": "musicvenues", "title": "Music Venues"}], "display_phone": "(347) 699-5258", "phone": "+13476995258", "id": "VKtCeVG0Nvg0JVfoxNHNIw", "is_closed": false, "location": {"city": "Brooklyn", "display_address": ["7 52nd St", "Brooklyn, NY 11232"], "country": "US", "address2": "", "address3": null, "state": "NY", "address1": "7 52nd St", "zip_code": "11232"}}, {"rating": 4.0, "review_count": 9, "name": "The Grumpy Cat Bar", "transactions": [], "url": "https://www.yelp.com/biz/the-grumpy-cat-bar-brooklyn?adjust_creative=yhLoLzsNXKw40xZ5RCWPpA&utm_campaign=yelp_api_v3&utm_medium=api_v3_business_search&utm_source=yhLoLzsNXKw40xZ5RCWPpA", "price": "$$", "distance": 1867.0035329487655, "coordinates": {"latitude": 40.63841, "longitude": -74.01765}, "alias": "the-grumpy-cat-bar-brooklyn", "image_url": "https://s3-media2.fl.yelpcdn.com/bphoto/P6Z03ntU_XHJ4Aon2DJtkQ/o.jpg", "categories": [{"alias": "divebars", "title": "Dive Bars"}], "display_phone": "(929) 337-7622", "phone": "+19293377622", "id": "TZhBZebTaC-oMOLSwtfl8w", "is_closed": false, "location": {"city": "Brooklyn", "display_address": ["480 62nd St", "Brooklyn, NY 11220"], "country": "US", "address2": "", "address3": null, "state": "NY", "address1": "480 62nd St", "zip_code": "11220"}}, {"rating": 4.0, "review_count": 6, "name": "Feeney's Pub", "transactions": [], "url": "https://www.yelp.com/biz/feeneys-pub-brooklyn?adjust_creative=yhLoLzsNXKw40xZ5RCWPpA&utm_campaign=yelp_api_v3&utm_medium=api_v3_business_search&utm_source=yhLoLzsNXKw40xZ5RCWPpA", "price": "$$$", "distance": 1868.7315737700021, "coordinates": {"latitude": 40.63818, "longitude": -74.01731}, "alias": "feeneys-pub-brooklyn", "image_url": "https://s3-media1.fl.yelpcdn.com/bphoto/zvpJtvlhMbZGxAlxDdoGfw/o.jpg", "categories": [{"alias": "pubs", "title": "Pubs"}], "display_phone": "(718) 567-0067", "phone": "+17185670067", "id": "9vk2axKIQRAHhCGQxkh4SA", "is_closed": false, "location": {"city": "Brooklyn", "display_address": ["6201 5th Ave", "Brooklyn, NY 11226"], "country": "US", "address2": "", "address3": "", "state": "NY", "address1": "6201 5th Ave", "zip_code": "11226"}}, {"rating": 2.5, "review_count": 231, "name": "100 Fun", "transactions": [], "url": "https://www.yelp.com/biz/100-fun-brooklyn?adjust_creative=yhLoLzsNXKw40xZ5RCWPpA&utm_campaign=yelp_api_v3&utm_medium=api_v3_business_search&utm_source=yhLoLzsNXKw40xZ5RCWPpA", "price": "$$", "distance": 1888.0052877826254, "coordinates": {"latitude": 40.6335, "longitude": -74.00657}, "alias": "100-fun-brooklyn", "image_url": "https://s3-media3.fl.yelpcdn.com/bphoto/MnXDcb8MzxDL7vm1Gs5x6Q/o.jpg", "categories": [{"alias": "karaoke", "title": "Karaoke"}, {"alias": "bars", "title": "Bars"}], "display_phone": "(718) 436-8883", "phone": "+17184368883", "id": "ygy0MjMKvk_Nn0xhrSoPCw", "is_closed": false, "location": {"city": "Brooklyn", "display_address": ["932 60th St", "Brooklyn, NY 11219"], "country": "US", "address2": "", "address3": "", "state": "NY", "address1": "932 60th St", "zip_code": "11219"}}, {"rating": 3.0, "review_count": 8, "name": "The Legend KTV", "transactions": [], "url": "https://www.yelp.com/biz/the-legend-ktv-brooklyn-3?adjust_creative=yhLoLzsNXKw40xZ5RCWPpA&utm_campaign=yelp_api_v3&utm_medium=api_v3_business_search&utm_source=yhLoLzsNXKw40xZ5RCWPpA", "price": "$$$$", "distance": 1902.7144179207721, "coordinates": {"latitude": 40.6333093, "longitude": -74.0068324}, "alias": "the-legend-ktv-brooklyn-3", "image_url": "https://s3-media3.fl.yelpcdn.com/bphoto/NAZflzSVhz2t9GQ-jJDHjg/o.jpg", "categories": [{"alias": "karaoke", "title": "Karaoke"}], "display_phone": "(718) 686-1888", "phone": "+17186861888", "id": "UVDF9SPUshU1U_pSzFAJMg", "is_closed": false, "location": {"city": "Brooklyn", "display_address": ["947 61st St", "Brooklyn, NY 11219"], "country": "US", "address2": null, "address3": "", "state": "NY", "address1": "947 61st St", "zip_code": "11219"}}, {"rating": 4.0, "review_count": 109, "name": "Buttermilk Bar", "transactions": [], "url": "https://www.yelp.com/biz/buttermilk-bar-brooklyn?adjust_creative=yhLoLzsNXKw40xZ5RCWPpA&utm_campaign=yelp_api_v3&utm_medium=api_v3_business_search&utm_source=yhLoLzsNXKw40xZ5RCWPpA", "price": "$", "distance": 1928.1218984605898, "coordinates": {"latitude": 40.66476, "longitude": -73.989658}, "alias": "buttermilk-bar-brooklyn", "image_url": "https://s3-media3.fl.yelpcdn.com/bphoto/T3bCqlaotq8WQkzLpoHQEA/o.jpg", "categories": [{"alias": "pubs", "title": "Pubs"}], "display_phone": "(718) 788-6297", "phone": "+17187886297", "id": "2ClkHmHOG_m5EuHTt-l_Ig", "is_closed": false, "location": {"city": "Brooklyn", "display_address": ["577 5th Ave", "Brooklyn, NY 11215"], "country": "US", "address2": "", "address3": "", "state": "NY", "address1": "577 5th Ave", "zip_code": "11215"}}, {"rating": 4.0, "review_count": 172, "name": "Black Horse Pub", "transactions": [], "url": "https://www.yelp.com/biz/black-horse-pub-brooklyn-2?adjust_creative=yhLoLzsNXKw40xZ5RCWPpA&utm_campaign=yelp_api_v3&utm_medium=api_v3_business_search&utm_source=yhLoLzsNXKw40xZ5RCWPpA", "price": "$$", "distance": 1954.492931851215, "coordinates": {"latitude": 40.66518, "longitude": -73.989997}, "alias": "black-horse-pub-brooklyn-2", "image_url": "https://s3-media1.fl.yelpcdn.com/bphoto/ckj46OBiqH7--J6ZBZvUbQ/o.jpg", "categories": [{"alias": "pubs", "title": "Pubs"}, {"alias": "newamerican", "title": "American (New)"}], "display_phone": "(718) 788-1975", "phone": "+17187881975", "id": "AMXOlur-z5DXBeyri9b-Hg", "is_closed": false, "location": {"city": "Brooklyn", "display_address": ["568 5th Ave", "Brooklyn, NY 11215"], "country": "US", "address2": "", "address3": "", "state": "NY", "address1": "568 5th Ave", "zip_code": "11215"}}, {"rating": 3.5, "review_count": 432, "name": "Sidecar", "transactions": ["delivery", "pickup"], "url": "https://www.yelp.com/biz/sidecar-brooklyn-3?adjust_creative=yhLoLzsNXKw40xZ5RCWPpA&utm_campaign=yelp_api_v3&utm_medium=api_v3_business_search&utm_source=yhLoLzsNXKw40xZ5RCWPpA", "price": "$$", "distance": 1988.1521962407014, "coordinates": {"latitude": 40.665421, "longitude": -73.989748}, "alias": "sidecar-brooklyn-3", "image_url": "https://s3-media3.fl.yelpcdn.com/bphoto/eqBZJku1-KaA8P6VLlh5Mw/o.jpg", "categories": [{"alias": "newamerican", "title": "American (New)"}, {"alias": "cocktailbars", "title": "Cocktail Bars"}], "display_phone": "(718) 369-0077", "phone": "+17183690077", "id": "zee3qxLz2jHJumDEL6EitA", "is_closed": false, "location": {"city": "Brooklyn", "display_address": ["560 5th Ave", "Brooklyn, NY 11215"], "country": "US", "address2": "", "address3": "", "state": "NY", "address1": "560 5th Ave", "zip_code": "11215"}}, {"rating": 3.5, "review_count": 22, "name": "FireLounge DD", "transactions": [], "url": "https://www.yelp.com/biz/firelounge-dd-brooklyn?adjust_creative=yhLoLzsNXKw40xZ5RCWPpA&utm_campaign=yelp_api_v3&utm_medium=api_v3_business_search&utm_source=yhLoLzsNXKw40xZ5RCWPpA", "price": "$$", "distance": 1990.2433427233102, "coordinates": {"latitude": 40.667007, "longitude": -73.994422}, "alias": "firelounge-dd-brooklyn", "image_url": "https://s3-media4.fl.yelpcdn.com/bphoto/RWLaFwKvzNMT5ally-pOvQ/o.jpg", "categories": [{"alias": "hookah_bars", "title": "Hookah Bars"}, {"alias": "lounges", "title": "Lounges"}], "display_phone": "(347) 661-0542", "phone": "+13476610542", "id": "Icmkzo9IWNW-S2j5co-XDA", "is_closed": false, "location": {"city": "Brooklyn", "display_address": ["593 3rd Ave", "Brooklyn, NY 11215"], "country": "US", "address2": null, "address3": "", "state": "NY", "address1": "593 3rd Ave", "zip_code": "11215"}}, {"rating": 3.5, "review_count": 14, "name": "Excelsior", "transactions": [], "url": "https://www.yelp.com/biz/excelsior-brooklyn-4?adjust_creative=yhLoLzsNXKw40xZ5RCWPpA&utm_campaign=yelp_api_v3&utm_medium=api_v3_business_search&utm_source=yhLoLzsNXKw40xZ5RCWPpA", "price": "$$", "distance": 1990.5898823338205, "coordinates": {"latitude": 40.6652781735102, "longitude": -73.9893723815337}, "alias": "excelsior-brooklyn-4", "image_url": "https://s3-media3.fl.yelpcdn.com/bphoto/6INQ2VJFnUNnShw5eHcpEg/o.jpg", "categories": [{"alias": "gaybars", "title": "Gay Bars"}], "display_phone": "(718) 788-2710", "phone": "+17187882710", "id": "UYU_VgeOJNerCFE2e1InlQ", "is_closed": false, "location": {"city": "Brooklyn", "display_address": ["563 5th Ave", "Brooklyn, NY 11215"], "country": "US", "address2": "", "address3": "", "state": "NY", "address1": "563 5th Ave", "zip_code": "11215"}}, {"rating": 4.5, "review_count": 35, "name": "Jake's Handcrafted", "transactions": [], "url": "https://www.yelp.com/biz/jakes-handcrafted-south-slope?adjust_creative=yhLoLzsNXKw40xZ5RCWPpA&utm_campaign=yelp_api_v3&utm_medium=api_v3_business_search&utm_source=yhLoLzsNXKw40xZ5RCWPpA", "price": "$$", "distance": 2002.5089326926307, "coordinates": {"latitude": 40.66536, "longitude": -73.98929}, "alias": "jakes-handcrafted-south-slope", "image_url": "https://s3-media1.fl.yelpcdn.com/bphoto/bHXMj_XYTJeB8tiX2E4IIw/o.jpg", "categories": [{"alias": "bars", "title": "Bars"}], "display_phone": "(718) 788-0789", "phone": "+17187880789", "id": "Kuu7SYp5N-fGGmAMV6LxBQ", "is_closed": false, "location": {"city": "South Slope", "display_address": ["559 5th Ave", "South Slope, NY 11215"], "country": "US", "address2": "", "address3": "", "state": "NY", "address1": "559 5th Ave", "zip_code": "11215"}}, {"rating": 3.5, "review_count": 66, "name": "Rhythm & Booze", "transactions": [], "url": "https://www.yelp.com/biz/rhythm-and-booze-brooklyn?adjust_creative=yhLoLzsNXKw40xZ5RCWPpA&utm_campaign=yelp_api_v3&utm_medium=api_v3_business_search&utm_source=yhLoLzsNXKw40xZ5RCWPpA", "price": "$$", "distance": 2045.407664513893, "coordinates": {"latitude": 40.65773, "longitude": -73.97964}, "alias": "rhythm-and-booze-brooklyn", "image_url": "https://s3-media3.fl.yelpcdn.com/bphoto/y8zngoczxXrI5Trj4Vt7Mg/o.jpg", "categories": [{"alias": "sportsbars", "title": "Sports Bars"}, {"alias": "tradamerican", "title": "American (Traditional)"}], "display_phone": "(718) 788-9699", "phone": "+17187889699", "id": "UuZkzlLVeeyvBA9DwVsZOA", "is_closed": false, "location": {"city": "Brooklyn", "display_address": ["1674 10th Ave", "Brooklyn, NY 11215"], "country": "US", "address2": "", "address3": "", "state": "NY", "address1": "1674 10th Ave", "zip_code": "11215"}}]}