{"region": {"center": {"latitude": 40.6299327306, "longitude": -73.9826840915}}, "total": 952, "businesses": [{"rating": 4.0, "review_count": 51, "name": "Old Baku", "transactions": [], "url": "https://www.yelp.com/biz/old-baku-brooklyn?adjust_creative=yhLoLzsNXKw40xZ5RCWPpA&utm_campaign=yelp_api_v3&utm_medium=api_v3_business_search&utm_source=yhLoLzsNXKw40xZ5RCWPpA", "price": "$$", "distance": 791.6736632899384, "coordinates": {"latitude": 40.635906, "longitude": -73.977561}, "alias": "old-baku-brooklyn", "image_url": "https://s3-media2.fl.yelpcdn.com/bphoto/dbfN56_hXF9e47Rc7ZvBiQ/o.jpg", "categories": [{"alias": "mideastern", "title": "Middle Eastern"}, {"alias": "russian", "title": "Russian"}, {"alias": "hookah_bars", "title": "Hookah Bars"}], "display_phone": "(718) 576-6399", "phone": "+17185766399", "id": "cAcazXWgluB_2-n0KbDQXQ", "is_closed": false, "location": {"city": "Brooklyn", "display_address": ["115 Ditmas Ave", "Brooklyn, NY 11218"], "country": "US", "address2": "", "address3": "", "state": "NY", "address1": "115 Ditmas Ave", "zip_code": "11218"}}, {"rating": 4.0, "review_count": 12, "name": "Starlite Lounge", "transactions": [], "url": "https://www.yelp.com/biz/starlite-lounge-brooklyn?adjust_creative=yhLoLzsNXKw40xZ5RCWPpA&utm_campaign=yelp_api_v3&utm_medium=api_v3_business_search&utm_source=yhLoLzsNXKw40xZ5RCWPpA", "price": "$", "distance": 908.4578213239774, "coordinates": {"latitude": 40.62376, "longitude": -73.97563}, "alias": "starlite-lounge-brooklyn", "image_url": "https://s3-media2.fl.yelpcdn.com/bphoto/F7ef8u8guo9heVvcIcZNjw/o.jpg", "categories": [{"alias": "divebars", "title": "Dive Bars"}], "display_phone": "(718) 252-2435", "phone": "+17182522435", "id": "7W-hzZxyeqhJxGF6eOJzGg", "is_closed": false, "location": {"city": "Brooklyn", "display_address": ["1213 McDonald Ave", "Brooklyn, NY 11230"], "country": "US", "address2": null, "address3": "", "state": "NY", "address1": "1213 McDonald Ave", "zip_code": "11230"}}, {"rating": 5.0, "review_count": 1, "name": "Panache Nightclub", "transactions": [], "url": "https://www.yelp.com/biz/panache-nightclub-brooklyn?adjust_creative=yhLoLzsNXKw40xZ5RCWPpA&utm_campaign=yelp_api_v3&utm_medium=api_v3_business_search&utm_source=yhLoLzsNXKw40xZ5RCWPpA", "distance": 1185.5613152619078, "coordinates": {"latitude": 40.6240196, "longitude": -73.9943771}, "alias": "panache-nightclub-brooklyn", "image_url": "", "categories": [{"alias": "nightlife", "title": "Nightlife"}], "display_phone": "(718) 837-8990", "phone": "+17188378990", "id": "jtiuHznmJ1ZTzHj2bObQHA", "is_closed": false, "location": {"city": "Brooklyn", "display_address": ["1546 62nd St", "Brooklyn, NY 11219"], "country": "US", "address2": "", "address3": "", "state": "NY", "address1": "1546 62nd St", "zip_code": "11219"}}, {"rating": 5.0, "review_count": 1, "name": "The canteen on 13", "transactions": [], "url": "https://www.yelp.com/biz/the-canteen-on-13-brooklyn?adjust_creative=yhLoLzsNXKw40xZ5RCWPpA&utm_campaign=yelp_api_v3&utm_medium=api_v3_business_search&utm_source=yhLoLzsNXKw40xZ5RCWPpA", "distance": 1279.3880035995917, "coordinates": {"latitude": 40.64111, "longitude": -73.9860099}, "alias": "the-canteen-on-13-brooklyn", "image_url": "https://s3-media2.fl.yelpcdn.com/bphoto/akH-QZtiKm7rte8sA3gttw/o.jpg", "categories": [{"alias": "kosher", "title": "Kosher"}, {"alias": "vegetarian", "title": "Vegetarian"}, {"alias": "beerbar", "title": "Beer Bar"}], "display_phone": "(718) 425-0009", "phone": "+17184250009", "id": "cjNmXMee8rMr7NAY6zqUcg", "is_closed": false, "location": {"city": "Brooklyn", "display_address": ["3808 13th Ave", "Brooklyn, NY 11218"], "country": "US", "address2": null, "address3": "", "state": "NY", "address1": "3808 13th Ave", "zip_code": "11218"}}, {"rating": 2.0, "review_count": 7, "name": "Characters KTV", "transactions": [], "url": "https://www.yelp.com/biz/characters-ktv-brooklyn-4?adjust_creative=yhLoLzsNXKw40xZ5RCWPpA&utm_campaign=yelp_api_v3&utm_medium=api_v3_business_search&utm_source=yhLoLzsNXKw40xZ5RCWPpA", "price": "$", "distance": 1292.2063518844, "coordinates": {"latitude": 40.6183403454157, "longitude": -73.983759842813}, "alias": "characters-ktv-brooklyn-4", "image_url": "https://s3-media3.fl.yelpcdn.com/bphoto/RMUa8GdcF8_i1qdzrSO9Iw/o.jpg", "categories": [{"alias": "karaoke", "title": "Karaoke"}], "display_phone": "(718) 331-3881", "phone": "+17183313881", "id": "tWRkcdD-SLOYexD7UqOYuA", "is_closed": false, "location": {"city": "Brooklyn", "display_address": ["6117 20th Ave", "Brooklyn, NY 11204"], "country": "US", "address2": "", "address3": null, "state": "NY", "address1": "6117 20th Ave", "zip_code": "11204"}}, {"rating": 4.0, "review_count": 1, "name": "Prince Snooker Club", "transactions": [], "url": "https://www.yelp.com/biz/prince-snooker-club-brooklyn?adjust_creative=yhLoLzsNXKw40xZ5RCWPpA&utm_campaign=yelp_api_v3&utm_medium=api_v3_business_search&utm_source=yhLoLzsNXKw40xZ5RCWPpA", "price": "$$", "distance": 1408.980355366268, "coordinates": {"latitude": 40.61743, "longitude": -73.985398}, "alias": "prince-snooker-club-brooklyn", "image_url": "https://s3-media1.fl.yelpcdn.com/bphoto/S5TfOSHlxgtE7X1sUX3pUg/o.jpg", "categories": [{"alias": "poolhalls", "title": "Pool Halls"}], "display_phone": "(718) 621-1883", "phone": "+17186211883", "id": "GXN9UFYUdMvsPYWRpuasqw", "is_closed": false, "location": {"city": "Brooklyn", "display_address": ["6322 20th Ave", "Brooklyn, NY 11204"], "country": "US", "address2": "", "address3": "", "state": "NY", "address1": "6322 20th Ave", "zip_code": "11204"}}, {"rating": 4.0, "review_count": 147, "name": "Atlas Steakhouse", "transactions": [], "url": "https://www.yelp.com/biz/atlas-steakhouse-brooklyn?adjust_creative=yhLoLzsNXKw40xZ5RCWPpA&utm_campaign=yelp_api_v3&utm_medium=api_v3_business_search&utm_source=yhLoLzsNXKw40xZ5RCWPpA", "price": "$$$", "distance": 1419.2708377370136, "coordinates": {"latitude": 40.6343412, "longitude": -73.9671775}, "alias": "atlas-steakhouse-brooklyn", "image_url": "https://s3-media1.fl.yelpcdn.com/bphoto/XFelr-3wNDWK8rK465y7nQ/o.jpg", "categories": [{"alias": "steak", "title": "Steakhouses"}, {"alias": "bars", "title": "Bars"}, {"alias": "newamerican", "title": "American (New)"}], "display_phone": "(718) 940-9454", "phone": "+17189409454", "id": "xSIODrm5qMxgM4_ImEV88A", "is_closed": false, "location": {"city": "Brooklyn", "display_address": ["943 Coney Island Ave", "Brooklyn, NY 11230"], "country": "US", "address2": null, "address3": "", "state": "NY", "address1": "943 Coney Island Ave", "zip_code": "11230"}}, {"rating": 3.0, "review_count": 32, "name": "Denny's Pub", "transactions": [], "url": "https://www.yelp.com/biz/dennys-pub-brooklyn-2?adjust_creative=yhLoLzsNXKw40xZ5RCWPpA&utm_campaign=yelp_api_v3&utm_medium=api_v3_business_search&utm_source=yhLoLzsNXKw40xZ5RCWPpA", "price": "$", "distance": 1450.9389152216108, "coordinates": {"latitude": 40.6427213, "longitude": -73.9786335}, "alias": "dennys-pub-brooklyn-2", "image_url": "https://s3-media3.fl.yelpcdn.com/bphoto/uk0VMATcUmxFIWmCMjIuSA/o.jpg", "categories": [{"alias": "pubs", "title": "Pubs"}], "display_phone": "(718) 435-2156", "phone": "+17184352156", "id": "kU_nrNjP_dgbAxTfQi_1lA", "is_closed": false, "location": {"city": "Brooklyn", "display_address": ["106 Beverley Rd", "Brooklyn, NY 11218"], "country": "US", "address2": "", "address3": "", "state": "NY", "address1": "106 Beverley Rd", "zip_code": "11218"}}, {"rating": 4.5, "review_count": 6, "name": "B66 Club", "transactions": [], "url": "https://www.yelp.com/biz/b66-club-brooklyn?adjust_creative=yhLoLzsNXKw40xZ5RCWPpA&utm_campaign=yelp_api_v3&utm_medium=api_v3_business_search&utm_source=yhLoLzsNXKw40xZ5RCWPpA", "price": "$$", "distance": 1539.3652630900374, "coordinates": {"latitude": 40.622498421048, "longitude": -73.9980711042881}, "alias": "b66-club-brooklyn", "image_url": "https://s3-media3.fl.yelpcdn.com/bphoto/2geVwFv5cse9mEaZhYzHkA/o.jpg", "categories": [{"alias": "danceclubs", "title": "Dance Clubs"}, {"alias": "venues", "title": "Venues & Event Spaces"}], "display_phone": "(718) 331-0074", "phone": "+17183310074", "id": "puSUKmN5Ep1M2TTdLg5RqA", "is_closed": false, "location": {"city": "Brooklyn", "display_address": ["6612 New Utrecht Ave", "Brooklyn, NY 11219"], "country": "US", "address2": "", "address3": "", "state": "NY", "address1": "6612 New Utrecht Ave", "zip_code": "11219"}}, {"rating": 4.0, "review_count": 54, "name": "773 Lounge", "transactions": [], "url": "https://www.yelp.com/biz/773-lounge-brooklyn?adjust_creative=yhLoLzsNXKw40xZ5RCWPpA&utm_campaign=yelp_api_v3&utm_medium=api_v3_business_search&utm_source=yhLoLzsNXKw40xZ5RCWPpA", "price": "$", "distance": 1556.2031072481764, "coordinates": {"latitude": 40.6386879, "longitude": -73.9684367}, "alias": "773-lounge-brooklyn", "image_url": "https://s3-media3.fl.yelpcdn.com/bphoto/8nPLpbvTLQsBS27hKwI5fg/o.jpg", "categories": [{"alias": "sportsbars", "title": "Sports Bars"}, {"alias": "pubs", "title": "Pubs"}], "display_phone": "(718) 462-9746", "phone": "+17184629746", "id": "EdXfzD89c9tkfbIGUwI7Gg", "is_closed": false, "location": {"city": "Brooklyn", "display_address": ["773 Coney Island Ave", "Brooklyn, NY 11218"], "country": "US", "address2": "", "address3": "", "state": "NY", "address1": "773 Coney Island Ave", "zip_code": "11218"}}, {"rating": 4.0, "review_count": 172, "name": "Buffalo's Famous", "transactions": ["delivery", "pickup"], "url": "https://www.yelp.com/biz/buffalos-famous-brooklyn?adjust_creative=yhLoLzsNXKw40xZ5RCWPpA&utm_campaign=yelp_api_v3&utm_medium=api_v3_business_search&utm_source=yhLoLzsNXKw40xZ5RCWPpA", "price": "$", "distance": 1556.2031072481764, "coordinates": {"latitude": 40.6386879, "longitude": -73.9684367}, "alias": "buffalos-famous-brooklyn", "image_url": "https://s3-media1.fl.yelpcdn.com/bphoto/qgnlThnp4643TaaQ53qAIA/o.jpg", "categories": [{"alias": "chicken_wings", "title": "Chicken Wings"}, {"alias": "burgers", "title": "Burgers"}, {"alias": "bars", "title": "Bars"}], "display_phone": "(718) 462-9746", "phone": "+17184629746", "id": "zDtocZreqOXZAPWFJdrfig", "is_closed": false, "location": {"city": "Brooklyn", "display_address": ["773 Coney Island Ave", "Brooklyn, NY 11218"], "country": "US", "address2": "", "address3": "", "state": "NY", "address1": "773 Coney Island Ave", "zip_code": "11218"}}, {"rating": 3.5, "review_count": 55, "name": "Highbury Pub", "transactions": [], "url": "https://www.yelp.com/biz/highbury-pub-new-york?adjust_creative=yhLoLzsNXKw40xZ5RCWPpA&utm_campaign=yelp_api_v3&utm_medium=api_v3_business_search&utm_source=yhLoLzsNXKw40xZ5RCWPpA", "price": "$$", "distance": 1568.8010079974638, "coordinates": {"latitude": 40.639049, "longitude": -73.968495}, "alias": "highbury-pub-new-york", "image_url": "https://s3-media2.fl.yelpcdn.com/bphoto/COca9DL5KQkIgthF249Idw/o.jpg", "categories": [{"alias": "pubs", "title": "Pubs"}], "display_phone": "(347) 533-4557", "phone": "+13475334557", "id": "a6SohDhpzfj4wib1ix8rxg", "is_closed": false, "location": {"city": "New York", "display_address": ["1002 Cortelyou Rd", "New York, NY 11218"], "country": "US", "address2": "", "address3": "", "state": "NY", "address1": "1002 Cortelyou Rd", "zip_code": "11218"}}, {"rating": 4.0, "review_count": 99, "name": "Bar Chord", "transactions": [], "url": "https://www.yelp.com/biz/bar-chord-brooklyn?adjust_creative=yhLoLzsNXKw40xZ5RCWPpA&utm_campaign=yelp_api_v3&utm_medium=api_v3_business_search&utm_source=yhLoLzsNXKw40xZ5RCWPpA", "price": "$$", "distance": 1582.6520848133598, "coordinates": {"latitude": 40.639153, "longitude": -73.968396}, "alias": "bar-chord-brooklyn", "image_url": "https://s3-media4.fl.yelpcdn.com/bphoto/8EgOHXFSEJ5o5Cqja66FRA/o.jpg", "categories": [{"alias": "bars", "title": "Bars"}], "display_phone": "(347) 240-6033", "phone": "+13472406033", "id": "nMIbjD6nGEsAbK2b6Lz43w", "is_closed": false, "location": {"city": "Brooklyn", "display_address": ["1008 Cortelyou Rd", "Brooklyn, NY 11210"], "country": "US", "address2": "", "address3": "", "state": "NY", "address1": "1008 Cortelyou Rd", "zip_code": "11210"}}, {"rating": 4.0, "review_count": 471, "name": "The OX Tavern", "transactions": ["delivery", "pickup"], "url": "https://www.yelp.com/biz/the-ox-tavern-brooklyn?adjust_creative=yhLoLzsNXKw40xZ5RCWPpA&utm_campaign=yelp_api_v3&utm_medium=api_v3_business_search&utm_source=yhLoLzsNXKw40xZ5RCWPpA", "price": "$$", "distance": 1592.483659978327, "coordinates": {"latitude": 40.63489, "longitude": -73.96497}, "alias": "the-ox-tavern-brooklyn", "image_url": "https://s3-media1.fl.yelpcdn.com/bphoto/nJqXwZdgVr2zp8-gOjnelw/o.jpg", "categories": [{"alias": "newamerican", "title": "American (New)"}, {"alias": "pubs", "title": "Pubs"}, {"alias": "gastropubs", "title": "Gastropubs"}], "display_phone": "(718) 284-0005", "phone": "+17182840005", "id": "I8U2B8O3uXhhXYhRrOH_Xg", "is_closed": false, "location": {"city": "Brooklyn", "display_address": ["1301 Newkirk Ave", "Brooklyn, NY 11230"], "country": "US", "address2": "", "address3": "", "state": "NY", "address1": "1301 Newkirk Ave", "zip_code": "11230"}}, {"rating": 4.0, "review_count": 1099, "name": "The Farm On Adderley", "transactions": [], "url": "https://www.yelp.com/biz/the-farm-on-adderley-brooklyn?adjust_creative=yhLoLzsNXKw40xZ5RCWPpA&utm_campaign=yelp_api_v3&utm_medium=api_v3_business_search&utm_source=yhLoLzsNXKw40xZ5RCWPpA", "price": "$$", "distance": 1671.7843690961736, "coordinates": {"latitude": 40.63965, "longitude": -73.96754}, "alias": "the-farm-on-adderley-brooklyn", "image_url": "https://s3-media4.fl.yelpcdn.com/bphoto/f6Ns0Ntx6H5O_Qeo1v4O7A/o.jpg", "categories": [{"alias": "newamerican", "title": "American (New)"}, {"alias": "breakfast_brunch", "title": "Breakfast & Brunch"}, {"alias": "cocktailbars", "title": "Cocktail Bars"}], "display_phone": "(718) 287-3101", "phone": "+17182873101", "id": "D1jp3pfGvyYyaXBN8iJRBg", "is_closed": false, "location": {"city": "Brooklyn", "display_address": ["1108 Cortelyou Rd", "Brooklyn, NY 11218"], "country": "US", "address2": null, "address3": "", "state": "NY", "address1": "1108 Cortelyou Rd", "zip_code": "11218"}}, {"rating": 4.0, "review_count": 310, "name": "Sycamore Bar + Flower Shop", "transactions": [], "url": "https://www.yelp.com/biz/sycamore-bar-flower-shop-brooklyn?adjust_creative=yhLoLzsNXKw40xZ5RCWPpA&utm_campaign=yelp_api_v3&utm_medium=api_v3_business_search&utm_source=yhLoLzsNXKw40xZ5RCWPpA", "price": "$$", "distance": 1703.1158896233837, "coordinates": {"latitude": 40.639719, "longitude": -73.967158}, "alias": "sycamore-bar-flower-shop-brooklyn", "image_url": "https://s3-media2.fl.yelpcdn.com/bphoto/GAl2dzbWThEMvNDqXVp4pA/o.jpg", "categories": [{"alias": "bars", "title": "Bars"}, {"alias": "florists", "title": "Florists"}, {"alias": "musicvenues", "title": "Music Venues"}], "display_phone": "", "phone": "", "id": "9jfohlQqJTjxsuM8SPiBpQ", "is_closed": false, "location": {"city": "Brooklyn", "display_address": ["1118 Cortelyou Rd", "Brooklyn, NY 11218"], "country": "US", "address2": "", "address3": "", "state": "NY", "address1": "1118 Cortelyou Rd", "zip_code": "11218"}}, {"rating": 4.0, "review_count": 41, "name": "La Puerta Roja", "transactions": ["delivery", "pickup", "restaurant_reservation"], "url": "https://www.yelp.com/biz/la-puerta-roja-brooklyn?adjust_creative=yhLoLzsNXKw40xZ5RCWPpA&utm_campaign=yelp_api_v3&utm_medium=api_v3_business_search&utm_source=yhLoLzsNXKw40xZ5RCWPpA", "price": "$$", "distance": 1703.504004000728, "coordinates": {"latitude": 40.63982, "longitude": -73.96716}, "alias": "la-puerta-roja-brooklyn", "image_url": "https://s3-media4.fl.yelpcdn.com/bphoto/-Gol4qN9C3DUM7SnTUOV2Q/o.jpg", "categories": [{"alias": "latin", "title": "Latin American"}, {"alias": "bars", "title": "Bars"}, {"alias": "breakfast_brunch", "title": "Breakfast & Brunch"}], "display_phone": "(347) 221-1970", "phone": "+13472211970", "id": "wXsKW3ki5YrCqwwibwrGOA", "is_closed": false, "location": {"city": "Brooklyn", "display_address": ["1120 Cortelyou Rd", "Brooklyn, NY 11218"], "country": "US", "address2": "", "address3": null, "state": "NY", "address1": "1120 Cortelyou Rd", "zip_code": "11218"}}, {"rating": 4.0, "review_count": 286, "name": "The Castello Plan", "transactions": ["delivery", "pickup"], "url": "https://www.yelp.com/biz/the-castello-plan-brooklyn?adjust_creative=yhLoLzsNXKw40xZ5RCWPpA&utm_campaign=yelp_api_v3&utm_medium=api_v3_business_search&utm_source=yhLoLzsNXKw40xZ5RCWPpA", "price": "$$", "distance": 1776.660070152902, "coordinates": {"latitude": 40.6403278076802, "longitude": -73.9666944709866}, "alias": "the-castello-plan-brooklyn", "image_url": "https://s3-media4.fl.yelpcdn.com/bphoto/ZKkjwaiTRiA5LjQ2EwAygQ/o.jpg", "categories": [{"alias": "wine_bars", "title": "Wine Bars"}, {"alias": "newamerican", "title": "American (New)"}], "display_phone": "(718) 856-8888", "phone": "+17188568888", "id": "samBmcA_ysePpw5VYWgxdg", "is_closed": false, "location": {"city": "Brooklyn", "display_address": ["1213 Cortelyou Rd", "Brooklyn, NY 11218"], "country": "US", "address2": "", "address3": "", "state": "NY", "address1": "1213 Cortelyou Rd", "zip_code": "11218"}}, {"rating": 4.5, "review_count": 11, "name": "Alegrito Espresso Bar", "transactions": [], "url": "https://www.yelp.com/biz/alegrito-espresso-bar-brooklyn-4?adjust_creative=yhLoLzsNXKw40xZ5RCWPpA&utm_campaign=yelp_api_v3&utm_medium=api_v3_business_search&utm_source=yhLoLzsNXKw40xZ5RCWPpA", "distance": 1847.7821175399793, "coordinates": {"latitude": 40.6134813, "longitude": -73.9811028}, "alias": "alegrito-espresso-bar-brooklyn-4", "image_url": "https://s3-media3.fl.yelpcdn.com/bphoto/6jhkreFw_UjcY5CzQm5PbQ/o.jpg", "categories": [{"alias": "coffee", "title": "Coffee & Tea"}, {"alias": "bars", "title": "Bars"}], "display_phone": "(347) 492-4997", "phone": "+13474924997", "id": "B669cqtISGPbHaXM2tJzqw", "is_closed": false, "location": {"city": "Brooklyn", "display_address": ["2216 65th St", "Brooklyn, NY 11204"], "country": "US", "address2": "", "address3": null, "state": "NY", "address1": "2216 65th St", "zip_code": "11204"}}, {"rating": 3.5, "review_count": 58, "name": "Red Mist Hookah Lounge & Cafe", "transactions": [], "url": "https://www.yelp.com/biz/red-mist-hookah-lounge-and-cafe-brooklyn?adjust_creative=yhLoLzsNXKw40xZ5RCWPpA&utm_campaign=yelp_api_v3&utm_medium=api_v3_business_search&utm_source=yhLoLzsNXKw40xZ5RCWPpA", "price": "$$", "distance": 1859.754399842632, "coordinates": {"latitude": 40.643437, "longitude": -73.969644}, "alias": "red-mist-hookah-lounge-and-cafe-brooklyn", "image_url": "https://s3-media1.fl.yelpcdn.com/bphoto/OA5KZcj7D_6o35FU8LPQlA/o.jpg", "categories": [{"alias": "hookah_bars", "title": "Hookah Bars"}, {"alias": "indpak", "title": "Indian"}], "display_phone": "(718) 576-6969", "phone": "+17185766969", "id": "3rQYiiLz1g29D4qHJEUq4A", "is_closed": false, "location": {"city": "Brooklyn", "display_address": ["569 Coney Island Ave", "Brooklyn, NY 11218"], "country": "US", "address2": null, "address3": "", "state": "NY", "address1": "569 Coney Island Ave", "zip_code": "11218"}}, {"rating": 5.0, "review_count": 1, "name": "DJ Byrd Productions", "transactions": [], "url": "https://www.yelp.com/biz/dj-byrd-productions-brooklyn?adjust_creative=yhLoLzsNXKw40xZ5RCWPpA&utm_campaign=yelp_api_v3&utm_medium=api_v3_business_search&utm_source=yhLoLzsNXKw40xZ5RCWPpA", "distance": 1882.8704183675218, "coordinates": {"latitude": 40.6375766, "longitude": -74.0025943}, "alias": "dj-byrd-productions-brooklyn", "image_url": "https://s3-media2.fl.yelpcdn.com/bphoto/Z29dsQgM8jvfg2WcfCaKtQ/o.jpg", "categories": [{"alias": "djs", "title": "DJs"}, {"alias": "karaoke", "title": "Karaoke"}], "display_phone": "(917) 403-1016", "phone": "+19174031016", "id": "DVpgAAQk2u7bphCS2Uov5w", "is_closed": false, "location": {"city": "Brooklyn", "display_address": ["930 53rd St", "Brooklyn, NY 11219"], "country": "US", "address2": null, "address3": "", "state": "NY", "address1": "930 53rd St", "zip_code": "11219"}}, {"rating": 3.5, "review_count": 112, "name": "Blue Agave Mexican Restaurant & Bar", "transactions": ["delivery", "pickup"], "url": "https://www.yelp.com/biz/blue-agave-mexican-restaurant-and-bar-brooklyn?adjust_creative=yhLoLzsNXKw40xZ5RCWPpA&utm_campaign=yelp_api_v3&utm_medium=api_v3_business_search&utm_source=yhLoLzsNXKw40xZ5RCWPpA", "price": "$$", "distance": 1922.2315341181009, "coordinates": {"latitude": 40.6178877280414, "longitude": -73.9990214085986}, "alias": "blue-agave-mexican-restaurant-and-bar-brooklyn", "image_url": "https://s3-media2.fl.yelpcdn.com/bphoto/bMTDjTEwNqpoO01Kiuh9OQ/o.jpg", "categories": [{"alias": "mexican", "title": "Mexican"}, {"alias": "bars", "title": "Bars"}], "display_phone": "(718) 758-5822", "phone": "+17187585822", "id": "uwUzZf2IQFVb5puJuNd9rA", "is_closed": false, "location": {"city": "Brooklyn", "display_address": ["7201 16th Ave", "Brooklyn, NY 11204"], "country": "US", "address2": "", "address3": "", "state": "NY", "address1": "7201 16th Ave", "zip_code": "11204"}}, {"rating": 4.0, "review_count": 92, "name": "La Loba Cantina", "transactions": ["delivery", "pickup"], "url": "https://www.yelp.com/biz/la-loba-cantina-brooklyn-2?adjust_creative=yhLoLzsNXKw40xZ5RCWPpA&utm_campaign=yelp_api_v3&utm_medium=api_v3_business_search&utm_source=yhLoLzsNXKw40xZ5RCWPpA", "price": "$$", "distance": 1944.8900809372722, "coordinates": {"latitude": 40.64577, "longitude": -73.97288}, "alias": "la-loba-cantina-brooklyn-2", "image_url": "https://s3-media3.fl.yelpcdn.com/bphoto/Xi6FuahHoVEWh_Dk-bA4HQ/o.jpg", "categories": [{"alias": "cocktailbars", "title": "Cocktail Bars"}, {"alias": "mexican", "title": "Mexican"}], "display_phone": "(347) 295-1141", "phone": "+13472951141", "id": "Gwi51JUxbKT1Eg-C3JrxRQ", "is_closed": false, "location": {"city": "Brooklyn", "display_address": ["709 Church Ave", "Brooklyn, NY 11218"], "country": "US", "address2": "", "address3": "", "state": "NY", "address1": "709 Church Ave", "zip_code": "11218"}}, {"rating": 3.5, "review_count": 95, "name": "Manchego Koko", "transactions": [], "url": "https://www.yelp.com/biz/manchego-koko-brooklyn-5?adjust_creative=yhLoLzsNXKw40xZ5RCWPpA&utm_campaign=yelp_api_v3&utm_medium=api_v3_business_search&utm_source=yhLoLzsNXKw40xZ5RCWPpA", "price": "$$", "distance": 1986.988482871846, "coordinates": {"latitude": 40.641022, "longitude": -73.96426}, "alias": "manchego-koko-brooklyn-5", "image_url": "https://s3-media3.fl.yelpcdn.com/bphoto/al9rhAAOzpLAIGMSAOACYw/o.jpg", "categories": [{"alias": "spanish", "title": "Spanish"}, {"alias": "tapasmallplates", "title": "Tapas/Small Plates"}, {"alias": "wine_bars", "title": "Wine Bars"}], "display_phone": "(347) 425-8511", "phone": "+13474258511", "id": "khM6CxlYEY7otMW5ba0CCw", "is_closed": false, "location": {"city": "Brooklyn", "display_address": ["1502 Cortelyou Rd", "Brooklyn, NY 11226"], "country": "US", "address2": null, "address3": "", "state": "NY", "address1": "1502 Cortelyou Rd", "zip_code": "11226"}}, {"rating": 4.5, "review_count": 61, "name": "Hinterlands Bar", "transactions": [], "url": "https://www.yelp.com/biz/hinterlands-bar-brooklyn?adjust_creative=yhLoLzsNXKw40xZ5RCWPpA&utm_campaign=yelp_api_v3&utm_medium=api_v3_business_search&utm_source=yhLoLzsNXKw40xZ5RCWPpA", "price": "$$", "distance": 1998.445226238121, "coordinates": {"latitude": 40.6459944936653, "longitude": -73.9720572353496}, "alias": "hinterlands-bar-brooklyn", "image_url": "https://s3-media3.fl.yelpcdn.com/bphoto/q1xsmaeyOlR5nvrUNjYlpg/o.jpg", "categories": [{"alias": "bars", "title": "Bars"}], "display_phone": "(718) 633-0550", "phone": "+17186330550", "id": "xXdGPmh9q2b2Jl9pUx9XAw", "is_closed": false, "location": {"city": "Brooklyn", "display_address": ["739 Church Ave", "Brooklyn, NY 11218"], "country": "US", "address2": "", "address3": null, "state": "NY", "address1": "739 Church Ave", "zip_code": "11218"}}, {"rating": 4.5, "review_count": 186, "name": "Werkstatt", "transactions": ["pickup", "delivery"], "url": "https://www.yelp.com/biz/werkstatt-brooklyn-2?adjust_creative=yhLoLzsNXKw40xZ5RCWPpA&utm_campaign=yelp_api_v3&utm_medium=api_v3_business_search&utm_source=yhLoLzsNXKw40xZ5RCWPpA", "price": "$$", "distance": 2003.6303253509327, "coordinates": {"latitude": 40.6452616, "longitude": -73.9702023}, "alias": "werkstatt-brooklyn-2", "image_url": "https://s3-media2.fl.yelpcdn.com/bphoto/YQWncyNpx6m0P4pa6wIn4w/o.jpg", "categories": [{"alias": "austrian", "title": "Austrian"}, {"alias": "breakfast_brunch", "title": "Breakfast & Brunch"}, {"alias": "cocktailbars", "title": "Cocktail Bars"}], "display_phone": "(718) 284-5800", "phone": "+17182845800", "id": "FXBrt0VpeBRengdd4fBOZw", "is_closed": false, "location": {"city": "Brooklyn", "display_address": ["509 Coney Island Ave", "Brooklyn, NY 11218"], "country": "US", "address2": "", "address3": "", "state": "NY", "address1": "509 Coney Island Ave", "zip_code": "11218"}}, {"rating": 5.0, "review_count": 4, "name": "Supremacy Grill and Lounge", "transactions": [], "url": "https://www.yelp.com/biz/supremacy-grill-and-lounge-brooklyn?adjust_creative=yhLoLzsNXKw40xZ5RCWPpA&utm_campaign=yelp_api_v3&utm_medium=api_v3_business_search&utm_source=yhLoLzsNXKw40xZ5RCWPpA", "distance": 2057.9522084832465, "coordinates": {"latitude": 40.61792, "longitude": -73.96408}, "alias": "supremacy-grill-and-lounge-brooklyn", "image_url": "https://s3-media2.fl.yelpcdn.com/bphoto/tF0682uEK2t9Jo_QBLGj-Q/o.jpg", "categories": [{"alias": "hookah_bars", "title": "Hookah Bars"}, {"alias": "lounges", "title": "Lounges"}], "display_phone": "(718) 676-6065", "phone": "+17186766065", "id": "gcYSrrGq6lFW3rktyOihow", "is_closed": false, "location": {"city": "Brooklyn", "display_address": ["1624 Coney Island Ave", "Brooklyn, NY 11230"], "country": "US", "address2": null, "address3": "", "state": "NY", "address1": "1624 Coney Island Ave", "zip_code": "11230"}}, {"rating": 2.5, "review_count": 231, "name": "100 Fun", "transactions": [], "url": "https://www.yelp.com/biz/100-fun-brooklyn?adjust_creative=yhLoLzsNXKw40xZ5RCWPpA&utm_campaign=yelp_api_v3&utm_medium=api_v3_business_search&utm_source=yhLoLzsNXKw40xZ5RCWPpA", "price": "$$", "distance": 2060.260006830791, "coordinates": {"latitude": 40.6335, "longitude": -74.00657}, "alias": "100-fun-brooklyn", "image_url": "https://s3-media3.fl.yelpcdn.com/bphoto/MnXDcb8MzxDL7vm1Gs5x6Q/o.jpg", "categories": [{"alias": "karaoke", "title": "Karaoke"}, {"alias": "bars", "title": "Bars"}], "display_phone": "(718) 436-8883", "phone": "+17184368883", "id": "ygy0MjMKvk_Nn0xhrSoPCw", "is_closed": false, "location": {"city": "Brooklyn", "display_address": ["932 60th St", "Brooklyn, NY 11219"], "country": "US", "address2": "", "address3": "", "state": "NY", "address1": "932 60th St", "zip_code": "11219"}}, {"rating": 3.0, "review_count": 8, "name": "The Legend KTV", "transactions": [], "url": "https://www.yelp.com/biz/the-legend-ktv-brooklyn-3?adjust_creative=yhLoLzsNXKw40xZ5RCWPpA&utm_campaign=yelp_api_v3&utm_medium=api_v3_business_search&utm_source=yhLoLzsNXKw40xZ5RCWPpA", "price": "$$$$", "distance": 2072.104622794202, "coordinates": {"latitude": 40.6333093, "longitude": -74.0068324}, "alias": "the-legend-ktv-brooklyn-3", "image_url": "https://s3-media3.fl.yelpcdn.com/bphoto/NAZflzSVhz2t9GQ-jJDHjg/o.jpg", "categories": [{"alias": "karaoke", "title": "Karaoke"}], "display_phone": "(718) 686-1888", "phone": "+17186861888", "id": "UVDF9SPUshU1U_pSzFAJMg", "is_closed": false, "location": {"city": "Brooklyn", "display_address": ["947 61st St", "Brooklyn, NY 11219"], "country": "US", "address2": null, "address3": "", "state": "NY", "address1": "947 61st St", "zip_code": "11219"}}, {"rating": 4.5, "review_count": 297, "name": "Wheated", "transactions": [], "url": "https://www.yelp.com/biz/wheated-brooklyn?adjust_creative=yhLoLzsNXKw40xZ5RCWPpA&utm_campaign=yelp_api_v3&utm_medium=api_v3_business_search&utm_source=yhLoLzsNXKw40xZ5RCWPpA", "price": "$$", "distance": 2119.268519540458, "coordinates": {"latitude": 40.6465968960541, "longitude": -73.9704950265688}, "alias": "wheated-brooklyn", "image_url": "https://s3-media1.fl.yelpcdn.com/bphoto/nGlPNpQjGMDP7ZSi4LtReg/o.jpg", "categories": [{"alias": "pizza", "title": "Pizza"}, {"alias": "cocktailbars", "title": "Cocktail Bars"}, {"alias": "whiskeybars", "title": "Whiskey Bars"}], "display_phone": "(347) 240-2813", "phone": "+13472402813", "id": "_AqeaDQnMaErG19LobuU8Q", "is_closed": false, "location": {"city": "Brooklyn", "display_address": ["905 Church Ave", "Brooklyn, NY 11218"], "country": "US", "address2": "", "address3": "", "state": "NY", "address1": "905 Church Ave", "zip_code": "11218"}}, {"rating": 3.5, "review_count": 261, "name": "Hamilton's", "transactions": ["delivery"], "url": "https://www.yelp.com/biz/hamiltons-brooklyn-3?adjust_creative=yhLoLzsNXKw40xZ5RCWPpA&utm_campaign=yelp_api_v3&utm_medium=api_v3_business_search&utm_source=yhLoLzsNXKw40xZ5RCWPpA", "price": "$$", "distance": 2129.2070977452904, "coordinates": {"latitude": 40.648582, "longitude": -73.977256}, "alias": "hamiltons-brooklyn-3", "image_url": "https://s3-media3.fl.yelpcdn.com/bphoto/8FYSirlz3wwt17LE665yEA/o.jpg", "categories": [{"alias": "bars", "title": "Bars"}, {"alias": "newamerican", "title": "American (New)"}, {"alias": "breakfast_brunch", "title": "Breakfast & Brunch"}], "display_phone": "(718) 438-0488", "phone": "+17184380488", "id": "BhFOYn0nRcugPJM03r447w", "is_closed": false, "location": {"city": "Brooklyn", "display_address": ["2826 Fort Hamilton Pkwy", "Brooklyn, NY 11218"], "country": "US", "address2": "", "address3": "", "state": "NY", "address1": "2826 Fort Hamilton Pkwy", "zip_code": "11218"}}, {"rating": 3.5, "review_count": 45, "name": "Shenanigans Pub", "transactions": [], "url": "https://www.yelp.com/biz/shenanigans-pub-brooklyn?adjust_creative=yhLoLzsNXKw40xZ5RCWPpA&utm_campaign=yelp_api_v3&utm_medium=api_v3_business_search&utm_source=yhLoLzsNXKw40xZ5RCWPpA", "price": "$", "distance": 2136.381732659093, "coordinates": {"latitude": 40.6476, "longitude": -73.97275}, "alias": "shenanigans-pub-brooklyn", "image_url": "https://s3-media4.fl.yelpcdn.com/bphoto/G4NVigwki4c5Vllsffex-w/o.jpg", "categories": [{"alias": "karaoke", "title": "Karaoke"}, {"alias": "musicvenues", "title": "Music Venues"}, {"alias": "irish_pubs", "title": "Irish Pub"}], "display_phone": "(718) 633-3689", "phone": "+17186333689", "id": "n04-LS4se_8-5G44IKhU9w", "is_closed": false, "location": {"city": "Brooklyn", "display_address": ["802 Caton Ave", "Brooklyn, NY 11218"], "country": "US", "address2": "", "address3": "", "state": "NY", "address1": "802 Caton Ave", "zip_code": "11218"}}, {"rating": 5.0, "review_count": 1, "name": "Hunter Bar 888", "transactions": [], "url": "https://www.yelp.com/biz/hunter-bar-888-sunset-park?adjust_creative=yhLoLzsNXKw40xZ5RCWPpA&utm_campaign=yelp_api_v3&utm_medium=api_v3_business_search&utm_source=yhLoLzsNXKw40xZ5RCWPpA", "distance": 2198.48675220101, "coordinates": {"latitude": 40.6442630095111, "longitude": -74.0006347485962}, "alias": "hunter-bar-888-sunset-park", "image_url": "", "categories": [{"alias": "bars", "title": "Bars"}], "display_phone": "", "phone": "", "id": "6UsBUHh4kMet7gvSzDcgqQ", "is_closed": false, "location": {"city": "Sunset Park", "display_address": ["4414 8th Ave", "Sunset Park, NY 11220"], "country": "US", "address2": "", "address3": "", "state": "NY", "address1": "4414 8th Ave", "zip_code": "11220"}}, {"rating": 2.0, "review_count": 1, "name": "La Nueva Concha", "transactions": [], "url": "https://www.yelp.com/biz/la-nueva-concha-brooklyn?adjust_creative=yhLoLzsNXKw40xZ5RCWPpA&utm_campaign=yelp_api_v3&utm_medium=api_v3_business_search&utm_source=yhLoLzsNXKw40xZ5RCWPpA", "distance": 2205.608688945254, "coordinates": {"latitude": 40.644309, "longitude": -74.000778}, "alias": "la-nueva-concha-brooklyn", "image_url": "", "categories": [{"alias": "divebars", "title": "Dive Bars"}], "display_phone": "(718) 686-1396", "phone": "+17186861396", "id": "AnoICfwTIUtieFtLSa__uQ", "is_closed": false, "location": {"city": "Brooklyn", "display_address": ["4414 8th Ave", "Brooklyn, NY 11220"], "country": "US", "address2": "", "address3": "", "state": "NY", "address1": "4414 8th Ave", "zip_code": "11220"}}, {"rating": 4.5, "review_count": 3, "name": "39 KTV", "transactions": [], "url": "https://www.yelp.com/biz/39-ktv-brooklyn?adjust_creative=yhLoLzsNXKw40xZ5RCWPpA&utm_campaign=yelp_api_v3&utm_medium=api_v3_business_search&utm_source=yhLoLzsNXKw40xZ5RCWPpA", "price": "$$", "distance": 2212.605461985439, "coordinates": {"latitude": 40.646719, "longitude": -73.996839}, "alias": "39-ktv-brooklyn", "image_url": "https://s3-media1.fl.yelpcdn.com/bphoto/7YnXdfBNJGqV8QxkRJaMAQ/o.jpg", "categories": [{"alias": "karaoke", "title": "Karaoke"}], "display_phone": "(718) 851-8118", "phone": "+17188518118", "id": "WK9yCOdUbClqJoCWzZBDGA", "is_closed": false, "location": {"city": "Brooklyn", "display_address": ["820 39th St", "Brooklyn, NY 11219"], "country": "US", "address2": "", "address3": "", "state": "NY", "address1": "820 39th St", "zip_code": "11219"}}, {"rating": 5.0, "review_count": 1, "name": "Johnny's Lounge", "transactions": [], "url": "https://www.yelp.com/biz/johnnys-lounge-brooklyn?adjust_creative=yhLoLzsNXKw40xZ5RCWPpA&utm_campaign=yelp_api_v3&utm_medium=api_v3_business_search&utm_source=yhLoLzsNXKw40xZ5RCWPpA", "distance": 2219.0071543094796, "coordinates": {"latitude": 40.61001, "longitude": -73.98363}, "alias": "johnnys-lounge-brooklyn", "image_url": "https://s3-media4.fl.yelpcdn.com/bphoto/G_86ALz9ira2hXsIERtUrw/o.jpg", "categories": [{"alias": "nightlife", "title": "Nightlife"}], "display_phone": "(718) 256-2200", "phone": "+17182562200", "id": "w5L7yHHQJCeZdaX72x7osw", "is_closed": false, "location": {"city": "Brooklyn", "display_address": ["38 Avenue O", "Brooklyn, NY 11204"], "country": "US", "address2": null, "address3": null, "state": "NY", "address1": "38 Avenue O", "zip_code": "11204"}}, {"rating": 2.5, "review_count": 3, "name": "New Era Billiard", "transactions": [], "url": "https://www.yelp.com/biz/new-era-billiard-brooklyn?adjust_creative=yhLoLzsNXKw40xZ5RCWPpA&utm_campaign=yelp_api_v3&utm_medium=api_v3_business_search&utm_source=yhLoLzsNXKw40xZ5RCWPpA", "price": "$$", "distance": 2278.548652488183, "coordinates": {"latitude": 40.646659, "longitude": -73.998352}, "alias": "new-era-billiard-brooklyn", "image_url": "https://s3-media1.fl.yelpcdn.com/bphoto/uyqOy9wzcDU8o2IySvxCcw/o.jpg", "categories": [{"alias": "poolhalls", "title": "Pool Halls"}], "display_phone": "(917) 299-8722", "phone": "+19172998722", "id": "s44X3DMwYVOid7rMbmg0wg", "is_closed": false, "location": {"city": "Brooklyn", "display_address": ["4008 8th Ave", "Brooklyn, NY 11232"], "country": "US", "address2": "", "address3": "", "state": "NY", "address1": "4008 8th Ave", "zip_code": "11232"}}, {"rating": 4.0, "review_count": 25, "name": "Soccer Tavern", "transactions": [], "url": "https://www.yelp.com/biz/soccer-tavern-brooklyn?adjust_creative=yhLoLzsNXKw40xZ5RCWPpA&utm_campaign=yelp_api_v3&utm_medium=api_v3_business_search&utm_source=yhLoLzsNXKw40xZ5RCWPpA", "price": "$", "distance": 2378.502542642663, "coordinates": {"latitude": 40.63547, "longitude": -74.0099}, "alias": "soccer-tavern-brooklyn", "image_url": "https://s3-media2.fl.yelpcdn.com/bphoto/vLg6D8J7-Ee08GDiAHBl0A/o.jpg", "categories": [{"alias": "irish_pubs", "title": "Irish Pub"}], "display_phone": "(718) 439-9336", "phone": "+17184399336", "id": "2I9PQUYfevd27rl3BtfWEg", "is_closed": false, "location": {"city": "Brooklyn", "display_address": ["6004 8th Ave", "Brooklyn, NY 11220"], "country": "US", "address2": "", "address3": "", "state": "NY", "address1": "6004 8th Ave", "zip_code": "11220"}}, {"rating": 4.0, "review_count": 12, "name": "Sumner's Luncheonette", "transactions": ["delivery", "pickup"], "url": "https://www.yelp.com/biz/sumners-luncheonette-brooklyn?adjust_creative=yhLoLzsNXKw40xZ5RCWPpA&utm_campaign=yelp_api_v3&utm_medium=api_v3_business_search&utm_source=yhLoLzsNXKw40xZ5RCWPpA", "price": "$$", "distance": 2482.7675520405414, "coordinates": {"latitude": 40.6516499, "longitude": -73.97561}, "alias": "sumners-luncheonette-brooklyn", "image_url": "https://s3-media4.fl.yelpcdn.com/bphoto/4w7kK_nHw48ozR_yXuA70g/o.jpg", "categories": [{"alias": "southern", "title": "Southern"}, {"alias": "wine_bars", "title": "Wine Bars"}], "display_phone": "(718) 686-1044", "phone": "+17186861044", "id": "7sau6z-f_ROgUfnNO2Gujw", "is_closed": false, "location": {"city": "Brooklyn", "display_address": ["601 Greenwood Ave", "Brooklyn, NY 11218"], "country": "US", "address2": null, "address3": "", "state": "NY", "address1": "601 Greenwood Ave", "zip_code": "11218"}}, {"rating": 1.5, "review_count": 28, "name": "DC KTV", "transactions": [], "url": "https://www.yelp.com/biz/dc-ktv-brooklyn-2?adjust_creative=yhLoLzsNXKw40xZ5RCWPpA&utm_campaign=yelp_api_v3&utm_medium=api_v3_business_search&utm_source=yhLoLzsNXKw40xZ5RCWPpA", "price": "$$$", "distance": 2535.0329915166367, "coordinates": {"latitude": 40.63609, "longitude": -74.01165}, "alias": "dc-ktv-brooklyn-2", "image_url": "https://s3-media3.fl.yelpcdn.com/bphoto/Fn6sQdMIa5Qhk9fYvjTqGQ/o.jpg", "categories": [{"alias": "karaoke", "title": "Karaoke"}, {"alias": "lounges", "title": "Lounges"}], "display_phone": "(718) 853-5888", "phone": "+17188535888", "id": "jnRnP2jMBaBYjAvTkPVfQw", "is_closed": false, "location": {"city": "Brooklyn", "display_address": ["715 61th St", "Brooklyn, NY 11220"], "country": "US", "address2": "", "address3": "", "state": "NY", "address1": "715 61th St", "zip_code": "11220"}}, {"rating": 2.5, "review_count": 16, "name": "Cafe Mix Karaoke Lounge", "transactions": [], "url": "https://www.yelp.com/biz/cafe-mix-karaoke-lounge-brooklyn-2?adjust_creative=yhLoLzsNXKw40xZ5RCWPpA&utm_campaign=yelp_api_v3&utm_medium=api_v3_business_search&utm_source=yhLoLzsNXKw40xZ5RCWPpA", "price": "$", "distance": 2538.804569837439, "coordinates": {"latitude": 40.63564, "longitude": -74.01156}, "alias": "cafe-mix-karaoke-lounge-brooklyn-2", "image_url": "https://s3-media2.fl.yelpcdn.com/bphoto/HB5j8GuWO8NLmD2ZM5J6SA/o.jpg", "categories": [{"alias": "karaoke", "title": "Karaoke"}, {"alias": "sportsbars", "title": "Sports Bars"}], "display_phone": "(718) 492-4131", "phone": "+17184924131", "id": "EBBiZ-zP-dNz8NN81Yn5kw", "is_closed": false, "location": {"city": "Brooklyn", "display_address": ["730 61st St", "Brooklyn, NY 11220"], "country": "US", "address2": null, "address3": null, "state": "NY", "address1": "730 61st St", "zip_code": "11220"}}, {"rating": 4.0, "review_count": 11, "name": "SET Lounge Bar & Billiards", "transactions": [], "url": "https://www.yelp.com/biz/set-lounge-bar-and-billiards-brooklyn?adjust_creative=yhLoLzsNXKw40xZ5RCWPpA&utm_campaign=yelp_api_v3&utm_medium=api_v3_business_search&utm_source=yhLoLzsNXKw40xZ5RCWPpA", "price": "$", "distance": 2556.971067425622, "coordinates": {"latitude": 40.60809, "longitude": -73.97322}, "alias": "set-lounge-bar-and-billiards-brooklyn", "image_url": "https://s3-media2.fl.yelpcdn.com/bphoto/JQsSCo9b0bzuc5gh5YEjPQ/o.jpg", "categories": [{"alias": "lounges", "title": "Lounges"}, {"alias": "poolhalls", "title": "Pool Halls"}], "display_phone": "(718) 758-5999", "phone": "+17187585999", "id": "7j6Pxn41tadGT4MnHVUSgA", "is_closed": false, "location": {"city": "Brooklyn", "display_address": ["1828 McDonald Ave", "Brooklyn, NY 11223"], "country": "US", "address2": null, "address3": null, "state": "NY", "address1": "1828 McDonald Ave", "zip_code": "11223"}}, {"rating": 2.0, "review_count": 7, "name": "Red Velvet Lounge NY", "transactions": [], "url": "https://www.yelp.com/biz/red-velvet-lounge-ny-midwood?adjust_creative=yhLoLzsNXKw40xZ5RCWPpA&utm_campaign=yelp_api_v3&utm_medium=api_v3_business_search&utm_source=yhLoLzsNXKw40xZ5RCWPpA", "price": "$$", "distance": 2564.5968387646435, "coordinates": {"latitude": 40.6123669, "longitude": -73.9629929}, "alias": "red-velvet-lounge-ny-midwood", "image_url": "https://s3-media3.fl.yelpcdn.com/bphoto/ljS43DTIN4lHEYon-nWXhA/o.jpg", "categories": [{"alias": "hookah_bars", "title": "Hookah Bars"}, {"alias": "danceclubs", "title": "Dance Clubs"}, {"alias": "arabian", "title": "Arabian"}], "display_phone": "(347) 962-1419", "phone": "+13479621419", "id": "uU5bffvq6Y-j7gFzBr0Ilg", "is_closed": false, "location": {"city": "Midwood", "display_address": ["1842 Coney Island Ave", "Midwood, NY 11235"], "country": "US", "address2": "", "address3": "", "state": "NY", "address1": "1842 Coney Island Ave", "zip_code": "11235"}}, {"rating": 3.5, "review_count": 3, "name": "Night Degree Suite & Lounge", "transactions": [], "url": "https://www.yelp.com/biz/night-degree-suite-and-lounge-brooklyn?adjust_creative=yhLoLzsNXKw40xZ5RCWPpA&utm_campaign=yelp_api_v3&utm_medium=api_v3_business_search&utm_source=yhLoLzsNXKw40xZ5RCWPpA", "price": "$$", "distance": 2569.430200930794, "coordinates": {"latitude": 40.63647, "longitude": -74.01191}, "alias": "night-degree-suite-and-lounge-brooklyn", "image_url": "https://s3-media3.fl.yelpcdn.com/bphoto/CYKcSBtVLiZPZbDdnK0bRA/o.jpg", "categories": [{"alias": "karaoke", "title": "Karaoke"}], "display_phone": "(646) 338-5901", "phone": "+16463385901", "id": "o1AVKwqQmgvgK70VB7LjZw", "is_closed": false, "location": {"city": "Brooklyn", "display_address": ["6011 7th Ave", "Brooklyn, NY 11220"], "country": "US", "address2": null, "address3": null, "state": "NY", "address1": "6011 7th Ave", "zip_code": "11220"}}, {"rating": 4.0, "review_count": 99, "name": "Sip Unwine", "transactions": [], "url": "https://www.yelp.com/biz/sip-unwine-brooklyn?adjust_creative=yhLoLzsNXKw40xZ5RCWPpA&utm_campaign=yelp_api_v3&utm_medium=api_v3_business_search&utm_source=yhLoLzsNXKw40xZ5RCWPpA", "price": "$$", "distance": 2574.751726617349, "coordinates": {"latitude": 40.64101, "longitude": -73.95592}, "alias": "sip-unwine-brooklyn", "image_url": "https://s3-media1.fl.yelpcdn.com/bphoto/MrwmGYdJE5OuIUsakDtdaQ/o.jpg", "categories": [{"alias": "wine_bars", "title": "Wine Bars"}, {"alias": "cocktailbars", "title": "Cocktail Bars"}, {"alias": "caribbean", "title": "Caribbean"}], "display_phone": "(718) 576-6424", "phone": "+17185766424", "id": "7lPqxohBRjnpJjvNjRQUoA", "is_closed": false, "location": {"city": "Brooklyn", "display_address": ["1197 Flatbush Ave", "Brooklyn, NY 11226"], "country": "US", "address2": null, "address3": "", "state": "NY", "address1": "1197 Flatbush Ave", "zip_code": "11226"}}, {"rating": 4.0, "review_count": 73, "name": "The Adirondack", "transactions": [], "url": "https://www.yelp.com/biz/the-adirondack-brooklyn?adjust_creative=yhLoLzsNXKw40xZ5RCWPpA&utm_campaign=yelp_api_v3&utm_medium=api_v3_business_search&utm_source=yhLoLzsNXKw40xZ5RCWPpA", "price": "$$", "distance": 2577.139436144721, "coordinates": {"latitude": 40.65252, "longitude": -73.9758389}, "alias": "the-adirondack-brooklyn", "image_url": "https://s3-media4.fl.yelpcdn.com/bphoto/dHpuPXgdCQEC95IHgNUy_w/o.jpg", "categories": [{"alias": "bars", "title": "Bars"}], "display_phone": "(718) 871-0100", "phone": "+17188710100", "id": "m4YBaJaHsEEzkJ5OH28fEQ", "is_closed": false, "location": {"city": "Brooklyn", "display_address": ["1241A Prospect Ave", "Brooklyn, NY 11218"], "country": "US", "address2": "", "address3": "", "state": "NY", "address1": "1241A Prospect Ave", "zip_code": "11218"}}, {"rating": 4.0, "review_count": 97, "name": "Della", "transactions": ["delivery", "pickup"], "url": "https://www.yelp.com/biz/della-brooklyn-2?adjust_creative=yhLoLzsNXKw40xZ5RCWPpA&utm_campaign=yelp_api_v3&utm_medium=api_v3_business_search&utm_source=yhLoLzsNXKw40xZ5RCWPpA", "price": "$$", "distance": 2605.391055274416, "coordinates": {"latitude": 40.65287, "longitude": -73.97631}, "alias": "della-brooklyn-2", "image_url": "https://s3-media2.fl.yelpcdn.com/bphoto/dBD8doY9Y4IbSK_2NiGMWQ/o.jpg", "categories": [{"alias": "mediterranean", "title": "Mediterranean"}, {"alias": "italian", "title": "Italian"}, {"alias": "cocktailbars", "title": "Cocktail Bars"}], "display_phone": "(718) 633-0249", "phone": "+17186330249", "id": "SzH79XjUPoTYBnE3dybRsw", "is_closed": false, "location": {"city": "Brooklyn", "display_address": ["1238 Prospect Ave", "Reeve Place", "Brooklyn, NY 11218"], "country": "US", "address2": "", "address3": "Reeve Place", "state": "NY", "address1": "1238 Prospect Ave", "zip_code": "11218"}}, {"rating": 4.0, "review_count": 271, "name": "Le Paddock", "transactions": ["delivery", "pickup"], "url": "https://www.yelp.com/biz/le-paddock-brooklyn?adjust_creative=yhLoLzsNXKw40xZ5RCWPpA&utm_campaign=yelp_api_v3&utm_medium=api_v3_business_search&utm_source=yhLoLzsNXKw40xZ5RCWPpA", "price": "$$", "distance": 2622.8205140641885, "coordinates": {"latitude": 40.65295, "longitude": -73.97588}, "alias": "le-paddock-brooklyn", "image_url": "https://s3-media2.fl.yelpcdn.com/bphoto/wfkDHkPFh7JxnMTu9_q22w/o.jpg", "categories": [{"alias": "french", "title": "French"}, {"alias": "pizza", "title": "Pizza"}, {"alias": "cocktailbars", "title": "Cocktail Bars"}], "display_phone": "(718) 435-0921", "phone": "+17184350921", "id": "3R-S958SenPaaveuPzSN9g", "is_closed": false, "location": {"city": "Brooklyn", "display_address": ["1235 Prospect Ave", "Brooklyn, NY 11218"], "country": "US", "address2": "", "address3": "", "state": "NY", "address1": "1235 Prospect Ave", "zip_code": "11218"}}, {"rating": 4.5, "review_count": 11, "name": "Indigo Murphy's", "transactions": [], "url": "https://www.yelp.com/biz/indigo-murphys-brooklyn?adjust_creative=yhLoLzsNXKw40xZ5RCWPpA&utm_campaign=yelp_api_v3&utm_medium=api_v3_business_search&utm_source=yhLoLzsNXKw40xZ5RCWPpA", "price": "$$", "distance": 2646.996836388507, "coordinates": {"latitude": 40.6278190612793, "longitude": -74.0139541625977}, "alias": "indigo-murphys-brooklyn", "image_url": "https://s3-media3.fl.yelpcdn.com/bphoto/aPGFn0L6xnWxSqH4ft2dEg/o.jpg", "categories": [{"alias": "sportsbars", "title": "Sports Bars"}, {"alias": "pubs", "title": "Pubs"}], "display_phone": "(718) 921-1013", "phone": "+17189211013", "id": "1jWYg-iLBqJSypEJvsxTGw", "is_closed": false, "location": {"city": "Brooklyn", "display_address": ["7102 Fort Hamilton Pkwy", "Brooklyn, NY 11228"], "country": "US", "address2": null, "address3": "", "state": "NY", "address1": "7102 Fort Hamilton Pkwy", "zip_code": "11228"}}, {"rating": 3.5, "review_count": 31, "name": "Forever Ink Bar & Tattoo Shop", "transactions": [], "url": "https://www.yelp.com/biz/forever-ink-bar-and-tattoo-shop-brooklyn?adjust_creative=yhLoLzsNXKw40xZ5RCWPpA&utm_campaign=yelp_api_v3&utm_medium=api_v3_business_search&utm_source=yhLoLzsNXKw40xZ5RCWPpA", "price": "$$", "distance": 2698.9257988953555, "coordinates": {"latitude": 40.6452895383028, "longitude": -73.9579144412483}, "alias": "forever-ink-bar-and-tattoo-shop-brooklyn", "image_url": "https://s3-media3.fl.yelpcdn.com/bphoto/G3D3ez9lCAgK-xbZlxlRzA/o.jpg", "categories": [{"alias": "tattoo", "title": "Tattoo"}, {"alias": "bars", "title": "Bars"}, {"alias": "piercing", "title": "Piercing"}], "display_phone": "(718) 284-4029", "phone": "+17182844029", "id": "k1Yl0HcpJM-MIXkk1JiVTw", "is_closed": false, "location": {"city": "Brooklyn", "display_address": ["1051 Flatbush Ave", "Brooklyn, NY 11226"], "country": "US", "address2": null, "address3": null, "state": "NY", "address1": "1051 Flatbush Ave", "zip_code": "11226"}}]}