{"region": {"center": {"latitude": 40.5949643556, "longitude": -73.948684749}}, "total": 326, "businesses": [{"rating": 3.0, "review_count": 55, "name": "Cafe Tabu", "transactions": [], "url": "https://www.yelp.com/biz/cafe-tabu-brooklyn?adjust_creative=yhLoLzsNXKw40xZ5RCWPpA&utm_campaign=yelp_api_v3&utm_medium=api_v3_business_search&utm_source=yhLoLzsNXKw40xZ5RCWPpA", "price": "$$$", "distance": 206.69506460269508, "coordinates": {"latitude": 40.59325, "longitude": -73.94795}, "alias": "cafe-tabu-brooklyn", "image_url": "https://s3-media1.fl.yelpcdn.com/bphoto/iNrHpUzNHK6Ygd0SlG21OA/o.jpg", "categories": [{"alias": "hookah_bars", "title": "Hookah Bars"}, {"alias": "cocktailbars", "title": "Cocktail Bars"}, {"alias": "lounges", "title": "Lounges"}], "display_phone": "(718) 934-0177", "phone": "+17189340177", "id": "yCirollWTa6vns7wmlxwXg", "is_closed": false, "location": {"city": "Brooklyn", "display_address": ["2205 Ave X", "Brooklyn, NY 11235"], "country": "US", "address2": "", "address3": "", "state": "NY", "address1": "2205 Ave X", "zip_code": "11235"}}, {"rating": 4.5, "review_count": 17, "name": "Zamaan", "transactions": [], "url": "https://www.yelp.com/biz/zamaan-brooklyn?adjust_creative=yhLoLzsNXKw40xZ5RCWPpA&utm_campaign=yelp_api_v3&utm_medium=api_v3_business_search&utm_source=yhLoLzsNXKw40xZ5RCWPpA", "price": "$", "distance": 254.1313496710946, "coordinates": {"latitude": 40.5927499766836, "longitude": -73.9479399472475}, "alias": "zamaan-brooklyn", "image_url": "https://s3-media3.fl.yelpcdn.com/bphoto/gCvFWqLZCNlII4GQWlpfLw/o.jpg", "categories": [{"alias": "hookah_bars", "title": "Hookah Bars"}, {"alias": "mideastern", "title": "Middle Eastern"}], "display_phone": "(718) 600-4300", "phone": "+17186004300", "id": "-dILzdbETB5vFhd4uHn1lg", "is_closed": false, "location": {"city": "Brooklyn", "display_address": ["2204 Ave X", "Brooklyn, NY 11235"], "country": "US", "address2": "", "address3": null, "state": "NY", "address1": "2204 Ave X", "zip_code": "11235"}}, {"rating": 4.0, "review_count": 101, "name": "Anyway Cafe", "transactions": [], "url": "https://www.yelp.com/biz/anyway-cafe-brooklyn?adjust_creative=yhLoLzsNXKw40xZ5RCWPpA&utm_campaign=yelp_api_v3&utm_medium=api_v3_business_search&utm_source=yhLoLzsNXKw40xZ5RCWPpA", "price": "$$", "distance": 498.11088016312186, "coordinates": {"latitude": 40.59502, "longitude": -73.95444}, "alias": "anyway-cafe-brooklyn", "image_url": "https://s3-media2.fl.yelpcdn.com/bphoto/PPvj-Co4VlR5kne7Jwenew/o.jpg", "categories": [{"alias": "lounges", "title": "Lounges"}], "display_phone": "(718) 934-5988", "phone": "+17189345988", "id": "vlbcANpA_kT3nFsa6971Zg", "is_closed": false, "location": {"city": "Brooklyn", "display_address": ["1602 Gravesend Neck Rd", "Brooklyn, NY 11229"], "country": "US", "address2": "", "address3": "", "state": "NY", "address1": "1602 Gravesend Neck Rd", "zip_code": "11229"}}, {"rating": 2.5, "review_count": 31, "name": "Estelle Cafe Lounge", "transactions": [], "url": "https://www.yelp.com/biz/estelle-cafe-lounge-brooklyn-2?adjust_creative=yhLoLzsNXKw40xZ5RCWPpA&utm_campaign=yelp_api_v3&utm_medium=api_v3_business_search&utm_source=yhLoLzsNXKw40xZ5RCWPpA", "price": "$$", "distance": 577.7463978740943, "coordinates": {"latitude": 40.59912, "longitude": -73.95274}, "alias": "estelle-cafe-lounge-brooklyn-2", "image_url": "https://s3-media1.fl.yelpcdn.com/bphoto/kD3heyB-gJ20A_bqIuObeg/o.jpg", "categories": [{"alias": "lounges", "title": "Lounges"}, {"alias": "hookah_bars", "title": "Hookah Bars"}, {"alias": "karaoke", "title": "Karaoke"}], "display_phone": "(718) 769-2100", "phone": "+17187692100", "id": "8h5HzKRvnmacOR7dxvXmJQ", "is_closed": false, "location": {"city": "Brooklyn", "display_address": ["1824 Ave U", "Brooklyn, NY 11229"], "country": "US", "address2": "", "address3": "", "state": "NY", "address1": "1824 Ave U", "zip_code": "11229"}}, {"rating": 4.5, "review_count": 55, "name": "Russian Baths on Neck Road", "transactions": [], "url": "https://www.yelp.com/biz/russian-baths-on-neck-road-brooklyn?adjust_creative=yhLoLzsNXKw40xZ5RCWPpA&utm_campaign=yelp_api_v3&utm_medium=api_v3_business_search&utm_source=yhLoLzsNXKw40xZ5RCWPpA", "price": "$$", "distance": 782.5044507471084, "coordinates": {"latitude": 40.59424, "longitude": -73.95788}, "alias": "russian-baths-on-neck-road-brooklyn", "image_url": "https://s3-media2.fl.yelpcdn.com/bphoto/RWFXtIuvM0X5H7HnwKPspg/o.jpg", "categories": [{"alias": "massage", "title": "Massage"}, {"alias": "spas", "title": "Day Spas"}, {"alias": "sportsbars", "title": "Sports Bars"}], "display_phone": "(718) 332-1676", "phone": "+17183321676", "id": "moK8qANVn1gQcF-fnPRnWg", "is_closed": false, "location": {"city": "Brooklyn", "display_address": ["1200 Gravesend Neck Rd", "Brooklyn, NY 11229"], "country": "US", "address2": "", "address3": "", "state": "NY", "address1": "1200 Gravesend Neck Rd", "zip_code": "11229"}}, {"rating": 3.5, "review_count": 189, "name": "Tete A Tete", "transactions": [], "url": "https://www.yelp.com/biz/tete-a-tete-brooklyn?adjust_creative=yhLoLzsNXKw40xZ5RCWPpA&utm_campaign=yelp_api_v3&utm_medium=api_v3_business_search&utm_source=yhLoLzsNXKw40xZ5RCWPpA", "price": "$$", "distance": 970.5990659907417, "coordinates": {"latitude": 40.5875314772129, "longitude": -73.9551550894976}, "alias": "tete-a-tete-brooklyn", "image_url": "https://s3-media2.fl.yelpcdn.com/bphoto/WvzA5SjaeYSBndbmb4iD9w/o.jpg", "categories": [{"alias": "cafes", "title": "Cafes"}, {"alias": "lounges", "title": "Lounges"}, {"alias": "breakfast_brunch", "title": "Breakfast & Brunch"}], "display_phone": "(718) 676-0783", "phone": "+17186760783", "id": "F1T2WFjUUC0PlRYRuE4ZSw", "is_closed": false, "location": {"city": "Brooklyn", "display_address": ["2601 E 14th St", "Brooklyn, NY 11235"], "country": "US", "address2": "", "address3": "", "state": "NY", "address1": "2601 E 14th St", "zip_code": "11235"}}, {"rating": 3.0, "review_count": 20, "name": "Love 69 Bar", "transactions": [], "url": "https://www.yelp.com/biz/love-69-bar-brooklyn?adjust_creative=yhLoLzsNXKw40xZ5RCWPpA&utm_campaign=yelp_api_v3&utm_medium=api_v3_business_search&utm_source=yhLoLzsNXKw40xZ5RCWPpA", "price": "$$", "distance": 985.195527251641, "coordinates": {"latitude": 40.5878525, "longitude": -73.9564056}, "alias": "love-69-bar-brooklyn", "image_url": "https://s3-media1.fl.yelpcdn.com/bphoto/FRjSTeN5zmJbWYLQR_8IQQ/o.jpg", "categories": [{"alias": "hookah_bars", "title": "Hookah Bars"}, {"alias": "modern_european", "title": "Modern European"}], "display_phone": "(917) 789-9990", "phone": "+19177899990", "id": "yuAfAxo6X0Afcz9l2cwJ8A", "is_closed": false, "location": {"city": "Brooklyn", "display_address": ["1307 Z Ave", "Brooklyn, NY 11235"], "country": "US", "address2": null, "address3": "", "state": "NY", "address1": "1307 Z Ave", "zip_code": "11235"}}, {"rating": 3.0, "review_count": 1, "name": "Night Light Cafe", "transactions": [], "url": "https://www.yelp.com/biz/night-light-cafe-brooklyn?adjust_creative=yhLoLzsNXKw40xZ5RCWPpA&utm_campaign=yelp_api_v3&utm_medium=api_v3_business_search&utm_source=yhLoLzsNXKw40xZ5RCWPpA", "price": "$$$", "distance": 988.5443901933887, "coordinates": {"latitude": 40.5864334106445, "longitude": -73.951904296875}, "alias": "night-light-cafe-brooklyn", "image_url": "https://s3-media1.fl.yelpcdn.com/bphoto/9RDAXExdM7OLrwN60aA4fQ/o.jpg", "categories": [{"alias": "divebars", "title": "Dive Bars"}], "display_phone": "(718) 368-0280", "phone": "+17183680280", "id": "JnrgD8ywRZriVIXWJQlq6g", "is_closed": false, "location": {"city": "Brooklyn", "display_address": ["1657 Sheepshead Bay Rd", "Brooklyn, NY 11235"], "country": "US", "address2": "", "address3": "", "state": "NY", "address1": "1657 Sheepshead Bay Rd", "zip_code": "11235"}}, {"rating": 5.0, "review_count": 3, "name": "Baku Boulevard", "transactions": [], "url": "https://www.yelp.com/biz/baku-boulevard-sheepshead-bay?adjust_creative=yhLoLzsNXKw40xZ5RCWPpA&utm_campaign=yelp_api_v3&utm_medium=api_v3_business_search&utm_source=yhLoLzsNXKw40xZ5RCWPpA", "distance": 999.8625384427129, "coordinates": {"latitude": 40.598754, "longitude": -73.959442}, "alias": "baku-boulevard-sheepshead-bay", "image_url": "https://s3-media4.fl.yelpcdn.com/bphoto/I-nha3dPXHwfIlmwiN3x-Q/o.jpg", "categories": [{"alias": "bars", "title": "Bars"}, {"alias": "tradamerican", "title": "American (Traditional)"}], "display_phone": "(718) 975-2223", "phone": "+17189752223", "id": "ZvbvOHNc7Z3xxkfmDi2zCQ", "is_closed": false, "location": {"city": "Sheepshead Bay", "display_address": ["1223 Ave U", "Sheepshead Bay, NY 11229"], "country": "US", "address2": "", "address3": "", "state": "NY", "address1": "1223 Ave U", "zip_code": "11229"}}, {"rating": 1.0, "review_count": 1, "name": "El Tequilero Bar & Restaturant", "transactions": [], "url": "https://www.yelp.com/biz/el-tequilero-bar-and-restaturant-brooklyn?adjust_creative=yhLoLzsNXKw40xZ5RCWPpA&utm_campaign=yelp_api_v3&utm_medium=api_v3_business_search&utm_source=yhLoLzsNXKw40xZ5RCWPpA", "price": "$", "distance": 1062.802631847845, "coordinates": {"latitude": 40.5980903160683, "longitude": -73.9605802703617}, "alias": "el-tequilero-bar-and-restaturant-brooklyn", "image_url": "", "categories": [{"alias": "bars", "title": "Bars"}, {"alias": "mexican", "title": "Mexican"}], "display_phone": "(347) 275-5557", "phone": "+13472755557", "id": "q7KxBfDL2xs0kPgr6i48sg", "is_closed": false, "location": {"city": "Brooklyn", "display_address": ["1114 Avenue U", "Brooklyn, NY 11223"], "country": "US", "address2": null, "address3": null, "state": "NY", "address1": "1114 Avenue U", "zip_code": "11223"}}, {"rating": 2.0, "review_count": 1, "name": "Q Lounge", "transactions": [], "url": "https://www.yelp.com/biz/q-lounge-brooklyn?adjust_creative=yhLoLzsNXKw40xZ5RCWPpA&utm_campaign=yelp_api_v3&utm_medium=api_v3_business_search&utm_source=yhLoLzsNXKw40xZ5RCWPpA", "distance": 1099.612887529211, "coordinates": {"latitude": 40.5904121398926, "longitude": -73.9602279663086}, "alias": "q-lounge-brooklyn", "image_url": "", "categories": [{"alias": "nightlife", "title": "Nightlife"}], "display_phone": "(718) 484-7467", "phone": "+17184847467", "id": "rNHzapIa1CXUfR3A9FshWg", "is_closed": false, "location": {"city": "Brooklyn", "display_address": ["2715 Coney Island Ave", "Brooklyn, NY 11235"], "country": "US", "address2": "", "address3": "", "state": "NY", "address1": "2715 Coney Island Ave", "zip_code": "11235"}}, {"rating": 2.5, "review_count": 22, "name": "Red Karaoke Lounge", "transactions": [], "url": "https://www.yelp.com/biz/red-karaoke-lounge-brooklyn?adjust_creative=yhLoLzsNXKw40xZ5RCWPpA&utm_campaign=yelp_api_v3&utm_medium=api_v3_business_search&utm_source=yhLoLzsNXKw40xZ5RCWPpA", "price": "$$", "distance": 1152.2860059783654, "coordinates": {"latitude": 40.59865, "longitude": -73.96142}, "alias": "red-karaoke-lounge-brooklyn", "image_url": "https://s3-media1.fl.yelpcdn.com/bphoto/JA3kMoFPoKjIf5zhYy1F2w/o.jpg", "categories": [{"alias": "karaoke", "title": "Karaoke"}], "display_phone": "(718) 382-4488", "phone": "+17183824488", "id": "I3BKgqQKSDpKynCKsdbRfg", "is_closed": false, "location": {"city": "Brooklyn", "display_address": ["2394 Coney Island Ave", "Brooklyn, NY 11223"], "country": "US", "address2": null, "address3": "", "state": "NY", "address1": "2394 Coney Island Ave", "zip_code": "11223"}}, {"rating": 3.5, "review_count": 109, "name": "Buckley's", "transactions": [], "url": "https://www.yelp.com/biz/buckleys-brooklyn?adjust_creative=yhLoLzsNXKw40xZ5RCWPpA&utm_campaign=yelp_api_v3&utm_medium=api_v3_business_search&utm_source=yhLoLzsNXKw40xZ5RCWPpA", "price": "$$", "distance": 1199.188451101896, "coordinates": {"latitude": 40.60492, "longitude": -73.94308}, "alias": "buckleys-brooklyn", "image_url": "https://s3-media3.fl.yelpcdn.com/bphoto/1AhJwp74VX-KkoyrVqpH7w/o.jpg", "categories": [{"alias": "tradamerican", "title": "American (Traditional)"}, {"alias": "bars", "title": "Bars"}], "display_phone": "(718) 998-4222", "phone": "+17189984222", "id": "7O8RMiHmijSFFjB9FCBx2Q", "is_closed": false, "location": {"city": "Brooklyn", "display_address": ["2926 Ave S", "Brooklyn, NY 11229"], "country": "US", "address2": "", "address3": "", "state": "NY", "address1": "2926 Ave S", "zip_code": "11229"}}, {"rating": 3.5, "review_count": 28, "name": "Draft Barn", "transactions": [], "url": "https://www.yelp.com/biz/draft-barn-brooklyn-4?adjust_creative=yhLoLzsNXKw40xZ5RCWPpA&utm_campaign=yelp_api_v3&utm_medium=api_v3_business_search&utm_source=yhLoLzsNXKw40xZ5RCWPpA", "price": "$$", "distance": 1212.3279572706797, "coordinates": {"latitude": 40.58437, "longitude": -73.9453}, "alias": "draft-barn-brooklyn-4", "image_url": "https://s3-media2.fl.yelpcdn.com/bphoto/Yp7_tl9ebdqOGPU3510ZPQ/o.jpg", "categories": [{"alias": "tradamerican", "title": "American (Traditional)"}, {"alias": "sportsbars", "title": "Sports Bars"}, {"alias": "beerbar", "title": "Beer Bar"}], "display_phone": "(718) 676-2727", "phone": "+17186762727", "id": "YaSK_pAznqyDImTZLWuErw", "is_closed": false, "location": {"city": "Brooklyn", "display_address": ["28 Dooley St", "Brooklyn, NY 11235"], "country": "US", "address2": "", "address3": "", "state": "NY", "address1": "28 Dooley St", "zip_code": "11235"}}, {"rating": 3.0, "review_count": 78, "name": "Nirvana", "transactions": [], "url": "https://www.yelp.com/biz/nirvana-brooklyn?adjust_creative=yhLoLzsNXKw40xZ5RCWPpA&utm_campaign=yelp_api_v3&utm_medium=api_v3_business_search&utm_source=yhLoLzsNXKw40xZ5RCWPpA", "price": "$$", "distance": 1218.7745322335745, "coordinates": {"latitude": 40.5999, "longitude": -73.96172}, "alias": "nirvana-brooklyn", "image_url": "https://s3-media2.fl.yelpcdn.com/bphoto/8P62Sp1Z_o3zs1noRKewgA/o.jpg", "categories": [{"alias": "hookah_bars", "title": "Hookah Bars"}, {"alias": "cocktailbars", "title": "Cocktail Bars"}, {"alias": "tradamerican", "title": "American (Traditional)"}], "display_phone": "(718) 376-2500", "phone": "+17183762500", "id": "0vsGDvo1kbDI4nQr8gUI3g", "is_closed": false, "location": {"city": "Brooklyn", "display_address": ["2340 Coney Island Ave", "Brooklyn, NY 11223"], "country": "US", "address2": "", "address3": "", "state": "NY", "address1": "2340 Coney Island Ave", "zip_code": "11223"}}, {"rating": 3.0, "review_count": 39, "name": "Falada Lounge", "transactions": [], "url": "https://www.yelp.com/biz/falada-lounge-brooklyn?adjust_creative=yhLoLzsNXKw40xZ5RCWPpA&utm_campaign=yelp_api_v3&utm_medium=api_v3_business_search&utm_source=yhLoLzsNXKw40xZ5RCWPpA", "price": "$$$", "distance": 1234.6363351803418, "coordinates": {"latitude": 40.5838899, "longitude": -73.94784}, "alias": "falada-lounge-brooklyn", "image_url": "https://s3-media2.fl.yelpcdn.com/bphoto/6Kj8sRwxzwUYC4jKn211uw/o.jpg", "categories": [{"alias": "lounges", "title": "Lounges"}, {"alias": "steak", "title": "Steakhouses"}, {"alias": "seafood", "title": "Seafood"}], "display_phone": "(718) 332-4040", "phone": "+17183324040", "id": "IJPtbTjtS3AMU-Uaj4IfQw", "is_closed": false, "location": {"city": "Brooklyn", "display_address": ["2011 Emmons Ave", "Brooklyn, NY 11235"], "country": "US", "address2": "", "address3": "", "state": "NY", "address1": "2011 Emmons Ave", "zip_code": "11235"}}, {"rating": 3.5, "review_count": 16, "name": "Tap Beer", "transactions": [], "url": "https://www.yelp.com/biz/tap-beer-brooklyn-4?adjust_creative=yhLoLzsNXKw40xZ5RCWPpA&utm_campaign=yelp_api_v3&utm_medium=api_v3_business_search&utm_source=yhLoLzsNXKw40xZ5RCWPpA", "price": "$$", "distance": 1278.1207465856091, "coordinates": {"latitude": 40.58372, "longitude": -73.95025}, "alias": "tap-beer-brooklyn-4", "image_url": "https://s3-media1.fl.yelpcdn.com/bphoto/M6f4FbzmjtIjU0nIil3y6A/o.jpg", "categories": [{"alias": "beerbar", "title": "Beer Bar"}, {"alias": "sportsbars", "title": "Sports Bars"}, {"alias": "pubs", "title": "Pubs"}], "display_phone": "(718) 872-6700", "phone": "+17188726700", "id": "xokJMmYZ53dWMgKBiiPGGg", "is_closed": false, "location": {"city": "Brooklyn", "display_address": ["1781 Sheepshead Bay Rd", "Brooklyn, NY 11235"], "country": "US", "address2": null, "address3": "", "state": "NY", "address1": "1781 Sheepshead Bay Rd", "zip_code": "11235"}}, {"rating": 3.0, "review_count": 135, "name": "Emmons Palace", "transactions": ["pickup"], "url": "https://www.yelp.com/biz/emmons-palace-brooklyn?adjust_creative=yhLoLzsNXKw40xZ5RCWPpA&utm_campaign=yelp_api_v3&utm_medium=api_v3_business_search&utm_source=yhLoLzsNXKw40xZ5RCWPpA", "price": "$$", "distance": 1278.2351220283829, "coordinates": {"latitude": 40.58393, "longitude": -73.94427}, "alias": "emmons-palace-brooklyn", "image_url": "https://s3-media3.fl.yelpcdn.com/bphoto/z-ku8mGhNhe7wy1fcYQQLA/o.jpg", "categories": [{"alias": "desserts", "title": "Desserts"}, {"alias": "bars", "title": "Bars"}, {"alias": "newamerican", "title": "American (New)"}], "display_phone": "(718) 616-1272", "phone": "+17186161272", "id": "LvjjUEovF5l7g4Lxw3GgTA", "is_closed": false, "location": {"city": "Brooklyn", "display_address": ["2265 Emmons Ave", "Brooklyn, NY 11235"], "country": "US", "address2": "", "address3": "", "state": "NY", "address1": "2265 Emmons Ave", "zip_code": "11235"}}, {"rating": 2.5, "review_count": 181, "name": "Applebee's Grill + Bar", "transactions": [], "url": "https://www.yelp.com/biz/applebees-grill-bar-brooklyn-7?adjust_creative=yhLoLzsNXKw40xZ5RCWPpA&utm_campaign=yelp_api_v3&utm_medium=api_v3_business_search&utm_source=yhLoLzsNXKw40xZ5RCWPpA", "price": "$$", "distance": 1305.2220254738058, "coordinates": {"latitude": 40.583966, "longitude": -73.943284}, "alias": "applebees-grill-bar-brooklyn-7", "image_url": "https://s3-media1.fl.yelpcdn.com/bphoto/qjvQNSZuAAzNeszldIfQKA/o.jpg", "categories": [{"alias": "tradamerican", "title": "American (Traditional)"}, {"alias": "sportsbars", "title": "Sports Bars"}, {"alias": "burgers", "title": "Burgers"}], "display_phone": "(718) 769-4889", "phone": "+17187694889", "id": "44ke2pcmgaBRXsh__ESVzA", "is_closed": false, "location": {"city": "Brooklyn", "display_address": ["2505 Emmons Ave", "Brooklyn, NY 11235"], "country": "US", "address2": "", "address3": "", "state": "NY", "address1": "2505 Emmons Ave", "zip_code": "11235"}}, {"rating": 4.0, "review_count": 1, "name": "U Caffe", "transactions": [], "url": "https://www.yelp.com/biz/u-caffe-brooklyn?adjust_creative=yhLoLzsNXKw40xZ5RCWPpA&utm_campaign=yelp_api_v3&utm_medium=api_v3_business_search&utm_source=yhLoLzsNXKw40xZ5RCWPpA", "price": "$$", "distance": 1313.826825818307, "coordinates": {"latitude": 40.59789, "longitude": -73.96383}, "alias": "u-caffe-brooklyn", "image_url": "https://s3-media2.fl.yelpcdn.com/bphoto/fcipZTPaNJcGvSLCPlMiSQ/o.jpg", "categories": [{"alias": "coffee", "title": "Coffee & Tea"}, {"alias": "bars", "title": "Bars"}], "display_phone": "", "phone": "", "id": "bj7tTkKNA9jTvR77HQBUfA", "is_closed": false, "location": {"city": "Brooklyn", "display_address": ["706 Avenue U", "Brooklyn, NY 11223"], "country": "US", "address2": null, "address3": "", "state": "NY", "address1": "706 Avenue U", "zip_code": "11223"}}, {"rating": 5.0, "review_count": 1, "name": "Tamaqua Bar & Marina", "transactions": [], "url": "https://www.yelp.com/biz/tamaqua-bar-and-marina-brooklyn?adjust_creative=yhLoLzsNXKw40xZ5RCWPpA&utm_campaign=yelp_api_v3&utm_medium=api_v3_business_search&utm_source=yhLoLzsNXKw40xZ5RCWPpA", "distance": 1578.5536936769686, "coordinates": {"latitude": 40.5939674377441, "longitude": -73.9299163818359}, "alias": "tamaqua-bar-and-marina-brooklyn", "image_url": "https://s3-media1.fl.yelpcdn.com/bphoto/vSqdhFsK1pVRuq9J6eYZWQ/o.jpg", "categories": [{"alias": "bars", "title": "Bars"}, {"alias": "seafood", "title": "Seafood"}], "display_phone": "(718) 646-9212", "phone": "+17186469212", "id": "SCTIio8NX0WJVrKA-8DuXw", "is_closed": false, "location": {"city": "Brooklyn", "display_address": ["84 Ebony Ct", "Brooklyn, NY 11229"], "country": "US", "address2": "", "address3": "", "state": "NY", "address1": "84 Ebony Ct", "zip_code": "11229"}}, {"rating": 3.0, "review_count": 2, "name": "Koyla Trilogy", "transactions": [], "url": "https://www.yelp.com/biz/koyla-trilogy-brooklyn?adjust_creative=yhLoLzsNXKw40xZ5RCWPpA&utm_campaign=yelp_api_v3&utm_medium=api_v3_business_search&utm_source=yhLoLzsNXKw40xZ5RCWPpA", "distance": 1666.9803387172112, "coordinates": {"latitude": 40.60634, "longitude": -73.9616}, "alias": "koyla-trilogy-brooklyn", "image_url": "https://s3-media1.fl.yelpcdn.com/bphoto/hRswOzbWZ1f8_GRSUlELRg/o.jpg", "categories": [{"alias": "hookah_bars", "title": "Hookah Bars"}], "display_phone": "(631) 790-5106", "phone": "+16317905106", "id": "Vcnf1NFTUENS0Q3f0KUCpw", "is_closed": false, "location": {"city": "Brooklyn", "display_address": ["2085 Coney Island Ave", "Brooklyn, NY 11223"], "country": "US", "address2": null, "address3": "", "state": "NY", "address1": "2085 Coney Island Ave", "zip_code": "11223"}}, {"rating": 3.0, "review_count": 30, "name": "Myst Lounge", "transactions": [], "url": "https://www.yelp.com/biz/myst-lounge-brooklyn-7?adjust_creative=yhLoLzsNXKw40xZ5RCWPpA&utm_campaign=yelp_api_v3&utm_medium=api_v3_business_search&utm_source=yhLoLzsNXKw40xZ5RCWPpA", "price": "$$", "distance": 1697.7207701609518, "coordinates": {"latitude": 40.606317, "longitude": -73.962131}, "alias": "myst-lounge-brooklyn-7", "image_url": "https://s3-media2.fl.yelpcdn.com/bphoto/MrJ7wgA0w4rmNH3eD2bq6g/o.jpg", "categories": [{"alias": "hookah_bars", "title": "Hookah Bars"}, {"alias": "newamerican", "title": "American (New)"}, {"alias": "juicebars", "title": "Juice Bars & Smoothies"}], "display_phone": "(718) 336-0007", "phone": "+17183360007", "id": "W_1HbrAuJx9OhG4XER47Jw", "is_closed": false, "location": {"city": "Brooklyn", "display_address": ["2086 Coney Island Ave", "Brooklyn, NY 11223"], "country": "US", "address2": null, "address3": "", "state": "NY", "address1": "2086 Coney Island Ave", "zip_code": "11223"}}, {"rating": 3.0, "review_count": 4, "name": "Costello's Bar", "transactions": [], "url": "https://www.yelp.com/biz/costellos-bar-brooklyn?adjust_creative=yhLoLzsNXKw40xZ5RCWPpA&utm_campaign=yelp_api_v3&utm_medium=api_v3_business_search&utm_source=yhLoLzsNXKw40xZ5RCWPpA", "price": "$", "distance": 1736.3402227639751, "coordinates": {"latitude": 40.6102, "longitude": -73.9439}, "alias": "costellos-bar-brooklyn", "image_url": "https://s3-media2.fl.yelpcdn.com/bphoto/kT2nVrEDoqPoqtV2jysFyA/o.jpg", "categories": [{"alias": "bars", "title": "Bars"}], "display_phone": "(718) 377-9798", "phone": "+17183779798", "id": "HjbPuRESpwGK7vnl-Kb2OQ", "is_closed": false, "location": {"city": "Brooklyn", "display_address": ["3042 Nostrand Ave", "Brooklyn, NY 11229"], "country": "US", "address2": "", "address3": "", "state": "NY", "address1": "3042 Nostrand Ave", "zip_code": "11229"}}, {"rating": 3.5, "review_count": 98, "name": "La Vue", "transactions": [], "url": "https://www.yelp.com/biz/la-vue-brooklyn?adjust_creative=yhLoLzsNXKw40xZ5RCWPpA&utm_campaign=yelp_api_v3&utm_medium=api_v3_business_search&utm_source=yhLoLzsNXKw40xZ5RCWPpA", "price": "$$$$", "distance": 1825.2126533846802, "coordinates": {"latitude": 40.58395, "longitude": -73.93277}, "alias": "la-vue-brooklyn", "image_url": "https://s3-media1.fl.yelpcdn.com/bphoto/ZikUjD1a9oIsmyQ6-s_UwA/o.jpg", "categories": [{"alias": "lounges", "title": "Lounges"}, {"alias": "french", "title": "French"}, {"alias": "venues", "title": "Venues & Event Spaces"}], "display_phone": "(718) 513-6004", "phone": "+17185136004", "id": "4pNgTzw8Ru4bW7hXAeO6eA", "is_closed": false, "location": {"city": "Brooklyn", "display_address": ["3202 Emmons Ave", "Brooklyn, NY 11235"], "country": "US", "address2": null, "address3": "", "state": "NY", "address1": "3202 Emmons Ave", "zip_code": "11235"}}, {"rating": 4.5, "review_count": 26, "name": "Davry Kosher Sports Bar", "transactions": [], "url": "https://www.yelp.com/biz/davry-kosher-sports-bar-brooklyn?adjust_creative=yhLoLzsNXKw40xZ5RCWPpA&utm_campaign=yelp_api_v3&utm_medium=api_v3_business_search&utm_source=yhLoLzsNXKw40xZ5RCWPpA", "price": "$$", "distance": 1850.5433958726042, "coordinates": {"latitude": 40.60612, "longitude": -73.96489}, "alias": "davry-kosher-sports-bar-brooklyn", "image_url": "https://s3-media4.fl.yelpcdn.com/bphoto/2JeCKrrA48YDcBLLhFShlQ/o.jpg", "categories": [{"alias": "sportsbars", "title": "Sports Bars"}, {"alias": "kosher", "title": "Kosher"}], "display_phone": "(718) 513-4742", "phone": "+17185134742", "id": "B5526eNbfzBqI9D3KpMoHw", "is_closed": false, "location": {"city": "Brooklyn", "display_address": ["722 Kings Hwy", "Brooklyn, NY 11223"], "country": "US", "address2": null, "address3": "", "state": "NY", "address1": "722 Kings Hwy", "zip_code": "11223"}}, {"rating": 3.5, "review_count": 64, "name": "Draft Barn", "transactions": [], "url": "https://www.yelp.com/biz/draft-barn-brooklyn-3?adjust_creative=yhLoLzsNXKw40xZ5RCWPpA&utm_campaign=yelp_api_v3&utm_medium=api_v3_business_search&utm_source=yhLoLzsNXKw40xZ5RCWPpA", "price": "$$", "distance": 1973.762595365779, "coordinates": {"latitude": 40.59056, "longitude": -73.97133}, "alias": "draft-barn-brooklyn-3", "image_url": "https://s3-media2.fl.yelpcdn.com/bphoto/1sawHdaCzu92ZlyGAcLOkA/o.jpg", "categories": [{"alias": "pubs", "title": "Pubs"}, {"alias": "newamerican", "title": "American (New)"}], "display_phone": "(718) 768-0515", "phone": "+17187680515", "id": "ibTjqHbbBqctjzJLtyUmRw", "is_closed": false, "location": {"city": "Brooklyn", "display_address": ["317 Ave X", "Brooklyn, NY 11223"], "country": "US", "address2": "", "address3": "", "state": "NY", "address1": "317 Ave X", "zip_code": "11223"}}, {"rating": 5.0, "review_count": 1, "name": "Casa De Aces", "transactions": [], "url": "https://www.yelp.com/biz/casa-de-aces-kings?adjust_creative=yhLoLzsNXKw40xZ5RCWPpA&utm_campaign=yelp_api_v3&utm_medium=api_v3_business_search&utm_source=yhLoLzsNXKw40xZ5RCWPpA", "distance": 1985.3223046433775, "coordinates": {"latitude": 40.6125016462776, "longitude": -73.944271905584}, "alias": "casa-de-aces-kings", "image_url": "https://s3-media1.fl.yelpcdn.com/bphoto/66oQmo8WmacqLothmUv2mg/o.jpg", "categories": [{"alias": "bars", "title": "Bars"}], "display_phone": "", "phone": "", "id": "e3BDfIcVJ4_F7MWUeNoF9Q", "is_closed": false, "location": {"city": "Kings", "display_address": ["Kings, NY"], "country": "US", "address2": "", "address3": "", "state": "NY", "address1": "", "zip_code": ""}}, {"rating": 4.5, "review_count": 2, "name": "Beach Bar", "transactions": [], "url": "https://www.yelp.com/biz/beach-bar-brooklyn-2?adjust_creative=yhLoLzsNXKw40xZ5RCWPpA&utm_campaign=yelp_api_v3&utm_medium=api_v3_business_search&utm_source=yhLoLzsNXKw40xZ5RCWPpA", "price": "$", "distance": 1986.008282145967, "coordinates": {"latitude": 40.592744, "longitude": -73.925346}, "alias": "beach-bar-brooklyn-2", "image_url": "https://s3-media1.fl.yelpcdn.com/bphoto/KPn3hLaTxyOQOz3kc-Eyww/o.jpg", "categories": [{"alias": "bars", "title": "Bars"}], "display_phone": "(347) 713-4117", "phone": "+13477134117", "id": "jUJwVMKnE9gzqhMizTz84Q", "is_closed": false, "location": {"city": "Brooklyn", "display_address": ["2722 Gerritsen Ave", "Brooklyn, NY 11229"], "country": "US", "address2": null, "address3": null, "state": "NY", "address1": "2722 Gerritsen Ave", "zip_code": "11229"}}, {"rating": 4.0, "review_count": 30, "name": "The Gather Inn Again", "transactions": ["delivery", "pickup"], "url": "https://www.yelp.com/biz/the-gather-inn-again-brooklyn?adjust_creative=yhLoLzsNXKw40xZ5RCWPpA&utm_campaign=yelp_api_v3&utm_medium=api_v3_business_search&utm_source=yhLoLzsNXKw40xZ5RCWPpA", "price": "$$", "distance": 1993.3040867022116, "coordinates": {"latitude": 40.5928247988916, "longitude": -73.9252458686653}, "alias": "the-gather-inn-again-brooklyn", "image_url": "https://s3-media1.fl.yelpcdn.com/bphoto/qLWUGXmf6pX53xBs-MN5MA/o.jpg", "categories": [{"alias": "newamerican", "title": "American (New)"}, {"alias": "pubs", "title": "Pubs"}, {"alias": "coffee", "title": "Coffee & Tea"}], "display_phone": "(718) 513-6245", "phone": "+17185136245", "id": "HUSbdxCau6rw1eIyYvdsHQ", "is_closed": false, "location": {"city": "Brooklyn", "display_address": ["2718 Gerritsen Ave", "Brooklyn, NY 11229"], "country": "US", "address2": "", "address3": "", "state": "NY", "address1": "2718 Gerritsen Ave", "zip_code": "11229"}}, {"rating": 3.5, "review_count": 49, "name": "Anyway Cafe", "transactions": [], "url": "https://www.yelp.com/biz/anyway-cafe-brooklyn-2?adjust_creative=yhLoLzsNXKw40xZ5RCWPpA&utm_campaign=yelp_api_v3&utm_medium=api_v3_business_search&utm_source=yhLoLzsNXKw40xZ5RCWPpA", "price": "$$", "distance": 2000.9179942401993, "coordinates": {"latitude": 40.57719, "longitude": -73.95249}, "alias": "anyway-cafe-brooklyn-2", "image_url": "https://s3-media2.fl.yelpcdn.com/bphoto/FMlWsqSO2NyPQm8PJOsBNQ/o.jpg", "categories": [{"alias": "bars", "title": "Bars"}, {"alias": "french", "title": "French"}, {"alias": "russian", "title": "Russian"}], "display_phone": "(718) 648-3906", "phone": "+17186483906", "id": "CaJ80xeIdajj5-PQ1_rjNA", "is_closed": false, "location": {"city": "Brooklyn", "display_address": ["111 Oriental Blvd", "Brooklyn, NY 11235"], "country": "US", "address2": "", "address3": "", "state": "NY", "address1": "111 Oriental Blvd", "zip_code": "11235"}}, {"rating": 3.0, "review_count": 14, "name": "Master Theater", "transactions": [], "url": "https://www.yelp.com/biz/master-theater-brooklyn?adjust_creative=yhLoLzsNXKw40xZ5RCWPpA&utm_campaign=yelp_api_v3&utm_medium=api_v3_business_search&utm_source=yhLoLzsNXKw40xZ5RCWPpA", "price": "$$", "distance": 2019.5991819105125, "coordinates": {"latitude": 40.57839, "longitude": -73.95859}, "alias": "master-theater-brooklyn", "image_url": "https://s3-media4.fl.yelpcdn.com/bphoto/fkSANE4hlAr19G8Ni-Os4A/o.jpg", "categories": [{"alias": "theater", "title": "Performing Arts"}, {"alias": "musicvenues", "title": "Music Venues"}], "display_phone": "(718) 732-3838", "phone": "+17187323838", "id": "RQYk7SHUF2VyFCaVSAJEVw", "is_closed": false, "location": {"city": "Brooklyn", "display_address": ["1029 Brighton Beach Ave", "Brooklyn, NY 11235"], "country": "US", "address2": null, "address3": "", "state": "NY", "address1": "1029 Brighton Beach Ave", "zip_code": "11235"}}, {"rating": 3.0, "review_count": 55, "name": "Cave Restaurant", "transactions": ["delivery", "pickup"], "url": "https://www.yelp.com/biz/cave-restaurant-brooklyn?adjust_creative=yhLoLzsNXKw40xZ5RCWPpA&utm_campaign=yelp_api_v3&utm_medium=api_v3_business_search&utm_source=yhLoLzsNXKw40xZ5RCWPpA", "price": "$$", "distance": 2118.485853273804, "coordinates": {"latitude": 40.5957184, "longitude": -73.9736099}, "alias": "cave-restaurant-brooklyn", "image_url": "https://s3-media3.fl.yelpcdn.com/bphoto/cci1eoSFN44sNIjfr2yYuw/o.jpg", "categories": [{"alias": "lounges", "title": "Lounges"}, {"alias": "hookah_bars", "title": "Hookah Bars"}], "display_phone": "(347) 915-1515", "phone": "+13479151515", "id": "GJHwyih4yxqzEezhStVTaQ", "is_closed": false, "location": {"city": "Brooklyn", "display_address": ["2320 McDonald Ave", "Brooklyn, NY 11223"], "country": "US", "address2": "", "address3": "", "state": "NY", "address1": "2320 McDonald Ave", "zip_code": "11223"}}, {"rating": 4.0, "review_count": 6, "name": "Reazon Cafe & Lounge", "transactions": ["delivery", "pickup"], "url": "https://www.yelp.com/biz/reazon-cafe-and-lounge-brooklyn?adjust_creative=yhLoLzsNXKw40xZ5RCWPpA&utm_campaign=yelp_api_v3&utm_medium=api_v3_business_search&utm_source=yhLoLzsNXKw40xZ5RCWPpA", "distance": 2128.7337727384834, "coordinates": {"latitude": 40.6110746, "longitude": -73.9623065}, "alias": "reazon-cafe-and-lounge-brooklyn", "image_url": "https://s3-media4.fl.yelpcdn.com/bphoto/1UYIJK4dZ3QGliAMYVQzGQ/o.jpg", "categories": [{"alias": "hookah_bars", "title": "Hookah Bars"}, {"alias": "tradamerican", "title": "American (Traditional)"}], "display_phone": "(860) 367-2282", "phone": "+18603672282", "id": "MMewsMbQBtbj1RYVEKE6EQ", "is_closed": false, "location": {"city": "Brooklyn", "display_address": ["1897 Coney Island Ave", "Brooklyn, NY 11230"], "country": "US", "address2": null, "address3": "", "state": "NY", "address1": "1897 Coney Island Ave", "zip_code": "11230"}}, {"rating": 5.0, "review_count": 1, "name": "Mariners Inn", "transactions": [], "url": "https://www.yelp.com/biz/mariners-inn-brooklyn?adjust_creative=yhLoLzsNXKw40xZ5RCWPpA&utm_campaign=yelp_api_v3&utm_medium=api_v3_business_search&utm_source=yhLoLzsNXKw40xZ5RCWPpA", "price": "$", "distance": 2134.510005938354, "coordinates": {"latitude": 40.609511, "longitude": -73.932163}, "alias": "mariners-inn-brooklyn", "image_url": "", "categories": [{"alias": "bars", "title": "Bars"}], "display_phone": "(718) 376-8058", "phone": "+17183768058", "id": "4Wv_cIRGpAutWoS69u1NGw", "is_closed": false, "location": {"city": "Brooklyn", "display_address": ["3501 Ave S", "Brooklyn, NY 11234"], "country": "US", "address2": "", "address3": "", "state": "NY", "address1": "3501 Ave S", "zip_code": "11234"}}, {"rating": 4.0, "review_count": 18, "name": "Boardwalk Billiards", "transactions": [], "url": "https://www.yelp.com/biz/boardwalk-billiards-brooklyn?adjust_creative=yhLoLzsNXKw40xZ5RCWPpA&utm_campaign=yelp_api_v3&utm_medium=api_v3_business_search&utm_source=yhLoLzsNXKw40xZ5RCWPpA", "price": "$", "distance": 2150.522310165101, "coordinates": {"latitude": 40.57747, "longitude": -73.95979}, "alias": "boardwalk-billiards-brooklyn", "image_url": "https://s3-media2.fl.yelpcdn.com/bphoto/VO0s2zdo1a7Hm1rDlR-PPg/o.jpg", "categories": [{"alias": "poolhalls", "title": "Pool Halls"}], "display_phone": "(718) 934-7777", "phone": "+17189347777", "id": "CMmAJoXpVxUS2VzRDxXd2Q", "is_closed": false, "location": {"city": "Brooklyn", "display_address": ["3200 Coney Island Ave", "Brooklyn, NY 11235"], "country": "US", "address2": "", "address3": "", "state": "NY", "address1": "3200 Coney Island Ave", "zip_code": "11235"}}, {"rating": 3.0, "review_count": 54, "name": "The Velvet Rope Lounge", "transactions": ["delivery", "pickup"], "url": "https://www.yelp.com/biz/the-velvet-rope-lounge-brooklyn?adjust_creative=yhLoLzsNXKw40xZ5RCWPpA&utm_campaign=yelp_api_v3&utm_medium=api_v3_business_search&utm_source=yhLoLzsNXKw40xZ5RCWPpA", "price": "$$", "distance": 2156.283776408865, "coordinates": {"latitude": 40.5774664, "longitude": -73.9597696}, "alias": "the-velvet-rope-lounge-brooklyn", "image_url": "https://s3-media2.fl.yelpcdn.com/bphoto/Rgoe-bjZo4eil6FTE4BTBQ/o.jpg", "categories": [{"alias": "lounges", "title": "Lounges"}], "display_phone": "(347) 554-8511", "phone": "+13475548511", "id": "mWJow6OmyqOItbPUGNURwQ", "is_closed": false, "location": {"city": "Brooklyn", "display_address": ["3212 Coney Island Ave", "Brooklyn, NY 11235"], "country": "US", "address2": "", "address3": "", "state": "NY", "address1": "3212 Coney Island Ave", "zip_code": "11235"}}, {"rating": 4.0, "review_count": 10, "name": "Skyline Billards & Bar", "transactions": [], "url": "https://www.yelp.com/biz/skyline-billards-and-bar-brooklyn?adjust_creative=yhLoLzsNXKw40xZ5RCWPpA&utm_campaign=yelp_api_v3&utm_medium=api_v3_business_search&utm_source=yhLoLzsNXKw40xZ5RCWPpA", "distance": 2163.2531009006416, "coordinates": {"latitude": 40.590702, "longitude": -73.9736823}, "alias": "skyline-billards-and-bar-brooklyn", "image_url": "https://s3-media1.fl.yelpcdn.com/bphoto/ufEJlwVthpMHyYi-k9k4TA/o.jpg", "categories": [{"alias": "poolhalls", "title": "Pool Halls"}, {"alias": "sportsbars", "title": "Sports Bars"}], "display_phone": "(718) 627-3407", "phone": "+17186273407", "id": "m9PE4HQ1gnRYDfp855kFQg", "is_closed": false, "location": {"city": "Brooklyn", "display_address": ["2515 McDonald Ave", "Brooklyn, NY 11223"], "country": "US", "address2": "", "address3": "", "state": "NY", "address1": "2515 McDonald Ave", "zip_code": "11223"}}, {"rating": 4.0, "review_count": 6, "name": "Joe's Bar & Grill", "transactions": [], "url": "https://www.yelp.com/biz/joes-bar-and-grill-new-york?adjust_creative=yhLoLzsNXKw40xZ5RCWPpA&utm_campaign=yelp_api_v3&utm_medium=api_v3_business_search&utm_source=yhLoLzsNXKw40xZ5RCWPpA", "price": "$", "distance": 2199.8328130709024, "coordinates": {"latitude": 40.5970425339919, "longitude": -73.9745950698853}, "alias": "joes-bar-and-grill-new-york", "image_url": "https://s3-media4.fl.yelpcdn.com/bphoto/TlcD52RVCIFcsdVh5xrq9A/o.jpg", "categories": [{"alias": "divebars", "title": "Dive Bars"}], "display_phone": "(718) 372-9595", "phone": "+17183729595", "id": "nw0yK11ia7jhgYU9kA-9YQ", "is_closed": false, "location": {"city": "New York", "display_address": ["257 Ave U", "New York, NY 11223"], "country": "US", "address2": "", "address3": "", "state": "NY", "address1": "257 Ave U", "zip_code": "11223"}}, {"rating": 1.0, "review_count": 1, "name": "Tijuana Sports Bar", "transactions": [], "url": "https://www.yelp.com/biz/tijuana-sports-bar-brooklyn?adjust_creative=yhLoLzsNXKw40xZ5RCWPpA&utm_campaign=yelp_api_v3&utm_medium=api_v3_business_search&utm_source=yhLoLzsNXKw40xZ5RCWPpA", "price": "$$$", "distance": 2258.276353652817, "coordinates": {"latitude": 40.60412, "longitude": -73.9726}, "alias": "tijuana-sports-bar-brooklyn", "image_url": "", "categories": [{"alias": "sportsbars", "title": "Sports Bars"}], "display_phone": "(718) 339-1002", "phone": "+17183391002", "id": "Eoa0KerNGyOOm_HOHjp0Dg", "is_closed": false, "location": {"city": "Brooklyn", "display_address": ["472 Kings Hwy", "Brooklyn, NY 11223"], "country": "US", "address2": null, "address3": null, "state": "NY", "address1": "472 Kings Hwy", "zip_code": "11223"}}, {"rating": 3.5, "review_count": 6, "name": "La Royale Sports Bar & Lounge", "transactions": [], "url": "https://www.yelp.com/biz/la-royale-sports-bar-and-lounge-brooklyn?adjust_creative=yhLoLzsNXKw40xZ5RCWPpA&utm_campaign=yelp_api_v3&utm_medium=api_v3_business_search&utm_source=yhLoLzsNXKw40xZ5RCWPpA", "distance": 2266.8737533086587, "coordinates": {"latitude": 40.6050516890743, "longitude": -73.972017603839}, "alias": "la-royale-sports-bar-and-lounge-brooklyn", "image_url": "", "categories": [{"alias": "sportsbars", "title": "Sports Bars"}], "display_phone": "(718) 382-1342", "phone": "+17183821342", "id": "CLP7msW_TTD3tKu2etPDvg", "is_closed": false, "location": {"city": "Brooklyn", "display_address": ["1949 McDonald Ave", "Brooklyn, NY 11223"], "country": "US", "address2": "", "address3": null, "state": "NY", "address1": "1949 McDonald Ave", "zip_code": "11223"}}, {"rating": 2.0, "review_count": 7, "name": "Red Velvet Lounge NY", "transactions": [], "url": "https://www.yelp.com/biz/red-velvet-lounge-ny-midwood?adjust_creative=yhLoLzsNXKw40xZ5RCWPpA&utm_campaign=yelp_api_v3&utm_medium=api_v3_business_search&utm_source=yhLoLzsNXKw40xZ5RCWPpA", "price": "$$", "distance": 2281.139292478402, "coordinates": {"latitude": 40.6123669, "longitude": -73.9629929}, "alias": "red-velvet-lounge-ny-midwood", "image_url": "https://s3-media3.fl.yelpcdn.com/bphoto/ljS43DTIN4lHEYon-nWXhA/o.jpg", "categories": [{"alias": "hookah_bars", "title": "Hookah Bars"}, {"alias": "danceclubs", "title": "Dance Clubs"}, {"alias": "arabian", "title": "Arabian"}], "display_phone": "(347) 962-1419", "phone": "+13479621419", "id": "uU5bffvq6Y-j7gFzBr0Ilg", "is_closed": false, "location": {"city": "Midwood", "display_address": ["1842 Coney Island Ave", "Midwood, NY 11235"], "country": "US", "address2": "", "address3": "", "state": "NY", "address1": "1842 Coney Island Ave", "zip_code": "11235"}}, {"rating": 2.0, "review_count": 1, "name": "Bar & Lounge Founders", "transactions": [], "url": "https://www.yelp.com/biz/bar-and-lounge-founders-brooklyn?adjust_creative=yhLoLzsNXKw40xZ5RCWPpA&utm_campaign=yelp_api_v3&utm_medium=api_v3_business_search&utm_source=yhLoLzsNXKw40xZ5RCWPpA", "distance": 2287.6692314575093, "coordinates": {"latitude": 40.6050510405537, "longitude": -73.9723011106253}, "alias": "bar-and-lounge-founders-brooklyn", "image_url": "https://s3-media4.fl.yelpcdn.com/bphoto/FsAiMaIq71kkh-Q09js4Zg/o.jpg", "categories": [{"alias": "lounges", "title": "Lounges"}], "display_phone": "", "phone": "", "id": "pvZjN3EZVQkDxccr6KAeYA", "is_closed": false, "location": {"city": "Brooklyn", "display_address": ["1952 Mcdonald Ave", "Brooklyn, NY 11223"], "country": "US", "address2": "", "address3": null, "state": "NY", "address1": "1952 Mcdonald Ave", "zip_code": "11223"}}, {"rating": 4.0, "review_count": 33, "name": "National Restaurant", "transactions": [], "url": "https://www.yelp.com/biz/national-restaurant-brooklyn?adjust_creative=yhLoLzsNXKw40xZ5RCWPpA&utm_campaign=yelp_api_v3&utm_medium=api_v3_business_search&utm_source=yhLoLzsNXKw40xZ5RCWPpA", "price": "$$$$", "distance": 2405.3822415833383, "coordinates": {"latitude": 40.577178, "longitude": -73.964874}, "alias": "national-restaurant-brooklyn", "image_url": "https://s3-media2.fl.yelpcdn.com/bphoto/-qrkC0uH_CcXqHONwdueBQ/o.jpg", "categories": [{"alias": "russian", "title": "Russian"}, {"alias": "danceclubs", "title": "Dance Clubs"}, {"alias": "venues", "title": "Venues & Event Spaces"}], "display_phone": "(718) 646-1225", "phone": "+17186461225", "id": "E081782risSuRyutcpHOJA", "is_closed": false, "location": {"city": "Brooklyn", "display_address": ["273 Brighton Beach Ave", "Brooklyn, NY 11235"], "country": "US", "address2": "", "address3": "", "state": "NY", "address1": "273 Brighton Beach Ave", "zip_code": "11235"}}, {"rating": 4.0, "review_count": 113, "name": "Living Room Restaurant & Lounge", "transactions": ["delivery", "pickup"], "url": "https://www.yelp.com/biz/living-room-restaurant-and-lounge-brooklyn-3?adjust_creative=yhLoLzsNXKw40xZ5RCWPpA&utm_campaign=yelp_api_v3&utm_medium=api_v3_business_search&utm_source=yhLoLzsNXKw40xZ5RCWPpA", "price": "$$", "distance": 2451.7428061304195, "coordinates": {"latitude": 40.596309, "longitude": -73.977697}, "alias": "living-room-restaurant-and-lounge-brooklyn-3", "image_url": "https://s3-media2.fl.yelpcdn.com/bphoto/55o68boO67ROfniGWaj__w/o.jpg", "categories": [{"alias": "newamerican", "title": "American (New)"}, {"alias": "lounges", "title": "Lounges"}], "display_phone": "(718) 996-8700", "phone": "+17189968700", "id": "ORLEaDESAXztvS5yYYW0oQ", "is_closed": false, "location": {"city": "Brooklyn", "display_address": ["178 Ave U", "Brooklyn, NY 11223"], "country": "US", "address2": null, "address3": "", "state": "NY", "address1": "178 Ave U", "zip_code": "11223"}}, {"rating": 3.5, "review_count": 58, "name": "3rd & 7", "transactions": [], "url": "https://www.yelp.com/biz/3rd-and-7-brooklyn?adjust_creative=yhLoLzsNXKw40xZ5RCWPpA&utm_campaign=yelp_api_v3&utm_medium=api_v3_business_search&utm_source=yhLoLzsNXKw40xZ5RCWPpA", "price": "$$", "distance": 2461.7075217653037, "coordinates": {"latitude": 40.61497, "longitude": -73.93606}, "alias": "3rd-and-7-brooklyn", "image_url": "https://s3-media3.fl.yelpcdn.com/bphoto/PvZJOoECJE4hmPlULNEOBQ/o.jpg", "categories": [{"alias": "sportsbars", "title": "Sports Bars"}, {"alias": "tradamerican", "title": "American (Traditional)"}], "display_phone": "(718) 336-6300", "phone": "+17183366300", "id": "enbGceHhbBWe4cgMSePd1g", "is_closed": false, "location": {"city": "Brooklyn", "display_address": ["3622 Quentin Rd", "Brooklyn, NY 11234"], "country": "US", "address2": "", "address3": "", "state": "NY", "address1": "3622 Quentin Rd", "zip_code": "11234"}}, {"rating": 4.0, "review_count": 11, "name": "SET Lounge Bar & Billiards", "transactions": [], "url": "https://www.yelp.com/biz/set-lounge-bar-and-billiards-brooklyn?adjust_creative=yhLoLzsNXKw40xZ5RCWPpA&utm_campaign=yelp_api_v3&utm_medium=api_v3_business_search&utm_source=yhLoLzsNXKw40xZ5RCWPpA", "price": "$", "distance": 2534.502164093675, "coordinates": {"latitude": 40.60809, "longitude": -73.97322}, "alias": "set-lounge-bar-and-billiards-brooklyn", "image_url": "https://s3-media2.fl.yelpcdn.com/bphoto/JQsSCo9b0bzuc5gh5YEjPQ/o.jpg", "categories": [{"alias": "lounges", "title": "Lounges"}, {"alias": "poolhalls", "title": "Pool Halls"}], "display_phone": "(718) 758-5999", "phone": "+17187585999", "id": "7j6Pxn41tadGT4MnHVUSgA", "is_closed": false, "location": {"city": "Brooklyn", "display_address": ["1828 McDonald Ave", "Brooklyn, NY 11223"], "country": "US", "address2": null, "address3": null, "state": "NY", "address1": "1828 McDonald Ave", "zip_code": "11223"}}, {"rating": 3.5, "review_count": 47, "name": "Georgian House", "transactions": [], "url": "https://www.yelp.com/biz/georgian-house-brooklyn-3?adjust_creative=yhLoLzsNXKw40xZ5RCWPpA&utm_campaign=yelp_api_v3&utm_medium=api_v3_business_search&utm_source=yhLoLzsNXKw40xZ5RCWPpA", "price": "$$", "distance": 2582.2644258065247, "coordinates": {"latitude": 40.5765259, "longitude": -73.9672753}, "alias": "georgian-house-brooklyn-3", "image_url": "https://s3-media1.fl.yelpcdn.com/bphoto/qQSIGHZtNDidyTutRhh1dg/o.jpg", "categories": [{"alias": "bars", "title": "Bars"}, {"alias": "tradamerican", "title": "American (Traditional)"}, {"alias": "musicvenues", "title": "Music Venues"}], "display_phone": "(718) 759-6555", "phone": "+17187596555", "id": "LJx2kUHVy-Ne9RTRkMRJ9g", "is_closed": false, "location": {"city": "Brooklyn", "display_address": ["129 Brighton Beach Ave", "Brooklyn, NY 11235"], "country": "US", "address2": "", "address3": "", "state": "NY", "address1": "129 Brighton Beach Ave", "zip_code": "11235"}}, {"rating": 3.5, "review_count": 47, "name": "Kaifuem", "transactions": [], "url": "https://www.yelp.com/biz/kaifuem-brooklyn?adjust_creative=yhLoLzsNXKw40xZ5RCWPpA&utm_campaign=yelp_api_v3&utm_medium=api_v3_business_search&utm_source=yhLoLzsNXKw40xZ5RCWPpA", "price": "$$", "distance": 2715.874048676157, "coordinates": {"latitude": 40.57586, "longitude": -73.96916}, "alias": "kaifuem-brooklyn", "image_url": "https://s3-media2.fl.yelpcdn.com/bphoto/u8r-Dc2JhzEMiNEGT9Y01g/o.jpg", "categories": [{"alias": "beergardens", "title": "Beer Gardens"}, {"alias": "uzbek", "title": "Uzbek"}, {"alias": "mediterranean", "title": "Mediterranean"}], "display_phone": "(718) 265-1009", "phone": "+17182651009", "id": "pj3ql05F_6_VHmzgvpybIg", "is_closed": false, "location": {"city": "Brooklyn", "display_address": ["3100 Ocean Pkwy", "Brooklyn, NY 11235"], "country": "US", "address2": "", "address3": null, "state": "NY", "address1": "3100 Ocean Pkwy", "zip_code": "11235"}}, {"rating": 4.0, "review_count": 82, "name": "Vis \u00e0 Vis Restaurant and Lounge", "transactions": ["pickup"], "url": "https://www.yelp.com/biz/vis-%C3%A0-vis-restaurant-and-lounge-brooklyn?adjust_creative=yhLoLzsNXKw40xZ5RCWPpA&utm_campaign=yelp_api_v3&utm_medium=api_v3_business_search&utm_source=yhLoLzsNXKw40xZ5RCWPpA", "price": "$$$", "distance": 2715.874048676157, "coordinates": {"latitude": 40.57586, "longitude": -73.96916}, "alias": "vis-\u00e0-vis-restaurant-and-lounge-brooklyn", "image_url": "https://s3-media1.fl.yelpcdn.com/bphoto/_AEW6QPlWJU5k9b8vavwdA/o.jpg", "categories": [{"alias": "french", "title": "French"}, {"alias": "lounges", "title": "Lounges"}, {"alias": "russian", "title": "Russian"}], "display_phone": "(718) 333-0003", "phone": "+17183330003", "id": "VMknjkbfktlH3Yd7q40ckg", "is_closed": false, "location": {"city": "Brooklyn", "display_address": ["3100 Ocean Pkwy", "Brooklyn, NY 11235"], "country": "US", "address2": null, "address3": "", "state": "NY", "address1": "3100 Ocean Pkwy", "zip_code": "11235"}}]}