{"region": {"center": {"latitude": 40.606885792599996, "longitude": -73.993625442}}, "total": 558, "businesses": [{"rating": 3.5, "review_count": 63, "name": "La Boheme Lounge", "transactions": [], "url": "https://www.yelp.com/biz/la-boheme-lounge-brooklyn?adjust_creative=yhLoLzsNXKw40xZ5RCWPpA&utm_campaign=yelp_api_v3&utm_medium=api_v3_business_search&utm_source=yhLoLzsNXKw40xZ5RCWPpA", "price": "$$", "distance": 746.0199307955966, "coordinates": {"latitude": 40.602741, "longitude": -73.986663}, "alias": "la-boheme-lounge-brooklyn", "image_url": "https://s3-media3.fl.yelpcdn.com/bphoto/6JQB1Y-8j-IXFjJHBvRYCg/o.jpg", "categories": [{"alias": "hookah_bars", "title": "Hookah Bars"}, {"alias": "lounges", "title": "Lounges"}], "display_phone": "(718) 265-2245", "phone": "+17182652245", "id": "FJucknWI1H79V6Dm47WN3w", "is_closed": false, "location": {"city": "Brooklyn", "display_address": ["1790 Stillwell Ave", "Brooklyn, NY 11223"], "country": "US", "address2": "", "address3": "", "state": "NY", "address1": "1790 Stillwell Ave", "zip_code": "11223"}}, {"rating": 5.0, "review_count": 1, "name": "Johnny's Lounge", "transactions": [], "url": "https://www.yelp.com/biz/johnnys-lounge-brooklyn?adjust_creative=yhLoLzsNXKw40xZ5RCWPpA&utm_campaign=yelp_api_v3&utm_medium=api_v3_business_search&utm_source=yhLoLzsNXKw40xZ5RCWPpA", "distance": 911.4033164023937, "coordinates": {"latitude": 40.61001, "longitude": -73.98363}, "alias": "johnnys-lounge-brooklyn", "image_url": "https://s3-media4.fl.yelpcdn.com/bphoto/G_86ALz9ira2hXsIERtUrw/o.jpg", "categories": [{"alias": "nightlife", "title": "Nightlife"}], "display_phone": "(718) 256-2200", "phone": "+17182562200", "id": "w5L7yHHQJCeZdaX72x7osw", "is_closed": false, "location": {"city": "Brooklyn", "display_address": ["38 Avenue O", "Brooklyn, NY 11204"], "country": "US", "address2": null, "address3": null, "state": "NY", "address1": "38 Avenue O", "zip_code": "11204"}}, {"rating": 4.5, "review_count": 7, "name": "Homestretch Pub", "transactions": [], "url": "https://www.yelp.com/biz/homestretch-pub-brooklyn?adjust_creative=yhLoLzsNXKw40xZ5RCWPpA&utm_campaign=yelp_api_v3&utm_medium=api_v3_business_search&utm_source=yhLoLzsNXKw40xZ5RCWPpA", "price": "$$", "distance": 931.7550225033676, "coordinates": {"latitude": 40.6052284240723, "longitude": -73.982795715332}, "alias": "homestretch-pub-brooklyn", "image_url": "https://s3-media1.fl.yelpcdn.com/bphoto/nB5YGE85Uq9xsXaWMN2F_A/o.jpg", "categories": [{"alias": "pubs", "title": "Pubs"}], "display_phone": "(718) 372-9719", "phone": "+17183729719", "id": "3xOosMpNOu9q6bCTIUttJA", "is_closed": false, "location": {"city": "Brooklyn", "display_address": ["214 Kings Hwy", "Brooklyn, NY 11223"], "country": "US", "address2": "", "address3": "", "state": "NY", "address1": "214 Kings Hwy", "zip_code": "11223"}}, {"rating": 4.0, "review_count": 4, "name": "New 147 Snooker & 18 Lounge KTV", "transactions": [], "url": "https://www.yelp.com/biz/new-147-snooker-and-18-lounge-ktv-brooklyn?adjust_creative=yhLoLzsNXKw40xZ5RCWPpA&utm_campaign=yelp_api_v3&utm_medium=api_v3_business_search&utm_source=yhLoLzsNXKw40xZ5RCWPpA", "distance": 1031.7332283570515, "coordinates": {"latitude": 40.604863, "longitude": -74.005562}, "alias": "new-147-snooker-and-18-lounge-ktv-brooklyn", "image_url": "https://s3-media4.fl.yelpcdn.com/bphoto/4ElHJAih7Ic2ZkGP0eWvRA/o.jpg", "categories": [{"alias": "poolhalls", "title": "Pool Halls"}, {"alias": "karaoke", "title": "Karaoke"}, {"alias": "lounges", "title": "Lounges"}], "display_phone": "(718) 942-5546", "phone": "+17189425546", "id": "0dXnAd7Es9KuW-cNoqTQNw", "is_closed": false, "location": {"city": "Brooklyn", "display_address": ["8732 18th Ave", "Brooklyn, NY 11214"], "country": "US", "address2": null, "address3": "", "state": "NY", "address1": "8732 18th Ave", "zip_code": "11214"}}, {"rating": 5.0, "review_count": 1, "name": "The Cropsey Lounge", "transactions": [], "url": "https://www.yelp.com/biz/the-cropsey-lounge-brooklyn?adjust_creative=yhLoLzsNXKw40xZ5RCWPpA&utm_campaign=yelp_api_v3&utm_medium=api_v3_business_search&utm_source=yhLoLzsNXKw40xZ5RCWPpA", "distance": 1150.7557083343916, "coordinates": {"latitude": 40.60187, "longitude": -74.00544}, "alias": "the-cropsey-lounge-brooklyn", "image_url": "", "categories": [{"alias": "pubs", "title": "Pubs"}], "display_phone": "(718) 372-9286", "phone": "+17183729286", "id": "lnlOILNqE6Xnp466YBffhw", "is_closed": false, "location": {"city": "Brooklyn", "display_address": ["1861 Cropsey Ave", "Brooklyn, NY 11214"], "country": "US", "address2": "", "address3": null, "state": "NY", "address1": "1861 Cropsey Ave", "zip_code": "11214"}}, {"rating": 5.0, "review_count": 2, "name": "My Father's Place", "transactions": [], "url": "https://www.yelp.com/biz/my-fathers-place-bath-beach?adjust_creative=yhLoLzsNXKw40xZ5RCWPpA&utm_campaign=yelp_api_v3&utm_medium=api_v3_business_search&utm_source=yhLoLzsNXKw40xZ5RCWPpA", "distance": 1150.7557083343916, "coordinates": {"latitude": 40.60187, "longitude": -74.00544}, "alias": "my-fathers-place-bath-beach", "image_url": "https://s3-media4.fl.yelpcdn.com/bphoto/eS_hgnmmeuAHWGEQSKZCqA/o.jpg", "categories": [{"alias": "bars", "title": "Bars"}], "display_phone": "(718) 372-9286", "phone": "+17183729286", "id": "jxJG_pMU8bJ2HH4jT5MXwA", "is_closed": false, "location": {"city": "Bath Beach", "display_address": ["1861 Cropsey Ave", "Bath Beach, NY 11214"], "country": "US", "address2": "", "address3": "", "state": "NY", "address1": "1861 Cropsey Ave", "zip_code": "11214"}}, {"rating": 4.5, "review_count": 11, "name": "Alegrito Espresso Bar", "transactions": [], "url": "https://www.yelp.com/biz/alegrito-espresso-bar-brooklyn-4?adjust_creative=yhLoLzsNXKw40xZ5RCWPpA&utm_campaign=yelp_api_v3&utm_medium=api_v3_business_search&utm_source=yhLoLzsNXKw40xZ5RCWPpA", "distance": 1280.4294161019925, "coordinates": {"latitude": 40.6134813, "longitude": -73.9811028}, "alias": "alegrito-espresso-bar-brooklyn-4", "image_url": "https://s3-media3.fl.yelpcdn.com/bphoto/6jhkreFw_UjcY5CzQm5PbQ/o.jpg", "categories": [{"alias": "coffee", "title": "Coffee & Tea"}, {"alias": "bars", "title": "Bars"}], "display_phone": "(347) 492-4997", "phone": "+13474924997", "id": "B669cqtISGPbHaXM2tJzqw", "is_closed": false, "location": {"city": "Brooklyn", "display_address": ["2216 65th St", "Brooklyn, NY 11204"], "country": "US", "address2": "", "address3": null, "state": "NY", "address1": "2216 65th St", "zip_code": "11204"}}, {"rating": 3.5, "review_count": 112, "name": "Blue Agave Mexican Restaurant & Bar", "transactions": ["pickup", "delivery"], "url": "https://www.yelp.com/biz/blue-agave-mexican-restaurant-and-bar-brooklyn?adjust_creative=yhLoLzsNXKw40xZ5RCWPpA&utm_campaign=yelp_api_v3&utm_medium=api_v3_business_search&utm_source=yhLoLzsNXKw40xZ5RCWPpA", "price": "$$", "distance": 1305.399489908312, "coordinates": {"latitude": 40.6178877280414, "longitude": -73.9990214085986}, "alias": "blue-agave-mexican-restaurant-and-bar-brooklyn", "image_url": "https://s3-media2.fl.yelpcdn.com/bphoto/bMTDjTEwNqpoO01Kiuh9OQ/o.jpg", "categories": [{"alias": "mexican", "title": "Mexican"}, {"alias": "bars", "title": "Bars"}], "display_phone": "(718) 758-5822", "phone": "+17187585822", "id": "uwUzZf2IQFVb5puJuNd9rA", "is_closed": false, "location": {"city": "Brooklyn", "display_address": ["7201 16th Ave", "Brooklyn, NY 11204"], "country": "US", "address2": "", "address3": "", "state": "NY", "address1": "7201 16th Ave", "zip_code": "11204"}}, {"rating": 4.0, "review_count": 1, "name": "Prince Snooker Club", "transactions": [], "url": "https://www.yelp.com/biz/prince-snooker-club-brooklyn?adjust_creative=yhLoLzsNXKw40xZ5RCWPpA&utm_campaign=yelp_api_v3&utm_medium=api_v3_business_search&utm_source=yhLoLzsNXKw40xZ5RCWPpA", "price": "$$", "distance": 1362.7120816856207, "coordinates": {"latitude": 40.61743, "longitude": -73.985398}, "alias": "prince-snooker-club-brooklyn", "image_url": "https://s3-media1.fl.yelpcdn.com/bphoto/S5TfOSHlxgtE7X1sUX3pUg/o.jpg", "categories": [{"alias": "poolhalls", "title": "Pool Halls"}], "display_phone": "(718) 621-1883", "phone": "+17186211883", "id": "GXN9UFYUdMvsPYWRpuasqw", "is_closed": false, "location": {"city": "Brooklyn", "display_address": ["6322 20th Ave", "Brooklyn, NY 11204"], "country": "US", "address2": "", "address3": "", "state": "NY", "address1": "6322 20th Ave", "zip_code": "11204"}}, {"rating": 2.0, "review_count": 7, "name": "Characters KTV", "transactions": [], "url": "https://www.yelp.com/biz/characters-ktv-brooklyn-4?adjust_creative=yhLoLzsNXKw40xZ5RCWPpA&utm_campaign=yelp_api_v3&utm_medium=api_v3_business_search&utm_source=yhLoLzsNXKw40xZ5RCWPpA", "price": "$", "distance": 1521.7677648044098, "coordinates": {"latitude": 40.6183403454157, "longitude": -73.983759842813}, "alias": "characters-ktv-brooklyn-4", "image_url": "https://s3-media3.fl.yelpcdn.com/bphoto/RMUa8GdcF8_i1qdzrSO9Iw/o.jpg", "categories": [{"alias": "karaoke", "title": "Karaoke"}], "display_phone": "(718) 331-3881", "phone": "+17183313881", "id": "tWRkcdD-SLOYexD7UqOYuA", "is_closed": false, "location": {"city": "Brooklyn", "display_address": ["6117 20th Ave", "Brooklyn, NY 11204"], "country": "US", "address2": "", "address3": null, "state": "NY", "address1": "6117 20th Ave", "zip_code": "11204"}}, {"rating": 4.5, "review_count": 29, "name": "Gotham City Billiards Club", "transactions": [], "url": "https://www.yelp.com/biz/gotham-city-billiards-club-brooklyn?adjust_creative=yhLoLzsNXKw40xZ5RCWPpA&utm_campaign=yelp_api_v3&utm_medium=api_v3_business_search&utm_source=yhLoLzsNXKw40xZ5RCWPpA", "price": "$", "distance": 1596.4459563530352, "coordinates": {"latitude": 40.59626, "longitude": -73.9809}, "alias": "gotham-city-billiards-club-brooklyn", "image_url": "https://s3-media1.fl.yelpcdn.com/bphoto/_a31b4_cHc4FH5HS7ZW96Q/o.jpg", "categories": [{"alias": "poolhalls", "title": "Pool Halls"}], "display_phone": "(718) 714-1002", "phone": "+17187141002", "id": "Tt-q9gCaeHeEs6oDdXwGUg", "is_closed": false, "location": {"city": "Brooklyn", "display_address": ["93 Ave U", "Brooklyn, NY 11223"], "country": "US", "address2": "", "address3": "", "state": "NY", "address1": "93 Ave U", "zip_code": "11223"}}, {"rating": 4.0, "review_count": 5, "name": "Sababa Hookah Lounge", "transactions": [], "url": "https://www.yelp.com/biz/sababa-hookah-lounge-brooklyn?adjust_creative=yhLoLzsNXKw40xZ5RCWPpA&utm_campaign=yelp_api_v3&utm_medium=api_v3_business_search&utm_source=yhLoLzsNXKw40xZ5RCWPpA", "price": "$$", "distance": 1630.703306108176, "coordinates": {"latitude": 40.612326, "longitude": -74.011546}, "alias": "sababa-hookah-lounge-brooklyn", "image_url": "https://s3-media3.fl.yelpcdn.com/bphoto/UUwMsiS1AeLhW8Qt5DXQsQ/o.jpg", "categories": [{"alias": "lounges", "title": "Lounges"}, {"alias": "hookah_bars", "title": "Hookah Bars"}], "display_phone": "(718) 872-7876", "phone": "+17188727876", "id": "8dYr70FGDtR5XFEdaxcPwQ", "is_closed": false, "location": {"city": "Brooklyn", "display_address": ["1412 86th St", "Brooklyn, NY 11228"], "country": "US", "address2": "", "address3": "", "state": "NY", "address1": "1412 86th St", "zip_code": "11228"}}, {"rating": 4.0, "review_count": 11, "name": "SET Lounge Bar & Billiards", "transactions": [], "url": "https://www.yelp.com/biz/set-lounge-bar-and-billiards-brooklyn?adjust_creative=yhLoLzsNXKw40xZ5RCWPpA&utm_campaign=yelp_api_v3&utm_medium=api_v3_business_search&utm_source=yhLoLzsNXKw40xZ5RCWPpA", "price": "$", "distance": 1726.6455387274557, "coordinates": {"latitude": 40.60809, "longitude": -73.97322}, "alias": "set-lounge-bar-and-billiards-brooklyn", "image_url": "https://s3-media2.fl.yelpcdn.com/bphoto/JQsSCo9b0bzuc5gh5YEjPQ/o.jpg", "categories": [{"alias": "lounges", "title": "Lounges"}, {"alias": "poolhalls", "title": "Pool Halls"}], "display_phone": "(718) 758-5999", "phone": "+17187585999", "id": "7j6Pxn41tadGT4MnHVUSgA", "is_closed": false, "location": {"city": "Brooklyn", "display_address": ["1828 McDonald Ave", "Brooklyn, NY 11223"], "country": "US", "address2": null, "address3": null, "state": "NY", "address1": "1828 McDonald Ave", "zip_code": "11223"}}, {"rating": 4.0, "review_count": 140, "name": "Orange Grill", "transactions": ["pickup", "delivery"], "url": "https://www.yelp.com/biz/orange-grill-brooklyn?adjust_creative=yhLoLzsNXKw40xZ5RCWPpA&utm_campaign=yelp_api_v3&utm_medium=api_v3_business_search&utm_source=yhLoLzsNXKw40xZ5RCWPpA", "price": "$$$", "distance": 1745.1821875878502, "coordinates": {"latitude": 40.591242, "longitude": -73.99196}, "alias": "orange-grill-brooklyn", "image_url": "https://s3-media2.fl.yelpcdn.com/bphoto/niLz_E42Owjgr6iT8ZAB9Q/o.jpg", "categories": [{"alias": "bars", "title": "Bars"}, {"alias": "sushi", "title": "Sushi Bars"}, {"alias": "french", "title": "French"}], "display_phone": "(347) 673-5411", "phone": "+13476735411", "id": "OkLCVAUzB-SNmDAfNdSNRA", "is_closed": false, "location": {"city": "Brooklyn", "display_address": ["2547 Cropsey Ave", "Brooklyn, NY 11214"], "country": "US", "address2": "", "address3": "", "state": "NY", "address1": "2547 Cropsey Ave", "zip_code": "11214"}}, {"rating": 4.5, "review_count": 6, "name": "B66 Club", "transactions": [], "url": "https://www.yelp.com/biz/b66-club-brooklyn?adjust_creative=yhLoLzsNXKw40xZ5RCWPpA&utm_campaign=yelp_api_v3&utm_medium=api_v3_business_search&utm_source=yhLoLzsNXKw40xZ5RCWPpA", "price": "$$", "distance": 1776.1361224999507, "coordinates": {"latitude": 40.622498421048, "longitude": -73.9980711042881}, "alias": "b66-club-brooklyn", "image_url": "https://s3-media3.fl.yelpcdn.com/bphoto/2geVwFv5cse9mEaZhYzHkA/o.jpg", "categories": [{"alias": "danceclubs", "title": "Dance Clubs"}, {"alias": "venues", "title": "Venues & Event Spaces"}], "display_phone": "(718) 331-0074", "phone": "+17183310074", "id": "puSUKmN5Ep1M2TTdLg5RqA", "is_closed": false, "location": {"city": "Brooklyn", "display_address": ["6612 New Utrecht Ave", "Brooklyn, NY 11219"], "country": "US", "address2": "", "address3": "", "state": "NY", "address1": "6612 New Utrecht Ave", "zip_code": "11219"}}, {"rating": 4.0, "review_count": 113, "name": "Living Room Restaurant & Lounge", "transactions": ["pickup", "delivery"], "url": "https://www.yelp.com/biz/living-room-restaurant-and-lounge-brooklyn-3?adjust_creative=yhLoLzsNXKw40xZ5RCWPpA&utm_campaign=yelp_api_v3&utm_medium=api_v3_business_search&utm_source=yhLoLzsNXKw40xZ5RCWPpA", "price": "$$", "distance": 1789.8435001058158, "coordinates": {"latitude": 40.596309, "longitude": -73.977697}, "alias": "living-room-restaurant-and-lounge-brooklyn-3", "image_url": "https://s3-media2.fl.yelpcdn.com/bphoto/55o68boO67ROfniGWaj__w/o.jpg", "categories": [{"alias": "newamerican", "title": "American (New)"}, {"alias": "lounges", "title": "Lounges"}], "display_phone": "(718) 996-8700", "phone": "+17189968700", "id": "ORLEaDESAXztvS5yYYW0oQ", "is_closed": false, "location": {"city": "Brooklyn", "display_address": ["178 Ave U", "Brooklyn, NY 11223"], "country": "US", "address2": null, "address3": "", "state": "NY", "address1": "178 Ave U", "zip_code": "11223"}}, {"rating": 1.0, "review_count": 1, "name": "Tijuana Sports Bar", "transactions": [], "url": "https://www.yelp.com/biz/tijuana-sports-bar-brooklyn?adjust_creative=yhLoLzsNXKw40xZ5RCWPpA&utm_campaign=yelp_api_v3&utm_medium=api_v3_business_search&utm_source=yhLoLzsNXKw40xZ5RCWPpA", "price": "$$$", "distance": 1801.1641264066263, "coordinates": {"latitude": 40.60412, "longitude": -73.9726}, "alias": "tijuana-sports-bar-brooklyn", "image_url": "", "categories": [{"alias": "sportsbars", "title": "Sports Bars"}], "display_phone": "(718) 339-1002", "phone": "+17183391002", "id": "Eoa0KerNGyOOm_HOHjp0Dg", "is_closed": false, "location": {"city": "Brooklyn", "display_address": ["472 Kings Hwy", "Brooklyn, NY 11223"], "country": "US", "address2": null, "address3": null, "state": "NY", "address1": "472 Kings Hwy", "zip_code": "11223"}}, {"rating": 2.0, "review_count": 1, "name": "Bar & Lounge Founders", "transactions": [], "url": "https://www.yelp.com/biz/bar-and-lounge-founders-brooklyn?adjust_creative=yhLoLzsNXKw40xZ5RCWPpA&utm_campaign=yelp_api_v3&utm_medium=api_v3_business_search&utm_source=yhLoLzsNXKw40xZ5RCWPpA", "distance": 1811.7126650663388, "coordinates": {"latitude": 40.6050510405537, "longitude": -73.9723011106253}, "alias": "bar-and-lounge-founders-brooklyn", "image_url": "https://s3-media4.fl.yelpcdn.com/bphoto/FsAiMaIq71kkh-Q09js4Zg/o.jpg", "categories": [{"alias": "lounges", "title": "Lounges"}], "display_phone": "", "phone": "", "id": "pvZjN3EZVQkDxccr6KAeYA", "is_closed": false, "location": {"city": "Brooklyn", "display_address": ["1952 Mcdonald Ave", "Brooklyn, NY 11223"], "country": "US", "address2": "", "address3": null, "state": "NY", "address1": "1952 Mcdonald Ave", "zip_code": "11223"}}, {"rating": 3.5, "review_count": 6, "name": "La Royale Sports Bar & Lounge", "transactions": [], "url": "https://www.yelp.com/biz/la-royale-sports-bar-and-lounge-brooklyn?adjust_creative=yhLoLzsNXKw40xZ5RCWPpA&utm_campaign=yelp_api_v3&utm_medium=api_v3_business_search&utm_source=yhLoLzsNXKw40xZ5RCWPpA", "distance": 1835.4878863558126, "coordinates": {"latitude": 40.6050516890743, "longitude": -73.972017603839}, "alias": "la-royale-sports-bar-and-lounge-brooklyn", "image_url": "", "categories": [{"alias": "sportsbars", "title": "Sports Bars"}], "display_phone": "(718) 382-1342", "phone": "+17183821342", "id": "CLP7msW_TTD3tKu2etPDvg", "is_closed": false, "location": {"city": "Brooklyn", "display_address": ["1949 McDonald Ave", "Brooklyn, NY 11223"], "country": "US", "address2": "", "address3": null, "state": "NY", "address1": "1949 McDonald Ave", "zip_code": "11223"}}, {"rating": 3.0, "review_count": 8, "name": "Knights of Columbus", "transactions": [], "url": "https://www.yelp.com/biz/knights-of-columbus-brooklyn-3?adjust_creative=yhLoLzsNXKw40xZ5RCWPpA&utm_campaign=yelp_api_v3&utm_medium=api_v3_business_search&utm_source=yhLoLzsNXKw40xZ5RCWPpA", "price": "$$$$", "distance": 1850.258617855054, "coordinates": {"latitude": 40.61409, "longitude": -74.01342}, "alias": "knights-of-columbus-brooklyn-3", "image_url": "https://s3-media1.fl.yelpcdn.com/bphoto/wFy0sUgBbZTkCb01Bap6EA/o.jpg", "categories": [{"alias": "musicvenues", "title": "Music Venues"}], "display_phone": "(718) 259-8840", "phone": "+17182598840", "id": "DHfa_wiPkF_nt-DELw81DQ", "is_closed": false, "location": {"city": "Brooklyn", "display_address": ["1305 86th St", "Brooklyn, NY 11228"], "country": "US", "address2": "", "address3": "", "state": "NY", "address1": "1305 86th St", "zip_code": "11228"}}, {"rating": 5.0, "review_count": 1, "name": "Panache Nightclub", "transactions": [], "url": "https://www.yelp.com/biz/panache-nightclub-brooklyn?adjust_creative=yhLoLzsNXKw40xZ5RCWPpA&utm_campaign=yelp_api_v3&utm_medium=api_v3_business_search&utm_source=yhLoLzsNXKw40xZ5RCWPpA", "distance": 1903.557011983634, "coordinates": {"latitude": 40.6240196, "longitude": -73.9943771}, "alias": "panache-nightclub-brooklyn", "image_url": "", "categories": [{"alias": "nightlife", "title": "Nightlife"}], "display_phone": "(718) 837-8990", "phone": "+17188378990", "id": "jtiuHznmJ1ZTzHj2bObQHA", "is_closed": false, "location": {"city": "Brooklyn", "display_address": ["1546 62nd St", "Brooklyn, NY 11219"], "country": "US", "address2": "", "address3": "", "state": "NY", "address1": "1546 62nd St", "zip_code": "11219"}}, {"rating": 4.0, "review_count": 6, "name": "Joe's Bar & Grill", "transactions": [], "url": "https://www.yelp.com/biz/joes-bar-and-grill-new-york?adjust_creative=yhLoLzsNXKw40xZ5RCWPpA&utm_campaign=yelp_api_v3&utm_medium=api_v3_business_search&utm_source=yhLoLzsNXKw40xZ5RCWPpA", "price": "$", "distance": 1944.0251337758343, "coordinates": {"latitude": 40.5970425339919, "longitude": -73.9745950698853}, "alias": "joes-bar-and-grill-new-york", "image_url": "https://s3-media4.fl.yelpcdn.com/bphoto/TlcD52RVCIFcsdVh5xrq9A/o.jpg", "categories": [{"alias": "divebars", "title": "Dive Bars"}], "display_phone": "(718) 372-9595", "phone": "+17183729595", "id": "nw0yK11ia7jhgYU9kA-9YQ", "is_closed": false, "location": {"city": "New York", "display_address": ["257 Ave U", "New York, NY 11223"], "country": "US", "address2": "", "address3": "", "state": "NY", "address1": "257 Ave U", "zip_code": "11223"}}, {"rating": 3.0, "review_count": 55, "name": "Cave Restaurant", "transactions": ["pickup", "delivery"], "url": "https://www.yelp.com/biz/cave-restaurant-brooklyn?adjust_creative=yhLoLzsNXKw40xZ5RCWPpA&utm_campaign=yelp_api_v3&utm_medium=api_v3_business_search&utm_source=yhLoLzsNXKw40xZ5RCWPpA", "price": "$$", "distance": 2087.6382250100596, "coordinates": {"latitude": 40.5957184, "longitude": -73.9736099}, "alias": "cave-restaurant-brooklyn", "image_url": "https://s3-media3.fl.yelpcdn.com/bphoto/cci1eoSFN44sNIjfr2yYuw/o.jpg", "categories": [{"alias": "lounges", "title": "Lounges"}, {"alias": "hookah_bars", "title": "Hookah Bars"}], "display_phone": "(347) 915-1515", "phone": "+13479151515", "id": "GJHwyih4yxqzEezhStVTaQ", "is_closed": false, "location": {"city": "Brooklyn", "display_address": ["2320 McDonald Ave", "Brooklyn, NY 11223"], "country": "US", "address2": "", "address3": "", "state": "NY", "address1": "2320 McDonald Ave", "zip_code": "11223"}}, {"rating": 4.0, "review_count": 12, "name": "Starlite Lounge", "transactions": [], "url": "https://www.yelp.com/biz/starlite-lounge-brooklyn?adjust_creative=yhLoLzsNXKw40xZ5RCWPpA&utm_campaign=yelp_api_v3&utm_medium=api_v3_business_search&utm_source=yhLoLzsNXKw40xZ5RCWPpA", "price": "$", "distance": 2415.640661767616, "coordinates": {"latitude": 40.62376, "longitude": -73.97563}, "alias": "starlite-lounge-brooklyn", "image_url": "https://s3-media2.fl.yelpcdn.com/bphoto/F7ef8u8guo9heVvcIcZNjw/o.jpg", "categories": [{"alias": "divebars", "title": "Dive Bars"}], "display_phone": "(718) 252-2435", "phone": "+17182522435", "id": "7W-hzZxyeqhJxGF6eOJzGg", "is_closed": false, "location": {"city": "Brooklyn", "display_address": ["1213 McDonald Ave", "Brooklyn, NY 11230"], "country": "US", "address2": null, "address3": "", "state": "NY", "address1": "1213 McDonald Ave", "zip_code": "11230"}}, {"rating": 4.5, "review_count": 26, "name": "Davry Kosher Sports Bar", "transactions": [], "url": "https://www.yelp.com/biz/davry-kosher-sports-bar-brooklyn?adjust_creative=yhLoLzsNXKw40xZ5RCWPpA&utm_campaign=yelp_api_v3&utm_medium=api_v3_business_search&utm_source=yhLoLzsNXKw40xZ5RCWPpA", "price": "$$", "distance": 2427.4072447740396, "coordinates": {"latitude": 40.60612, "longitude": -73.96489}, "alias": "davry-kosher-sports-bar-brooklyn", "image_url": "https://s3-media4.fl.yelpcdn.com/bphoto/2JeCKrrA48YDcBLLhFShlQ/o.jpg", "categories": [{"alias": "sportsbars", "title": "Sports Bars"}, {"alias": "kosher", "title": "Kosher"}], "display_phone": "(718) 513-4742", "phone": "+17185134742", "id": "B5526eNbfzBqI9D3KpMoHw", "is_closed": false, "location": {"city": "Brooklyn", "display_address": ["722 Kings Hwy", "Brooklyn, NY 11223"], "country": "US", "address2": null, "address3": "", "state": "NY", "address1": "722 Kings Hwy", "zip_code": "11223"}}, {"rating": 4.0, "review_count": 10, "name": "Skyline Billards & Bar", "transactions": [], "url": "https://www.yelp.com/biz/skyline-billards-and-bar-brooklyn?adjust_creative=yhLoLzsNXKw40xZ5RCWPpA&utm_campaign=yelp_api_v3&utm_medium=api_v3_business_search&utm_source=yhLoLzsNXKw40xZ5RCWPpA", "distance": 2464.4423935371274, "coordinates": {"latitude": 40.590702, "longitude": -73.9736823}, "alias": "skyline-billards-and-bar-brooklyn", "image_url": "https://s3-media1.fl.yelpcdn.com/bphoto/ufEJlwVthpMHyYi-k9k4TA/o.jpg", "categories": [{"alias": "poolhalls", "title": "Pool Halls"}, {"alias": "sportsbars", "title": "Sports Bars"}], "display_phone": "(718) 627-3407", "phone": "+17186273407", "id": "m9PE4HQ1gnRYDfp855kFQg", "is_closed": false, "location": {"city": "Brooklyn", "display_address": ["2515 McDonald Ave", "Brooklyn, NY 11223"], "country": "US", "address2": "", "address3": "", "state": "NY", "address1": "2515 McDonald Ave", "zip_code": "11223"}}, {"rating": 3.5, "review_count": 64, "name": "Draft Barn", "transactions": [], "url": "https://www.yelp.com/biz/draft-barn-brooklyn-3?adjust_creative=yhLoLzsNXKw40xZ5RCWPpA&utm_campaign=yelp_api_v3&utm_medium=api_v3_business_search&utm_source=yhLoLzsNXKw40xZ5RCWPpA", "price": "$$", "distance": 2609.0638785730125, "coordinates": {"latitude": 40.59056, "longitude": -73.97133}, "alias": "draft-barn-brooklyn-3", "image_url": "https://s3-media2.fl.yelpcdn.com/bphoto/1sawHdaCzu92ZlyGAcLOkA/o.jpg", "categories": [{"alias": "pubs", "title": "Pubs"}, {"alias": "newamerican", "title": "American (New)"}], "display_phone": "(718) 768-0515", "phone": "+17187680515", "id": "ibTjqHbbBqctjzJLtyUmRw", "is_closed": false, "location": {"city": "Brooklyn", "display_address": ["317 Ave X", "Brooklyn, NY 11223"], "country": "US", "address2": "", "address3": "", "state": "NY", "address1": "317 Ave X", "zip_code": "11223"}}, {"rating": 2.0, "review_count": 7, "name": "Red Velvet Lounge NY", "transactions": [], "url": "https://www.yelp.com/biz/red-velvet-lounge-ny-midwood?adjust_creative=yhLoLzsNXKw40xZ5RCWPpA&utm_campaign=yelp_api_v3&utm_medium=api_v3_business_search&utm_source=yhLoLzsNXKw40xZ5RCWPpA", "price": "$$", "distance": 2656.6958194236036, "coordinates": {"latitude": 40.6123669, "longitude": -73.9629929}, "alias": "red-velvet-lounge-ny-midwood", "image_url": "https://s3-media3.fl.yelpcdn.com/bphoto/ljS43DTIN4lHEYon-nWXhA/o.jpg", "categories": [{"alias": "hookah_bars", "title": "Hookah Bars"}, {"alias": "danceclubs", "title": "Dance Clubs"}, {"alias": "arabian", "title": "Arabian"}], "display_phone": "(347) 962-1419", "phone": "+13479621419", "id": "uU5bffvq6Y-j7gFzBr0Ilg", "is_closed": false, "location": {"city": "Midwood", "display_address": ["1842 Coney Island Ave", "Midwood, NY 11235"], "country": "US", "address2": "", "address3": "", "state": "NY", "address1": "1842 Coney Island Ave", "zip_code": "11235"}}, {"rating": 3.0, "review_count": 30, "name": "Myst Lounge", "transactions": [], "url": "https://www.yelp.com/biz/myst-lounge-brooklyn-7?adjust_creative=yhLoLzsNXKw40xZ5RCWPpA&utm_campaign=yelp_api_v3&utm_medium=api_v3_business_search&utm_source=yhLoLzsNXKw40xZ5RCWPpA", "price": "$$", "distance": 2659.4715532980763, "coordinates": {"latitude": 40.606317, "longitude": -73.962131}, "alias": "myst-lounge-brooklyn-7", "image_url": "https://s3-media2.fl.yelpcdn.com/bphoto/MrJ7wgA0w4rmNH3eD2bq6g/o.jpg", "categories": [{"alias": "hookah_bars", "title": "Hookah Bars"}, {"alias": "newamerican", "title": "American (New)"}, {"alias": "juicebars", "title": "Juice Bars & Smoothies"}], "display_phone": "(718) 336-0007", "phone": "+17183360007", "id": "W_1HbrAuJx9OhG4XER47Jw", "is_closed": false, "location": {"city": "Brooklyn", "display_address": ["2086 Coney Island Ave", "Brooklyn, NY 11223"], "country": "US", "address2": null, "address3": "", "state": "NY", "address1": "2086 Coney Island Ave", "zip_code": "11223"}}, {"rating": 4.0, "review_count": 6, "name": "Reazon Cafe & Lounge", "transactions": ["pickup", "delivery"], "url": "https://www.yelp.com/biz/reazon-cafe-and-lounge-brooklyn?adjust_creative=yhLoLzsNXKw40xZ5RCWPpA&utm_campaign=yelp_api_v3&utm_medium=api_v3_business_search&utm_source=yhLoLzsNXKw40xZ5RCWPpA", "distance": 2684.525156834184, "coordinates": {"latitude": 40.6110746, "longitude": -73.9623065}, "alias": "reazon-cafe-and-lounge-brooklyn", "image_url": "https://s3-media4.fl.yelpcdn.com/bphoto/1UYIJK4dZ3QGliAMYVQzGQ/o.jpg", "categories": [{"alias": "hookah_bars", "title": "Hookah Bars"}, {"alias": "tradamerican", "title": "American (Traditional)"}], "display_phone": "(860) 367-2282", "phone": "+18603672282", "id": "MMewsMbQBtbj1RYVEKE6EQ", "is_closed": false, "location": {"city": "Brooklyn", "display_address": ["1897 Coney Island Ave", "Brooklyn, NY 11230"], "country": "US", "address2": null, "address3": "", "state": "NY", "address1": "1897 Coney Island Ave", "zip_code": "11230"}}, {"rating": 3.0, "review_count": 2, "name": "Koyla Trilogy", "transactions": [], "url": "https://www.yelp.com/biz/koyla-trilogy-brooklyn?adjust_creative=yhLoLzsNXKw40xZ5RCWPpA&utm_campaign=yelp_api_v3&utm_medium=api_v3_business_search&utm_source=yhLoLzsNXKw40xZ5RCWPpA", "distance": 2709.282171863882, "coordinates": {"latitude": 40.60634, "longitude": -73.9616}, "alias": "koyla-trilogy-brooklyn", "image_url": "https://s3-media1.fl.yelpcdn.com/bphoto/hRswOzbWZ1f8_GRSUlELRg/o.jpg", "categories": [{"alias": "hookah_bars", "title": "Hookah Bars"}], "display_phone": "(631) 790-5106", "phone": "+16317905106", "id": "Vcnf1NFTUENS0Q3f0KUCpw", "is_closed": false, "location": {"city": "Brooklyn", "display_address": ["2085 Coney Island Ave", "Brooklyn, NY 11223"], "country": "US", "address2": null, "address3": "", "state": "NY", "address1": "2085 Coney Island Ave", "zip_code": "11223"}}, {"rating": 4.0, "review_count": 1, "name": "U Caffe", "transactions": [], "url": "https://www.yelp.com/biz/u-caffe-brooklyn?adjust_creative=yhLoLzsNXKw40xZ5RCWPpA&utm_campaign=yelp_api_v3&utm_medium=api_v3_business_search&utm_source=yhLoLzsNXKw40xZ5RCWPpA", "price": "$$", "distance": 2713.653420983074, "coordinates": {"latitude": 40.59789, "longitude": -73.96383}, "alias": "u-caffe-brooklyn", "image_url": "https://s3-media2.fl.yelpcdn.com/bphoto/fcipZTPaNJcGvSLCPlMiSQ/o.jpg", "categories": [{"alias": "coffee", "title": "Coffee & Tea"}, {"alias": "bars", "title": "Bars"}], "display_phone": "", "phone": "", "id": "bj7tTkKNA9jTvR77HQBUfA", "is_closed": false, "location": {"city": "Brooklyn", "display_address": ["706 Avenue U", "Brooklyn, NY 11223"], "country": "US", "address2": null, "address3": "", "state": "NY", "address1": "706 Avenue U", "zip_code": "11223"}}, {"rating": 5.0, "review_count": 4, "name": "Supremacy Grill and Lounge", "transactions": [], "url": "https://www.yelp.com/biz/supremacy-grill-and-lounge-brooklyn?adjust_creative=yhLoLzsNXKw40xZ5RCWPpA&utm_campaign=yelp_api_v3&utm_medium=api_v3_business_search&utm_source=yhLoLzsNXKw40xZ5RCWPpA", "distance": 2773.166795493572, "coordinates": {"latitude": 40.61792, "longitude": -73.96408}, "alias": "supremacy-grill-and-lounge-brooklyn", "image_url": "https://s3-media2.fl.yelpcdn.com/bphoto/tF0682uEK2t9Jo_QBLGj-Q/o.jpg", "categories": [{"alias": "hookah_bars", "title": "Hookah Bars"}, {"alias": "lounges", "title": "Lounges"}], "display_phone": "(718) 676-6065", "phone": "+17186766065", "id": "gcYSrrGq6lFW3rktyOihow", "is_closed": false, "location": {"city": "Brooklyn", "display_address": ["1624 Coney Island Ave", "Brooklyn, NY 11230"], "country": "US", "address2": null, "address3": "", "state": "NY", "address1": "1624 Coney Island Ave", "zip_code": "11230"}}, {"rating": 3.0, "review_count": 78, "name": "Nirvana", "transactions": [], "url": "https://www.yelp.com/biz/nirvana-brooklyn?adjust_creative=yhLoLzsNXKw40xZ5RCWPpA&utm_campaign=yelp_api_v3&utm_medium=api_v3_business_search&utm_source=yhLoLzsNXKw40xZ5RCWPpA", "price": "$$", "distance": 2815.2529993200765, "coordinates": {"latitude": 40.5999, "longitude": -73.96172}, "alias": "nirvana-brooklyn", "image_url": "https://s3-media2.fl.yelpcdn.com/bphoto/8P62Sp1Z_o3zs1noRKewgA/o.jpg", "categories": [{"alias": "hookah_bars", "title": "Hookah Bars"}, {"alias": "cocktailbars", "title": "Cocktail Bars"}, {"alias": "tradamerican", "title": "American (Traditional)"}], "display_phone": "(718) 376-2500", "phone": "+17183762500", "id": "0vsGDvo1kbDI4nQr8gUI3g", "is_closed": false, "location": {"city": "Brooklyn", "display_address": ["2340 Coney Island Ave", "Brooklyn, NY 11223"], "country": "US", "address2": "", "address3": "", "state": "NY", "address1": "2340 Coney Island Ave", "zip_code": "11223"}}, {"rating": 2.5, "review_count": 22, "name": "Red Karaoke Lounge", "transactions": [], "url": "https://www.yelp.com/biz/red-karaoke-lounge-brooklyn?adjust_creative=yhLoLzsNXKw40xZ5RCWPpA&utm_campaign=yelp_api_v3&utm_medium=api_v3_business_search&utm_source=yhLoLzsNXKw40xZ5RCWPpA", "price": "$$", "distance": 2867.3279851699463, "coordinates": {"latitude": 40.59865, "longitude": -73.96142}, "alias": "red-karaoke-lounge-brooklyn", "image_url": "https://s3-media1.fl.yelpcdn.com/bphoto/JA3kMoFPoKjIf5zhYy1F2w/o.jpg", "categories": [{"alias": "karaoke", "title": "Karaoke"}], "display_phone": "(718) 382-4488", "phone": "+17183824488", "id": "I3BKgqQKSDpKynCKsdbRfg", "is_closed": false, "location": {"city": "Brooklyn", "display_address": ["2394 Coney Island Ave", "Brooklyn, NY 11223"], "country": "US", "address2": null, "address3": "", "state": "NY", "address1": "2394 Coney Island Ave", "zip_code": "11223"}}, {"rating": 4.5, "review_count": 11, "name": "Indigo Murphy's", "transactions": [], "url": "https://www.yelp.com/biz/indigo-murphys-brooklyn?adjust_creative=yhLoLzsNXKw40xZ5RCWPpA&utm_campaign=yelp_api_v3&utm_medium=api_v3_business_search&utm_source=yhLoLzsNXKw40xZ5RCWPpA", "price": "$$", "distance": 2887.7347244189473, "coordinates": {"latitude": 40.6278190612793, "longitude": -74.0139541625977}, "alias": "indigo-murphys-brooklyn", "image_url": "https://s3-media3.fl.yelpcdn.com/bphoto/aPGFn0L6xnWxSqH4ft2dEg/o.jpg", "categories": [{"alias": "sportsbars", "title": "Sports Bars"}, {"alias": "pubs", "title": "Pubs"}], "display_phone": "(718) 921-1013", "phone": "+17189211013", "id": "1jWYg-iLBqJSypEJvsxTGw", "is_closed": false, "location": {"city": "Brooklyn", "display_address": ["7102 Fort Hamilton Pkwy", "Brooklyn, NY 11228"], "country": "US", "address2": null, "address3": "", "state": "NY", "address1": "7102 Fort Hamilton Pkwy", "zip_code": "11228"}}, {"rating": 1.0, "review_count": 1, "name": "El Tequilero Bar & Restaturant", "transactions": [], "url": "https://www.yelp.com/biz/el-tequilero-bar-and-restaturant-brooklyn?adjust_creative=yhLoLzsNXKw40xZ5RCWPpA&utm_campaign=yelp_api_v3&utm_medium=api_v3_business_search&utm_source=yhLoLzsNXKw40xZ5RCWPpA", "price": "$", "distance": 2956.264392632192, "coordinates": {"latitude": 40.5980903160683, "longitude": -73.9605802703617}, "alias": "el-tequilero-bar-and-restaturant-brooklyn", "image_url": "", "categories": [{"alias": "bars", "title": "Bars"}, {"alias": "mexican", "title": "Mexican"}], "display_phone": "(347) 275-5557", "phone": "+13472755557", "id": "q7KxBfDL2xs0kPgr6i48sg", "is_closed": false, "location": {"city": "Brooklyn", "display_address": ["1114 Avenue U", "Brooklyn, NY 11223"], "country": "US", "address2": null, "address3": null, "state": "NY", "address1": "1114 Avenue U", "zip_code": "11223"}}, {"rating": 5.0, "review_count": 3, "name": "Baku Boulevard", "transactions": [], "url": "https://www.yelp.com/biz/baku-boulevard-sheepshead-bay?adjust_creative=yhLoLzsNXKw40xZ5RCWPpA&utm_campaign=yelp_api_v3&utm_medium=api_v3_business_search&utm_source=yhLoLzsNXKw40xZ5RCWPpA", "distance": 3024.7675520061325, "coordinates": {"latitude": 40.598754, "longitude": -73.959442}, "alias": "baku-boulevard-sheepshead-bay", "image_url": "https://s3-media4.fl.yelpcdn.com/bphoto/I-nha3dPXHwfIlmwiN3x-Q/o.jpg", "categories": [{"alias": "bars", "title": "Bars"}, {"alias": "tradamerican", "title": "American (Traditional)"}], "display_phone": "(718) 975-2223", "phone": "+17189752223", "id": "ZvbvOHNc7Z3xxkfmDi2zCQ", "is_closed": false, "location": {"city": "Sheepshead Bay", "display_address": ["1223 Ave U", "Sheepshead Bay, NY 11229"], "country": "US", "address2": "", "address3": "", "state": "NY", "address1": "1223 Ave U", "zip_code": "11229"}}, {"rating": 2.5, "review_count": 3, "name": "The Purple Rose", "transactions": [], "url": "https://www.yelp.com/biz/the-purple-rose-brooklyn?adjust_creative=yhLoLzsNXKw40xZ5RCWPpA&utm_campaign=yelp_api_v3&utm_medium=api_v3_business_search&utm_source=yhLoLzsNXKw40xZ5RCWPpA", "price": "$", "distance": 3071.5729585619956, "coordinates": {"latitude": 40.628131, "longitude": -74.01685}, "alias": "the-purple-rose-brooklyn", "image_url": "https://s3-media3.fl.yelpcdn.com/bphoto/g08lNrLBX6KzaMhN7JWMkg/o.jpg", "categories": [{"alias": "bars", "title": "Bars"}], "display_phone": "(718) 680-6030", "phone": "+17186806030", "id": "b-_d-xktz4URc0KF7Uvgfw", "is_closed": false, "location": {"city": "Brooklyn", "display_address": ["7217 8th Ave", "Brooklyn, NY 11228"], "country": "US", "address2": "", "address3": "", "state": "NY", "address1": "7217 8th Ave", "zip_code": "11228"}}, {"rating": 3.0, "review_count": 8, "name": "The Legend KTV", "transactions": [], "url": "https://www.yelp.com/biz/the-legend-ktv-brooklyn-3?adjust_creative=yhLoLzsNXKw40xZ5RCWPpA&utm_campaign=yelp_api_v3&utm_medium=api_v3_business_search&utm_source=yhLoLzsNXKw40xZ5RCWPpA", "price": "$$$$", "distance": 3142.498373359238, "coordinates": {"latitude": 40.6333093, "longitude": -74.0068324}, "alias": "the-legend-ktv-brooklyn-3", "image_url": "https://s3-media3.fl.yelpcdn.com/bphoto/NAZflzSVhz2t9GQ-jJDHjg/o.jpg", "categories": [{"alias": "karaoke", "title": "Karaoke"}], "display_phone": "(718) 686-1888", "phone": "+17186861888", "id": "UVDF9SPUshU1U_pSzFAJMg", "is_closed": false, "location": {"city": "Brooklyn", "display_address": ["947 61st St", "Brooklyn, NY 11219"], "country": "US", "address2": null, "address3": "", "state": "NY", "address1": "947 61st St", "zip_code": "11219"}}, {"rating": 2.5, "review_count": 231, "name": "100 Fun", "transactions": [], "url": "https://www.yelp.com/biz/100-fun-brooklyn?adjust_creative=yhLoLzsNXKw40xZ5RCWPpA&utm_campaign=yelp_api_v3&utm_medium=api_v3_business_search&utm_source=yhLoLzsNXKw40xZ5RCWPpA", "price": "$$", "distance": 3148.4582790847294, "coordinates": {"latitude": 40.6335, "longitude": -74.00657}, "alias": "100-fun-brooklyn", "image_url": "https://s3-media3.fl.yelpcdn.com/bphoto/MnXDcb8MzxDL7vm1Gs5x6Q/o.jpg", "categories": [{"alias": "karaoke", "title": "Karaoke"}, {"alias": "bars", "title": "Bars"}], "display_phone": "(718) 436-8883", "phone": "+17184368883", "id": "ygy0MjMKvk_Nn0xhrSoPCw", "is_closed": false, "location": {"city": "Brooklyn", "display_address": ["932 60th St", "Brooklyn, NY 11219"], "country": "US", "address2": "", "address3": "", "state": "NY", "address1": "932 60th St", "zip_code": "11219"}}, {"rating": 3.5, "review_count": 113, "name": "Lone Star Bar & Grill", "transactions": ["pickup", "delivery"], "url": "https://www.yelp.com/biz/lone-star-bar-and-grill-brooklyn-2?adjust_creative=yhLoLzsNXKw40xZ5RCWPpA&utm_campaign=yelp_api_v3&utm_medium=api_v3_business_search&utm_source=yhLoLzsNXKw40xZ5RCWPpA", "price": "$$", "distance": 3181.273731312394, "coordinates": {"latitude": 40.6206169128418, "longitude": -74.0265655517578}, "alias": "lone-star-bar-and-grill-brooklyn-2", "image_url": "https://s3-media1.fl.yelpcdn.com/bphoto/ueLYgVUkadOifPv71b_b1A/o.jpg", "categories": [{"alias": "pubs", "title": "Pubs"}, {"alias": "tradamerican", "title": "American (Traditional)"}, {"alias": "sportsbars", "title": "Sports Bars"}], "display_phone": "(718) 833-5180", "phone": "+17188335180", "id": "eNNx2BSmwcvjpA0QJUT1nQ", "is_closed": false, "location": {"city": "Brooklyn", "display_address": ["8703 5th Ave", "Brooklyn, NY 11209"], "country": "US", "address2": null, "address3": "", "state": "NY", "address1": "8703 5th Ave", "zip_code": "11209"}}, {"rating": 4.0, "review_count": 28, "name": "The Hide Out", "transactions": [], "url": "https://www.yelp.com/biz/the-hide-out-new-york?adjust_creative=yhLoLzsNXKw40xZ5RCWPpA&utm_campaign=yelp_api_v3&utm_medium=api_v3_business_search&utm_source=yhLoLzsNXKw40xZ5RCWPpA", "price": "$", "distance": 3198.8851412392814, "coordinates": {"latitude": 40.6224294, "longitude": -74.0255152}, "alias": "the-hide-out-new-york", "image_url": "https://s3-media2.fl.yelpcdn.com/bphoto/lmdpvB_ZtVYx7yae-x9_qg/o.jpg", "categories": [{"alias": "divebars", "title": "Dive Bars"}], "display_phone": "", "phone": "", "id": "kGY_Hj4eL8yeEQyZKbccUA", "is_closed": false, "location": {"city": "New York", "display_address": ["8411 5th Ave", "New York, NY 11209"], "country": "US", "address2": "", "address3": "", "state": "NY", "address1": "8411 5th Ave", "zip_code": "11209"}}, {"rating": 3.5, "review_count": 15, "name": "Red White & Brew", "transactions": [], "url": "https://www.yelp.com/biz/red-white-and-brew-bay-ridge?adjust_creative=yhLoLzsNXKw40xZ5RCWPpA&utm_campaign=yelp_api_v3&utm_medium=api_v3_business_search&utm_source=yhLoLzsNXKw40xZ5RCWPpA", "price": "$$", "distance": 3241.524631925729, "coordinates": {"latitude": 40.61959, "longitude": -74.028189}, "alias": "red-white-and-brew-bay-ridge", "image_url": "https://s3-media4.fl.yelpcdn.com/bphoto/rf5xIqLF03zKxKStOmiJKg/o.jpg", "categories": [{"alias": "bars", "title": "Bars"}], "display_phone": "(718) 680-8900", "phone": "+17186808900", "id": "wXpS-_XY5gZTC-fEYTF8zw", "is_closed": false, "location": {"city": "Bay Ridge", "display_address": ["8910 5th Ave", "Bay Ridge, NY 11209"], "country": "US", "address2": "", "address3": "", "state": "NY", "address1": "8910 5th Ave", "zip_code": "11209"}}, {"rating": 4.0, "review_count": 281, "name": "Lock Yard", "transactions": ["pickup", "delivery"], "url": "https://www.yelp.com/biz/lock-yard-brooklyn?adjust_creative=yhLoLzsNXKw40xZ5RCWPpA&utm_campaign=yelp_api_v3&utm_medium=api_v3_business_search&utm_source=yhLoLzsNXKw40xZ5RCWPpA", "price": "$$", "distance": 3244.8366435322337, "coordinates": {"latitude": 40.617264, "longitude": -74.029419}, "alias": "lock-yard-brooklyn", "image_url": "https://s3-media4.fl.yelpcdn.com/bphoto/X4FIkoR7HmPnq7b4_ki42Q/o.jpg", "categories": [{"alias": "newamerican", "title": "American (New)"}, {"alias": "hotdog", "title": "Hot Dogs"}, {"alias": "pubs", "title": "Pubs"}], "display_phone": "(718) 333-5282", "phone": "+17183335282", "id": "5f3M0k7mTjrKoQFJW-PFzg", "is_closed": false, "location": {"city": "Brooklyn", "display_address": ["9221 5th Ave", "Brooklyn, NY 11209"], "country": "US", "address2": null, "address3": "", "state": "NY", "address1": "9221 5th Ave", "zip_code": "11209"}}, {"rating": 3.5, "review_count": 401, "name": "Mussels & More", "transactions": ["pickup", "delivery"], "url": "https://www.yelp.com/biz/mussels-and-more-brooklyn?adjust_creative=yhLoLzsNXKw40xZ5RCWPpA&utm_campaign=yelp_api_v3&utm_medium=api_v3_business_search&utm_source=yhLoLzsNXKw40xZ5RCWPpA", "price": "$$", "distance": 3287.486607233794, "coordinates": {"latitude": 40.625486, "longitude": -74.0239}, "alias": "mussels-and-more-brooklyn", "image_url": "https://s3-media1.fl.yelpcdn.com/bphoto/1ZpbQP6TfHEqDD-_nLj4Ow/o.jpg", "categories": [{"alias": "seafood", "title": "Seafood"}, {"alias": "wine_bars", "title": "Wine Bars"}], "display_phone": "(718) 680-3390", "phone": "+17186803390", "id": "JwwUpvy7DfUB0WmhNSlxDQ", "is_closed": false, "location": {"city": "Brooklyn", "display_address": ["8001 5th Ave", "Brooklyn, NY 11209"], "country": "US", "address2": "", "address3": "", "state": "NY", "address1": "8001 5th Ave", "zip_code": "11209"}}, {"rating": 3.5, "review_count": 25, "name": "Kelly's Tavern", "transactions": [], "url": "https://www.yelp.com/biz/kellys-tavern-brooklyn?adjust_creative=yhLoLzsNXKw40xZ5RCWPpA&utm_campaign=yelp_api_v3&utm_medium=api_v3_business_search&utm_source=yhLoLzsNXKw40xZ5RCWPpA", "price": "$", "distance": 3303.863785938195, "coordinates": {"latitude": 40.6168518066406, "longitude": -74.0304946899414}, "alias": "kellys-tavern-brooklyn", "image_url": "https://s3-media4.fl.yelpcdn.com/bphoto/EJbI8jmhyVj2FA0WfoZpBQ/o.jpg", "categories": [{"alias": "bars", "title": "Bars"}], "display_phone": "", "phone": "", "id": "Kk3M0eYCnfOgW8Xm8E6xIA", "is_closed": false, "location": {"city": "Brooklyn", "display_address": ["9259 4th Ave", "Brooklyn, NY 11209"], "country": "US", "address2": "", "address3": "", "state": "NY", "address1": "9259 4th Ave", "zip_code": "11209"}}, {"rating": 4.5, "review_count": 55, "name": "Russian Baths on Neck Road", "transactions": [], "url": "https://www.yelp.com/biz/russian-baths-on-neck-road-brooklyn?adjust_creative=yhLoLzsNXKw40xZ5RCWPpA&utm_campaign=yelp_api_v3&utm_medium=api_v3_business_search&utm_source=yhLoLzsNXKw40xZ5RCWPpA", "price": "$$", "distance": 3334.1075420723973, "coordinates": {"latitude": 40.59424, "longitude": -73.95788}, "alias": "russian-baths-on-neck-road-brooklyn", "image_url": "https://s3-media2.fl.yelpcdn.com/bphoto/RWFXtIuvM0X5H7HnwKPspg/o.jpg", "categories": [{"alias": "massage", "title": "Massage"}, {"alias": "spas", "title": "Day Spas"}, {"alias": "sportsbars", "title": "Sports Bars"}], "display_phone": "(718) 332-1676", "phone": "+17183321676", "id": "moK8qANVn1gQcF-fnPRnWg", "is_closed": false, "location": {"city": "Brooklyn", "display_address": ["1200 Gravesend Neck Rd", "Brooklyn, NY 11229"], "country": "US", "address2": "", "address3": "", "state": "NY", "address1": "1200 Gravesend Neck Rd", "zip_code": "11229"}}, {"rating": 3.5, "review_count": 330, "name": "Fushimi Bay Ridge", "transactions": ["pickup", "delivery"], "url": "https://www.yelp.com/biz/fushimi-bay-ridge-brooklyn-2?adjust_creative=yhLoLzsNXKw40xZ5RCWPpA&utm_campaign=yelp_api_v3&utm_medium=api_v3_business_search&utm_source=yhLoLzsNXKw40xZ5RCWPpA", "price": "$$", "distance": 3360.310039158717, "coordinates": {"latitude": 40.61727, "longitude": -74.03101}, "alias": "fushimi-bay-ridge-brooklyn-2", "image_url": "https://s3-media2.fl.yelpcdn.com/bphoto/Wz0sVtjUuuLJIBW6g7T6Wg/o.jpg", "categories": [{"alias": "sushi", "title": "Sushi Bars"}, {"alias": "japanese", "title": "Japanese"}, {"alias": "lounges", "title": "Lounges"}], "display_phone": "(718) 833-7788", "phone": "+17188337788", "id": "xAEs5QnuL8uMNWjmUGpK7g", "is_closed": false, "location": {"city": "Brooklyn", "display_address": ["9316 4th Ave", "Brooklyn, NY 11209"], "country": "US", "address2": "", "address3": "", "state": "NY", "address1": "9316 4th Ave", "zip_code": "11209"}}, {"rating": 2.0, "review_count": 1, "name": "Q Lounge", "transactions": [], "url": "https://www.yelp.com/biz/q-lounge-brooklyn?adjust_creative=yhLoLzsNXKw40xZ5RCWPpA&utm_campaign=yelp_api_v3&utm_medium=api_v3_business_search&utm_source=yhLoLzsNXKw40xZ5RCWPpA", "distance": 3360.2863684031463, "coordinates": {"latitude": 40.5904121398926, "longitude": -73.9602279663086}, "alias": "q-lounge-brooklyn", "image_url": "", "categories": [{"alias": "nightlife", "title": "Nightlife"}], "display_phone": "(718) 484-7467", "phone": "+17184847467", "id": "rNHzapIa1CXUfR3A9FshWg", "is_closed": false, "location": {"city": "Brooklyn", "display_address": ["2715 Coney Island Ave", "Brooklyn, NY 11235"], "country": "US", "address2": "", "address3": "", "state": "NY", "address1": "2715 Coney Island Ave", "zip_code": "11235"}}]}