{"region": {"center": {"latitude": 40.7714678108, "longitude": -73.8158975388}}, "total": 645, "businesses": [{"rating": 5.0, "review_count": 7, "name": "Parkside Pub", "transactions": [], "url": "https://www.yelp.com/biz/parkside-pub-whitestone?adjust_creative=yhLoLzsNXKw40xZ5RCWPpA&utm_campaign=yelp_api_v3&utm_medium=api_v3_business_search&utm_source=yhLoLzsNXKw40xZ5RCWPpA", "price": "$", "distance": 634.5844746711424, "coordinates": {"latitude": 40.77699, "longitude": -73.81779}, "alias": "parkside-pub-whitestone", "image_url": "https://s3-media2.fl.yelpcdn.com/bphoto/2EwMc-RCgF_3c5yKcM1c6g/o.jpg", "categories": [{"alias": "pubs", "title": "Pubs"}], "display_phone": "(718) 463-4647", "phone": "+17184634647", "id": "d4RCVqhTlT1xe5MvWWthIg", "is_closed": false, "location": {"city": "Whitestone", "display_address": ["2414 149th St", "Whitestone, NY 11357"], "country": "US", "address2": "", "address3": "", "state": "NY", "address1": "2414 149th St", "zip_code": "11357"}}, {"rating": 5.0, "review_count": 16, "name": "Buttumak", "transactions": [], "url": "https://www.yelp.com/biz/buttumak-flushing-2?adjust_creative=yhLoLzsNXKw40xZ5RCWPpA&utm_campaign=yelp_api_v3&utm_medium=api_v3_business_search&utm_source=yhLoLzsNXKw40xZ5RCWPpA", "price": "$$", "distance": 675.6569878664443, "coordinates": {"latitude": 40.7654446269748, "longitude": -73.8148386622517}, "alias": "buttumak-flushing-2", "image_url": "https://s3-media2.fl.yelpcdn.com/bphoto/ln2X3_pOUgNsQr2LjHnpWw/o.jpg", "categories": [{"alias": "korean", "title": "Korean"}, {"alias": "lounges", "title": "Lounges"}], "display_phone": "(718) 353-0077", "phone": "+17183530077", "id": "hB0DCqfyHKGI137Gfg-yxQ", "is_closed": false, "location": {"city": "Flushing", "display_address": ["150-05 Northern Blvd", "Flushing, NY 11354"], "country": "US", "address2": "", "address3": null, "state": "NY", "address1": "150-05 Northern Blvd", "zip_code": "11354"}}, {"rating": 4.0, "review_count": 17, "name": "Jumak", "transactions": [], "url": "https://www.yelp.com/biz/jumak-flushing?adjust_creative=yhLoLzsNXKw40xZ5RCWPpA&utm_campaign=yelp_api_v3&utm_medium=api_v3_business_search&utm_source=yhLoLzsNXKw40xZ5RCWPpA", "price": "$$", "distance": 718.189217555111, "coordinates": {"latitude": 40.7650949, "longitude": -73.817284}, "alias": "jumak-flushing", "image_url": "https://s3-media1.fl.yelpcdn.com/bphoto/me8IVXOlDd2RsaUUkDAOYA/o.jpg", "categories": [{"alias": "bars", "title": "Bars"}, {"alias": "korean", "title": "Korean"}], "display_phone": "(718) 539-2220", "phone": "+17185392220", "id": "IkecSthn1pgQh5wIyvs2iw", "is_closed": false, "location": {"city": "Flushing", "display_address": ["149-06 Northern Blvd", "Flushing, NY 11354"], "country": "US", "address2": "", "address3": null, "state": "NY", "address1": "149-06 Northern Blvd", "zip_code": "11354"}}, {"rating": 4.0, "review_count": 845, "name": "Kang Ho Dong Baekjeong", "transactions": [], "url": "https://www.yelp.com/biz/kang-ho-dong-baekjeong-flushing?adjust_creative=yhLoLzsNXKw40xZ5RCWPpA&utm_campaign=yelp_api_v3&utm_medium=api_v3_business_search&utm_source=yhLoLzsNXKw40xZ5RCWPpA", "price": "$$$", "distance": 802.5605812530508, "coordinates": {"latitude": 40.7647, "longitude": -73.8124799}, "alias": "kang-ho-dong-baekjeong-flushing", "image_url": "https://s3-media3.fl.yelpcdn.com/bphoto/pk6JdO_X9GgDgcPoczNpJg/o.jpg", "categories": [{"alias": "korean", "title": "Korean"}, {"alias": "bbq", "title": "Barbeque"}, {"alias": "bars", "title": "Bars"}], "display_phone": "(718) 886-8645", "phone": "+17188868645", "id": "QlQCQ_zhlVODZavGpPqrzQ", "is_closed": false, "location": {"city": "Flushing", "display_address": ["152-12 Northern Blvd", "Flushing, NY 11354"], "country": "US", "address2": null, "address3": "", "state": "NY", "address1": "152-12 Northern Blvd", "zip_code": "11354"}}, {"rating": 4.5, "review_count": 4, "name": "Gubnae Hoolala B.B.Q Chicken Pub", "transactions": [], "url": "https://www.yelp.com/biz/gubnae-hoolala-b-b-q-chicken-pub-queens?adjust_creative=yhLoLzsNXKw40xZ5RCWPpA&utm_campaign=yelp_api_v3&utm_medium=api_v3_business_search&utm_source=yhLoLzsNXKw40xZ5RCWPpA", "distance": 831.898378597068, "coordinates": {"latitude": 40.76457, "longitude": -73.81194}, "alias": "gubnae-hoolala-b-b-q-chicken-pub-queens", "image_url": "https://s3-media3.fl.yelpcdn.com/bphoto/kZP6EYTsYqrMUPXb3Vd0Rg/o.jpg", "categories": [{"alias": "korean", "title": "Korean"}, {"alias": "pubs", "title": "Pubs"}], "display_phone": "(718) 888-1175", "phone": "+17188881175", "id": "U7QTDYYonYidK17Q1AebRQ", "is_closed": false, "location": {"city": "Queens", "display_address": ["153-02 Northern Blvd", "Queens, NY 11354"], "country": "US", "address2": null, "address3": null, "state": "NY", "address1": "153-02 Northern Blvd", "zip_code": "11354"}}, {"rating": 5.0, "review_count": 1, "name": "Genesis", "transactions": [], "url": "https://www.yelp.com/biz/genesis-queens?adjust_creative=yhLoLzsNXKw40xZ5RCWPpA&utm_campaign=yelp_api_v3&utm_medium=api_v3_business_search&utm_source=yhLoLzsNXKw40xZ5RCWPpA", "distance": 906.1487574711678, "coordinates": {"latitude": 40.7634233634943, "longitude": -73.8141778483987}, "alias": "genesis-queens", "image_url": "https://s3-media2.fl.yelpcdn.com/bphoto/24_SxutbOes9o6Vv4KEC0w/o.jpg", "categories": [{"alias": "karaoke", "title": "Karaoke"}, {"alias": "speakeasies", "title": "Speakeasies"}], "display_phone": "", "phone": "", "id": "CUEIfHKDMyJByG4KzDl3Mg", "is_closed": false, "location": {"city": "Queens", "display_address": ["40-07 150th St", "Queens, NY 11354"], "country": "US", "address2": "", "address3": null, "state": "NY", "address1": "40-07 150th St", "zip_code": "11354"}}, {"rating": 3.5, "review_count": 3, "name": "Music box k-tv", "transactions": [], "url": "https://www.yelp.com/biz/music-box-k-tv-queens?adjust_creative=yhLoLzsNXKw40xZ5RCWPpA&utm_campaign=yelp_api_v3&utm_medium=api_v3_business_search&utm_source=yhLoLzsNXKw40xZ5RCWPpA", "price": "$$", "distance": 922.8814516540812, "coordinates": {"latitude": 40.76331, "longitude": -73.81388}, "alias": "music-box-k-tv-queens", "image_url": "https://s3-media2.fl.yelpcdn.com/bphoto/DMytzus6yEbZG_1PrYkVMw/o.jpg", "categories": [{"alias": "karaoke", "title": "Karaoke"}], "display_phone": "(718) 321-1010", "phone": "+17183211010", "id": "xEpTlnoBg1m6mQKAvYXhXw", "is_closed": false, "location": {"city": "Queens", "display_address": ["40-15 150st", "Queens, NY 11354"], "country": "US", "address2": null, "address3": "", "state": "NY", "address1": "40-15 150st", "zip_code": "11354"}}, {"rating": 4.0, "review_count": 27, "name": "JJ Bar & Bistro", "transactions": ["pickup", "delivery"], "url": "https://www.yelp.com/biz/jj-bar-and-bistro-flushing?adjust_creative=yhLoLzsNXKw40xZ5RCWPpA&utm_campaign=yelp_api_v3&utm_medium=api_v3_business_search&utm_source=yhLoLzsNXKw40xZ5RCWPpA", "price": "$$", "distance": 941.3610941938712, "coordinates": {"latitude": 40.7641131, "longitude": -73.8107846}, "alias": "jj-bar-and-bistro-flushing", "image_url": "https://s3-media1.fl.yelpcdn.com/bphoto/jCrRDil9G6vidfA8BuzoCg/o.jpg", "categories": [{"alias": "newamerican", "title": "American (New)"}, {"alias": "bars", "title": "Bars"}, {"alias": "asianfusion", "title": "Asian Fusion"}], "display_phone": "(718) 939-7252", "phone": "+17189397252", "id": "6W6wmYIk2fVQ-HeUush35w", "is_closed": false, "location": {"city": "Flushing", "display_address": ["15417 Roosevelt Ave", "Flushing, NY 11354"], "country": "US", "address2": null, "address3": null, "state": "NY", "address1": "15417 Roosevelt Ave", "zip_code": "11354"}}, {"rating": 4.0, "review_count": 5, "name": "Star Karaoke", "transactions": [], "url": "https://www.yelp.com/biz/star-karaoke-flushing?adjust_creative=yhLoLzsNXKw40xZ5RCWPpA&utm_campaign=yelp_api_v3&utm_medium=api_v3_business_search&utm_source=yhLoLzsNXKw40xZ5RCWPpA", "price": "$", "distance": 957.1521152725702, "coordinates": {"latitude": 40.7646239, "longitude": -73.8226213}, "alias": "star-karaoke-flushing", "image_url": "", "categories": [{"alias": "karaoke", "title": "Karaoke"}], "display_phone": "", "phone": "", "id": "5lwEYLB12D7Bflni6thuWQ", "is_closed": false, "location": {"city": "Flushing", "display_address": ["14416 Northern Blvd", "Flushing, NY 11354"], "country": "US", "address2": "", "address3": "", "state": "NY", "address1": "14416 Northern Blvd", "zip_code": "11354"}}, {"rating": 4.5, "review_count": 2, "name": "Back Alley Memory Lane", "transactions": [], "url": "https://www.yelp.com/biz/back-alley-memory-lane-new-york?adjust_creative=yhLoLzsNXKw40xZ5RCWPpA&utm_campaign=yelp_api_v3&utm_medium=api_v3_business_search&utm_source=yhLoLzsNXKw40xZ5RCWPpA", "distance": 963.8132686474936, "coordinates": {"latitude": 40.7629209430752, "longitude": -73.8139925350217}, "alias": "back-alley-memory-lane-new-york", "image_url": "https://s3-media2.fl.yelpcdn.com/bphoto/UYMdT6GYPvPEk4tJ33ujhg/o.jpg", "categories": [{"alias": "korean", "title": "Korean"}, {"alias": "pubs", "title": "Pubs"}], "display_phone": "(718) 358-5200", "phone": "+17183585200", "id": "sqjNXBOznMTOSrNo-cDE5A", "is_closed": false, "location": {"city": "New York", "display_address": ["4113 150th St", "Fl 2", "New York, NY 11355"], "country": "US", "address2": "Fl 2", "address3": "", "state": "NY", "address1": "4113 150th St", "zip_code": "11355"}}, {"rating": 4.0, "review_count": 4, "name": "Open Karaoke", "transactions": [], "url": "https://www.yelp.com/biz/open-karaoke-flushing?adjust_creative=yhLoLzsNXKw40xZ5RCWPpA&utm_campaign=yelp_api_v3&utm_medium=api_v3_business_search&utm_source=yhLoLzsNXKw40xZ5RCWPpA", "distance": 968.5057112106803, "coordinates": {"latitude": 40.7627763156876, "longitude": -73.8151484727859}, "alias": "open-karaoke-flushing", "image_url": "https://s3-media3.fl.yelpcdn.com/bphoto/Qp1kxY3RIvHXYUixibh5GQ/o.jpg", "categories": [{"alias": "karaoke", "title": "Karaoke"}], "display_phone": "(718) 886-1301", "phone": "+17188861301", "id": "kyQTKGyaUJizbtWvW4ObJA", "is_closed": false, "location": {"city": "Flushing", "display_address": ["40 20 149th Pl", "Flushing, NY 11354"], "country": "US", "address2": "", "address3": "", "state": "NY", "address1": "40 20 149th Pl", "zip_code": "11354"}}, {"rating": 4.5, "review_count": 33, "name": "Paradise Alley", "transactions": [], "url": "https://www.yelp.com/biz/paradise-alley-flushing?adjust_creative=yhLoLzsNXKw40xZ5RCWPpA&utm_campaign=yelp_api_v3&utm_medium=api_v3_business_search&utm_source=yhLoLzsNXKw40xZ5RCWPpA", "price": "$", "distance": 1007.3483294339135, "coordinates": {"latitude": 40.76258, "longitude": -73.81359}, "alias": "paradise-alley-flushing", "image_url": "https://s3-media4.fl.yelpcdn.com/bphoto/0W6dgdxrlW-YYHQVAtbOxg/o.jpg", "categories": [{"alias": "bars", "title": "Bars"}], "display_phone": "(718) 460-6941", "phone": "+17184606941", "id": "UaprJiSxzIZClqBUadVQHQ", "is_closed": false, "location": {"city": "Flushing", "display_address": ["41-09 150th St", "Flushing, NY 11355"], "country": "US", "address2": "", "address3": "", "state": "NY", "address1": "41-09 150th St", "zip_code": "11355"}}, {"rating": 4.0, "review_count": 1, "name": "Mae Il Janchi Second Floor", "transactions": [], "url": "https://www.yelp.com/biz/mae-il-janchi-second-floor-flushing?adjust_creative=yhLoLzsNXKw40xZ5RCWPpA&utm_campaign=yelp_api_v3&utm_medium=api_v3_business_search&utm_source=yhLoLzsNXKw40xZ5RCWPpA", "distance": 1008.3342300800197, "coordinates": {"latitude": 40.7624757347521, "longitude": -73.8143496141817}, "alias": "mae-il-janchi-second-floor-flushing", "image_url": "https://s3-media4.fl.yelpcdn.com/bphoto/8XhvZh35sqpXlGkpHCXPNA/o.jpg", "categories": [{"alias": "korean", "title": "Korean"}, {"alias": "pubs", "title": "Pubs"}], "display_phone": "", "phone": "", "id": "4nCc_PgOS5H8Md88LEb60w", "is_closed": false, "location": {"city": "Flushing", "display_address": ["149-32 41st Ave", "Second Floor", "Flushing, NY 11355"], "country": "US", "address2": "Second Floor", "address3": "", "state": "NY", "address1": "149-32 41st Ave", "zip_code": "11355"}}, {"rating": 4.5, "review_count": 139, "name": "Harmony Karaoke KTV", "transactions": [], "url": "https://www.yelp.com/biz/harmony-karaoke-ktv-flushing?adjust_creative=yhLoLzsNXKw40xZ5RCWPpA&utm_campaign=yelp_api_v3&utm_medium=api_v3_business_search&utm_source=yhLoLzsNXKw40xZ5RCWPpA", "price": "$$", "distance": 1022.2878280561166, "coordinates": {"latitude": 40.7624501, "longitude": -73.813534}, "alias": "harmony-karaoke-ktv-flushing", "image_url": "https://s3-media3.fl.yelpcdn.com/bphoto/ZeTpp8m3a8RgbpE8c5GZjQ/o.jpg", "categories": [{"alias": "karaoke", "title": "Karaoke"}], "display_phone": "(917) 563-1031", "phone": "+19175631031", "id": "KZiDcZ2EudUYpgvscUyjtw", "is_closed": false, "location": {"city": "Flushing", "display_address": ["41-13 150th St", "Fl 1", "Flushing, NY 11355"], "country": "US", "address2": "Fl 1", "address3": "", "state": "NY", "address1": "41-13 150th St", "zip_code": "11355"}}, {"rating": 5.0, "review_count": 13, "name": "Dwit Gol Mok - Back Alley", "transactions": [], "url": "https://www.yelp.com/biz/dwit-gol-mok-back-alley-flushing?adjust_creative=yhLoLzsNXKw40xZ5RCWPpA&utm_campaign=yelp_api_v3&utm_medium=api_v3_business_search&utm_source=yhLoLzsNXKw40xZ5RCWPpA", "price": "$$", "distance": 1037.4133909095938, "coordinates": {"latitude": 40.7621651, "longitude": -73.8139038}, "alias": "dwit-gol-mok-back-alley-flushing", "image_url": "https://s3-media3.fl.yelpcdn.com/bphoto/Gm71I5CfKKIqFS-Y_GOl6w/o.jpg", "categories": [{"alias": "bars", "title": "Bars"}, {"alias": "korean", "title": "Korean"}, {"alias": "asianfusion", "title": "Asian Fusion"}], "display_phone": "(718) 358-5200", "phone": "+17183585200", "id": "TvkSfCrirQTnSjhHE0sTpQ", "is_closed": false, "location": {"city": "Flushing", "display_address": ["41-14 150th St", "Fl 2", "Flushing, NY 11355"], "country": "US", "address2": "Fl 2", "address3": "", "state": "NY", "address1": "41-14 150th St", "zip_code": "11355"}}, {"rating": 4.5, "review_count": 294, "name": "Tavern 157", "transactions": [], "url": "https://www.yelp.com/biz/tavern-157-flushing-2?adjust_creative=yhLoLzsNXKw40xZ5RCWPpA&utm_campaign=yelp_api_v3&utm_medium=api_v3_business_search&utm_source=yhLoLzsNXKw40xZ5RCWPpA", "price": "$$", "distance": 1118.5881612526468, "coordinates": {"latitude": 40.7634836392041, "longitude": -73.807817278102}, "alias": "tavern-157-flushing-2", "image_url": "https://s3-media2.fl.yelpcdn.com/bphoto/FWFXpDFeDmFwqCt9hMR47Q/o.jpg", "categories": [{"alias": "wine_bars", "title": "Wine Bars"}, {"alias": "asianfusion", "title": "Asian Fusion"}, {"alias": "tapasmallplates", "title": "Tapas/Small Plates"}], "display_phone": "(718) 886-7488", "phone": "+17188867488", "id": "xR2Yeb_Nh0MOAiUIaqaVOg", "is_closed": false, "location": {"city": "Flushing", "display_address": ["157-12 Northern Blvd", "Flushing, NY 11354"], "country": "US", "address2": "", "address3": "", "state": "NY", "address1": "157-12 Northern Blvd", "zip_code": "11354"}}, {"rating": 4.5, "review_count": 26, "name": "Dream Pocha", "transactions": [], "url": "https://www.yelp.com/biz/dream-pocha-flushing-2?adjust_creative=yhLoLzsNXKw40xZ5RCWPpA&utm_campaign=yelp_api_v3&utm_medium=api_v3_business_search&utm_source=yhLoLzsNXKw40xZ5RCWPpA", "price": "$$", "distance": 1223.420482996422, "coordinates": {"latitude": 40.76289, "longitude": -73.80677}, "alias": "dream-pocha-flushing-2", "image_url": "https://s3-media1.fl.yelpcdn.com/bphoto/xqJvdPJ3jyru_dvorUZrCw/o.jpg", "categories": [{"alias": "korean", "title": "Korean"}, {"alias": "bars", "title": "Bars"}], "display_phone": "(718) 353-6311", "phone": "+17183536311", "id": "eqotrb4s8qxRzXJxxJxAxg", "is_closed": false, "location": {"city": "Flushing", "display_address": ["158-14 Northern Blvd", "Ste 1", "Flushing, NY 11358"], "country": "US", "address2": "Ste 1", "address3": "", "state": "NY", "address1": "158-14 Northern Blvd", "zip_code": "11358"}}, {"rating": 4.5, "review_count": 3, "name": "Meet Cuisine & Bar", "transactions": [], "url": "https://www.yelp.com/biz/meet-cuisine-and-bar-queens-2?adjust_creative=yhLoLzsNXKw40xZ5RCWPpA&utm_campaign=yelp_api_v3&utm_medium=api_v3_business_search&utm_source=yhLoLzsNXKw40xZ5RCWPpA", "distance": 1369.3972954122007, "coordinates": {"latitude": 40.7635067, "longitude": -73.8282314}, "alias": "meet-cuisine-and-bar-queens-2", "image_url": "https://s3-media4.fl.yelpcdn.com/bphoto/h23ksZdtKHx93O3cSCw5Ig/o.jpg", "categories": [{"alias": "cocktailbars", "title": "Cocktail Bars"}, {"alias": "musicvenues", "title": "Music Venues"}], "display_phone": "(718) 358-8815", "phone": "+17183588815", "id": "uXhd3ekOp2bTlbRY0S7Nyw", "is_closed": false, "location": {"city": "Queens", "display_address": ["36-10 Union St", "Queens, NY 11354"], "country": "US", "address2": null, "address3": "", "state": "NY", "address1": "36-10 Union St", "zip_code": "11354"}}, {"rating": 4.0, "review_count": 1, "name": "WeGo KTV", "transactions": [], "url": "https://www.yelp.com/biz/wego-ktv-queens-3?adjust_creative=yhLoLzsNXKw40xZ5RCWPpA&utm_campaign=yelp_api_v3&utm_medium=api_v3_business_search&utm_source=yhLoLzsNXKw40xZ5RCWPpA", "distance": 1369.3972954122007, "coordinates": {"latitude": 40.7635067, "longitude": -73.8282314}, "alias": "wego-ktv-queens-3", "image_url": "https://s3-media1.fl.yelpcdn.com/bphoto/q4kupVfllcSrsBjV6BjUeg/o.jpg", "categories": [{"alias": "karaoke", "title": "Karaoke"}], "display_phone": "(718) 358-8816", "phone": "+17183588816", "id": "AZ3Rdbu_tCBxMPHBPOh7JA", "is_closed": false, "location": {"city": "Queens", "display_address": ["36-10 Union St", "Queens, NY 11354"], "country": "US", "address2": null, "address3": "", "state": "NY", "address1": "36-10 Union St", "zip_code": "11354"}}, {"rating": 2.5, "review_count": 7, "name": "F Lit", "transactions": [], "url": "https://www.yelp.com/biz/f-lit-queens-2?adjust_creative=yhLoLzsNXKw40xZ5RCWPpA&utm_campaign=yelp_api_v3&utm_medium=api_v3_business_search&utm_source=yhLoLzsNXKw40xZ5RCWPpA", "price": "$", "distance": 1383.8453014147997, "coordinates": {"latitude": 40.762696, "longitude": -73.8053247}, "alias": "f-lit-queens-2", "image_url": "https://s3-media4.fl.yelpcdn.com/bphoto/TrSQQ2lCWvs7MKhsNVWv4w/o.jpg", "categories": [{"alias": "lounges", "title": "Lounges"}], "display_phone": "", "phone": "", "id": "TjoWHMZxUDxyHb_TlnOcpw", "is_closed": false, "location": {"city": "Queens", "display_address": ["160-34 Northern Blvd", "Queens, NY 11358"], "country": "US", "address2": "", "address3": null, "state": "NY", "address1": "160-34 Northern Blvd", "zip_code": "11358"}}, {"rating": 3.5, "review_count": 80, "name": "Oo Bar & Lounge", "transactions": [], "url": "https://www.yelp.com/biz/oo-bar-and-lounge-flushing?adjust_creative=yhLoLzsNXKw40xZ5RCWPpA&utm_campaign=yelp_api_v3&utm_medium=api_v3_business_search&utm_source=yhLoLzsNXKw40xZ5RCWPpA", "price": "$$", "distance": 1393.2947347325387, "coordinates": {"latitude": 40.7635235045571, "longitude": -73.8286917632294}, "alias": "oo-bar-and-lounge-flushing", "image_url": "https://s3-media1.fl.yelpcdn.com/bphoto/yQ5kfr6ru05dGCzKx9I_Qw/o.jpg", "categories": [{"alias": "cocktailbars", "title": "Cocktail Bars"}, {"alias": "tradamerican", "title": "American (Traditional)"}, {"alias": "asianfusion", "title": "Asian Fusion"}], "display_phone": "(718) 886-3555", "phone": "+17188863555", "id": "YHJbhfkOguKedFZxkClfAQ", "is_closed": false, "location": {"city": "Flushing", "display_address": ["137-72 Northern Blvd", "Fl 8", "The One Boutique Hotel", "Flushing, NY 11354"], "country": "US", "address2": "Fl 8", "address3": "The One Boutique Hotel", "state": "NY", "address1": "137-72 Northern Blvd", "zip_code": "11354"}}, {"rating": 4.0, "review_count": 62, "name": "Happy Karaoke", "transactions": [], "url": "https://www.yelp.com/biz/happy-karaoke-flushing?adjust_creative=yhLoLzsNXKw40xZ5RCWPpA&utm_campaign=yelp_api_v3&utm_medium=api_v3_business_search&utm_source=yhLoLzsNXKw40xZ5RCWPpA", "price": "$$", "distance": 1397.9788015904248, "coordinates": {"latitude": 40.7621689, "longitude": -73.804657}, "alias": "happy-karaoke-flushing", "image_url": "https://s3-media4.fl.yelpcdn.com/bphoto/InrcMMGD78nA1fFQpqnb0Q/o.jpg", "categories": [{"alias": "karaoke", "title": "Karaoke"}], "display_phone": "(718) 886-6886", "phone": "+17188866886", "id": "QS3sOy68ckl3roVc4Ip_uA", "is_closed": false, "location": {"city": "Flushing", "display_address": ["160-30 Northern Blvd", "Flushing, NY 11358"], "country": "US", "address2": null, "address3": "", "state": "NY", "address1": "160-30 Northern Blvd", "zip_code": "11358"}}, {"rating": 1.0, "review_count": 1, "name": "Res Hof", "transactions": [], "url": "https://www.yelp.com/biz/res-hof-queens?adjust_creative=yhLoLzsNXKw40xZ5RCWPpA&utm_campaign=yelp_api_v3&utm_medium=api_v3_business_search&utm_source=yhLoLzsNXKw40xZ5RCWPpA", "distance": 1411.220226889295, "coordinates": {"latitude": 40.762531, "longitude": -73.82782}, "alias": "res-hof-queens", "image_url": "", "categories": [{"alias": "divebars", "title": "Dive Bars"}], "display_phone": "", "phone": "", "id": "4DZWY6MexIMiHfDRIO0AiQ", "is_closed": false, "location": {"city": "Queens", "display_address": ["13693 37th Ave", "Queens, NY 11354"], "country": "US", "address2": "", "address3": "", "state": "NY", "address1": "13693 37th Ave", "zip_code": "11354"}}, {"rating": 4.5, "review_count": 7, "name": "New Gayaha", "transactions": [], "url": "https://www.yelp.com/biz/new-gayaha-flushing-2?adjust_creative=yhLoLzsNXKw40xZ5RCWPpA&utm_campaign=yelp_api_v3&utm_medium=api_v3_business_search&utm_source=yhLoLzsNXKw40xZ5RCWPpA", "price": "$$", "distance": 1416.1981859571347, "coordinates": {"latitude": 40.762493, "longitude": -73.8278293}, "alias": "new-gayaha-flushing-2", "image_url": "https://s3-media2.fl.yelpcdn.com/bphoto/XtKY0zzzBtNj8I8iqmQhWQ/o.jpg", "categories": [{"alias": "korean", "title": "Korean"}, {"alias": "chinese", "title": "Chinese"}, {"alias": "beerbar", "title": "Beer Bar"}], "display_phone": "(718) 939-2800", "phone": "+17189392800", "id": "HMU_BhMsOEQ5e7td-dwbFw", "is_closed": false, "location": {"city": "Flushing", "display_address": ["136-93 37th Ave", "Fl 2", "Flushing, NY 11354"], "country": "US", "address2": "Fl 2", "address3": null, "state": "NY", "address1": "136-93 37th Ave", "zip_code": "11354"}}, {"rating": 4.5, "review_count": 29, "name": "Flower Karaoke", "transactions": [], "url": "https://www.yelp.com/biz/flower-karaoke-auburndale?adjust_creative=yhLoLzsNXKw40xZ5RCWPpA&utm_campaign=yelp_api_v3&utm_medium=api_v3_business_search&utm_source=yhLoLzsNXKw40xZ5RCWPpA", "price": "$$", "distance": 1434.2685374197524, "coordinates": {"latitude": 40.76274, "longitude": -73.80319}, "alias": "flower-karaoke-auburndale", "image_url": "https://s3-media4.fl.yelpcdn.com/bphoto/OcXuT5zUmjoXXLp3hHRclA/o.jpg", "categories": [{"alias": "karaoke", "title": "Karaoke"}], "display_phone": "(718) 321-2012", "phone": "+17183212012", "id": "s_jiqVXNjjnixrxRS6o8Hg", "is_closed": false, "location": {"city": "Auburndale", "display_address": ["162-05 Crocheron Ave", "Auburndale, NY 11358"], "country": "US", "address2": "", "address3": "", "state": "NY", "address1": "162-05 Crocheron Ave", "zip_code": "11358"}}, {"rating": 3.0, "review_count": 57, "name": "Soho KTV", "transactions": [], "url": "https://www.yelp.com/biz/soho-ktv-flushing-3?adjust_creative=yhLoLzsNXKw40xZ5RCWPpA&utm_campaign=yelp_api_v3&utm_medium=api_v3_business_search&utm_source=yhLoLzsNXKw40xZ5RCWPpA", "price": "$$", "distance": 1447.8462037715017, "coordinates": {"latitude": 40.767278, "longitude": -73.832209}, "alias": "soho-ktv-flushing-3", "image_url": "https://s3-media2.fl.yelpcdn.com/bphoto/2SlT11FfINIp2ICdLyMZfQ/o.jpg", "categories": [{"alias": "karaoke", "title": "Karaoke"}], "display_phone": "(718) 358-1115", "phone": "+17183581115", "id": "U7luFoCVRS6R9nx1abHKhw", "is_closed": false, "location": {"city": "Flushing", "display_address": ["3202 Linden Pl", "Flushing, NY 11354"], "country": "US", "address2": "", "address3": "", "state": "NY", "address1": "3202 Linden Pl", "zip_code": "11354"}}, {"rating": 3.5, "review_count": 54, "name": "Carom Cafe Billiards", "transactions": [], "url": "https://www.yelp.com/biz/carom-cafe-billiards-flushing?adjust_creative=yhLoLzsNXKw40xZ5RCWPpA&utm_campaign=yelp_api_v3&utm_medium=api_v3_business_search&utm_source=yhLoLzsNXKw40xZ5RCWPpA", "price": "$", "distance": 1448.4813620927505, "coordinates": {"latitude": 40.7663122, "longitude": -73.8315112}, "alias": "carom-cafe-billiards-flushing", "image_url": "https://s3-media2.fl.yelpcdn.com/bphoto/bguiMSsb5qw_Iew8f3Za8Q/o.jpg", "categories": [{"alias": "poolhalls", "title": "Pool Halls"}], "display_phone": "(718) 358-8585", "phone": "+17183588585", "id": "oIWsfYqrlCQ-1brns6VNjQ", "is_closed": false, "location": {"city": "Flushing", "display_address": ["3402 Linden Pl", "Flushing, NY 11354"], "country": "US", "address2": "", "address3": "", "state": "NY", "address1": "3402 Linden Pl", "zip_code": "11354"}}, {"rating": 4.0, "review_count": 2, "name": "Idol162", "transactions": [], "url": "https://www.yelp.com/biz/idol162-flushing?adjust_creative=yhLoLzsNXKw40xZ5RCWPpA&utm_campaign=yelp_api_v3&utm_medium=api_v3_business_search&utm_source=yhLoLzsNXKw40xZ5RCWPpA", "price": "$$$$", "distance": 1472.0850253217732, "coordinates": {"latitude": 40.76225, "longitude": -73.80339}, "alias": "idol162-flushing", "image_url": "https://s3-media4.fl.yelpcdn.com/bphoto/LSRSrjzD3FfdOSS4yVAlig/o.jpg", "categories": [{"alias": "karaoke", "title": "Karaoke"}], "display_phone": "", "phone": "", "id": "GHScZx_gptAoJV4-hWe99w", "is_closed": false, "location": {"city": "Flushing", "display_address": ["162-07 Depot Rd", "Flushing, NY 11358"], "country": "US", "address2": "", "address3": "", "state": "NY", "address1": "162-07 Depot Rd", "zip_code": "11358"}}, {"rating": 3.5, "review_count": 6, "name": "Terrace Inn", "transactions": [], "url": "https://www.yelp.com/biz/terrace-inn-whitestone?adjust_creative=yhLoLzsNXKw40xZ5RCWPpA&utm_campaign=yelp_api_v3&utm_medium=api_v3_business_search&utm_source=yhLoLzsNXKw40xZ5RCWPpA", "price": "$$", "distance": 1507.163228097407, "coordinates": {"latitude": 40.7801541, "longitude": -73.8021651}, "alias": "terrace-inn-whitestone", "image_url": "https://s3-media2.fl.yelpcdn.com/bphoto/3eG9GeQfeLTBudOJC5R9Cw/o.jpg", "categories": [{"alias": "bars", "title": "Bars"}], "display_phone": "(718) 352-9819", "phone": "+17183529819", "id": "Ot7WdvPpnNFT2kpMdoIH9A", "is_closed": false, "location": {"city": "Whitestone", "display_address": ["2005 Francis Lewis Blvd", "Whitestone, NY 11357"], "country": "US", "address2": "", "address3": "", "state": "NY", "address1": "2005 Francis Lewis Blvd", "zip_code": "11357"}}, {"rating": 3.0, "review_count": 1, "name": "Blu Lounge", "transactions": [], "url": "https://www.yelp.com/biz/blu-lounge-flushing?adjust_creative=yhLoLzsNXKw40xZ5RCWPpA&utm_campaign=yelp_api_v3&utm_medium=api_v3_business_search&utm_source=yhLoLzsNXKw40xZ5RCWPpA", "distance": 1518.2140129025436, "coordinates": {"latitude": 40.7645031168436, "longitude": -73.8314036652446}, "alias": "blu-lounge-flushing", "image_url": "https://s3-media1.fl.yelpcdn.com/bphoto/3aOicvuaX2A6y1xecsU2xA/o.jpg", "categories": [{"alias": "lounges", "title": "Lounges"}], "display_phone": "", "phone": "", "id": "ct7Qp-opOscL_k5s1_AlFQ", "is_closed": false, "location": {"city": "Flushing", "display_address": ["13501 35th Ave", "Flushing, NY 11354"], "country": "US", "address2": "", "address3": "", "state": "NY", "address1": "13501 35th Ave", "zip_code": "11354"}}, {"rating": 3.5, "review_count": 3, "name": "Sheltair", "transactions": [], "url": "https://www.yelp.com/biz/sheltair-flushing?adjust_creative=yhLoLzsNXKw40xZ5RCWPpA&utm_campaign=yelp_api_v3&utm_medium=api_v3_business_search&utm_source=yhLoLzsNXKw40xZ5RCWPpA", "price": "$$$$", "distance": 1533.077299745677, "coordinates": {"latitude": 40.78161, "longitude": -73.82712}, "alias": "sheltair-flushing", "image_url": "", "categories": [{"alias": "venues", "title": "Venues & Event Spaces"}, {"alias": "airportlounges", "title": "Airport Lounges"}, {"alias": "aircraftrepairs", "title": "Aircraft Repairs"}], "display_phone": "(718) 779-4040", "phone": "+17187794040", "id": "SILke-ueTTjJ183HYOtfVw", "is_closed": false, "location": {"city": "Flushing", "display_address": ["Flushing, NY 11351"], "country": "US", "address2": "", "address3": "", "state": "NY", "address1": "", "zip_code": "11351"}}, {"rating": 4.0, "review_count": 44, "name": "Zurang", "transactions": [], "url": "https://www.yelp.com/biz/zurang-flushing?adjust_creative=yhLoLzsNXKw40xZ5RCWPpA&utm_campaign=yelp_api_v3&utm_medium=api_v3_business_search&utm_source=yhLoLzsNXKw40xZ5RCWPpA", "price": "$$", "distance": 1537.6851254884668, "coordinates": {"latitude": 40.7608832, "longitude": -73.8040811}, "alias": "zurang-flushing", "image_url": "https://s3-media3.fl.yelpcdn.com/bphoto/yhwuxoMF3I58iAqwkrBBdA/o.jpg", "categories": [{"alias": "bars", "title": "Bars"}, {"alias": "korean", "title": "Korean"}], "display_phone": "(718) 445-2947", "phone": "+17184452947", "id": "G_7s53wlFDhWPFdwbJ8eTA", "is_closed": false, "location": {"city": "Flushing", "display_address": ["41-14 162nd St", "Flushing, NY 11358"], "country": "US", "address2": "", "address3": "", "state": "NY", "address1": "41-14 162nd St", "zip_code": "11358"}}, {"rating": 3.5, "review_count": 119, "name": "The Blvd Restaurant & Lounge", "transactions": [], "url": "https://www.yelp.com/biz/the-blvd-restaurant-and-lounge-whitestone?adjust_creative=yhLoLzsNXKw40xZ5RCWPpA&utm_campaign=yelp_api_v3&utm_medium=api_v3_business_search&utm_source=yhLoLzsNXKw40xZ5RCWPpA", "price": "$$", "distance": 1542.8701248321743, "coordinates": {"latitude": 40.7811976969242, "longitude": -73.8029886782169}, "alias": "the-blvd-restaurant-and-lounge-whitestone", "image_url": "https://s3-media1.fl.yelpcdn.com/bphoto/-GIgwknnSax5A8rGvB6y1A/o.jpg", "categories": [{"alias": "sportsbars", "title": "Sports Bars"}, {"alias": "italian", "title": "Italian"}, {"alias": "tradamerican", "title": "American (Traditional)"}], "display_phone": "(718) 747-2583", "phone": "+17187472583", "id": "jhovxUbGn1fXkoN4JqSBrQ", "is_closed": false, "location": {"city": "Whitestone", "display_address": ["19-11 Francis Lewis Blvd", "Whitestone, NY 11357"], "country": "US", "address2": "", "address3": "", "state": "NY", "address1": "19-11 Francis Lewis Blvd", "zip_code": "11357"}}, {"rating": 4.0, "review_count": 107, "name": "Magna Restaurant", "transactions": [], "url": "https://www.yelp.com/biz/magna-restaurant-flushing-2?adjust_creative=yhLoLzsNXKw40xZ5RCWPpA&utm_campaign=yelp_api_v3&utm_medium=api_v3_business_search&utm_source=yhLoLzsNXKw40xZ5RCWPpA", "price": "$$", "distance": 1544.9596291990156, "coordinates": {"latitude": 40.76371, "longitude": -73.831117}, "alias": "magna-restaurant-flushing-2", "image_url": "https://s3-media1.fl.yelpcdn.com/bphoto/uBuSux8AWNmcdooVufTRpA/o.jpg", "categories": [{"alias": "italian", "title": "Italian"}, {"alias": "bars", "title": "Bars"}, {"alias": "breakfast_brunch", "title": "Breakfast & Brunch"}], "display_phone": "(718) 445-3352", "phone": "+17184453352", "id": "jSrDUsCXkKqbBQ9sqDLFcg", "is_closed": false, "location": {"city": "Flushing", "display_address": ["3525 Farrington St", "Flushing, NY 11354"], "country": "US", "address2": "", "address3": "", "state": "NY", "address1": "3525 Farrington St", "zip_code": "11354"}}, {"rating": 4.0, "review_count": 1, "name": "F4 Fusion Bar", "transactions": [], "url": "https://www.yelp.com/biz/f4-fusion-bar-queens?adjust_creative=yhLoLzsNXKw40xZ5RCWPpA&utm_campaign=yelp_api_v3&utm_medium=api_v3_business_search&utm_source=yhLoLzsNXKw40xZ5RCWPpA", "distance": 1548.2480313557187, "coordinates": {"latitude": 40.76077, "longitude": -73.8042}, "alias": "f4-fusion-bar-queens", "image_url": "https://s3-media1.fl.yelpcdn.com/bphoto/fpsqH29aM8Za1eMnEtNjjg/o.jpg", "categories": [{"alias": "bars", "title": "Bars"}, {"alias": "korean", "title": "Korean"}], "display_phone": "(718) 886-1262", "phone": "+17188861262", "id": "PawTr-DIY_6pXaPobHZ1dg", "is_closed": false, "location": {"city": "Queens", "display_address": ["41-22 162nd St", "Queens, NY 11358"], "country": "US", "address2": "", "address3": "", "state": "NY", "address1": "41-22 162nd St", "zip_code": "11358"}}, {"rating": 2.0, "review_count": 1, "name": "2%", "transactions": [], "url": "https://www.yelp.com/biz/2-flushing?adjust_creative=yhLoLzsNXKw40xZ5RCWPpA&utm_campaign=yelp_api_v3&utm_medium=api_v3_business_search&utm_source=yhLoLzsNXKw40xZ5RCWPpA", "distance": 1570.3923308992341, "coordinates": {"latitude": 40.7628688, "longitude": -73.8011052}, "alias": "2-flushing", "image_url": "https://s3-media1.fl.yelpcdn.com/bphoto/6q4uutD-8XOGh3-tFxLAjg/o.jpg", "categories": [{"alias": "bars", "title": "Bars"}], "display_phone": "", "phone": "", "id": "UFF6jGd2OWANsL3e-s0mJw", "is_closed": false, "location": {"city": "Flushing", "display_address": ["161-21 Crocheron Ave", "Flushing, NY 11358"], "country": "US", "address2": "", "address3": "", "state": "NY", "address1": "161-21 Crocheron Ave", "zip_code": "11358"}}, {"rating": 5.0, "review_count": 1, "name": "Feeling Bar", "transactions": [], "url": "https://www.yelp.com/biz/feeling-bar-queens?adjust_creative=yhLoLzsNXKw40xZ5RCWPpA&utm_campaign=yelp_api_v3&utm_medium=api_v3_business_search&utm_source=yhLoLzsNXKw40xZ5RCWPpA", "distance": 1572.5269358209162, "coordinates": {"latitude": 40.7639656233668, "longitude": -73.8317263487189}, "alias": "feeling-bar-queens", "image_url": "https://s3-media2.fl.yelpcdn.com/bphoto/Rw9qaeQibQ30LHgSd5am6Q/o.jpg", "categories": [{"alias": "bars", "title": "Bars"}], "display_phone": "", "phone": "", "id": "6JrdIb3vVk5SV1UAgTrITA", "is_closed": false, "location": {"city": "Queens", "display_address": ["3512 Farrington St", "Queens, NY 11354"], "country": "US", "address2": "", "address3": null, "state": "NY", "address1": "3512 Farrington St", "zip_code": "11354"}}, {"rating": 1.0, "review_count": 1, "name": "Economy Billiard", "transactions": [], "url": "https://www.yelp.com/biz/economy-billiard-flushing?adjust_creative=yhLoLzsNXKw40xZ5RCWPpA&utm_campaign=yelp_api_v3&utm_medium=api_v3_business_search&utm_source=yhLoLzsNXKw40xZ5RCWPpA", "distance": 1595.2257419414816, "coordinates": {"latitude": 40.76246, "longitude": -73.80115}, "alias": "economy-billiard-flushing", "image_url": "", "categories": [{"alias": "poolhalls", "title": "Pool Halls"}], "display_phone": "(718) 358-9700", "phone": "+17183589700", "id": "qfyeAapAMLOZoPmhwUI2kA", "is_closed": false, "location": {"city": "Flushing", "display_address": ["3614 165th St", "Flushing, NY 11358"], "country": "US", "address2": "", "address3": "", "state": "NY", "address1": "3614 165th St", "zip_code": "11358"}}, {"rating": 3.5, "review_count": 43, "name": "Time Flies Restaurant & Bar", "transactions": [], "url": "https://www.yelp.com/biz/time-flies-restaurant-and-bar-flushing-3?adjust_creative=yhLoLzsNXKw40xZ5RCWPpA&utm_campaign=yelp_api_v3&utm_medium=api_v3_business_search&utm_source=yhLoLzsNXKw40xZ5RCWPpA", "price": "$$", "distance": 1614.8763313274892, "coordinates": {"latitude": 40.7608004, "longitude": -73.8022324}, "alias": "time-flies-restaurant-and-bar-flushing-3", "image_url": "https://s3-media2.fl.yelpcdn.com/bphoto/15TjAoi0y9Q7uIgEiY2MuQ/o.jpg", "categories": [{"alias": "bars", "title": "Bars"}, {"alias": "bbq", "title": "Barbeque"}, {"alias": "seafood", "title": "Seafood"}], "display_phone": "(718) 888-9068", "phone": "+17188889068", "id": "anrwezhvuSdfmB5RwyWgZQ", "is_closed": false, "location": {"city": "Flushing", "display_address": ["163-08 Northern Blvd", "Flushing, NY 11358"], "country": "US", "address2": "", "address3": "", "state": "NY", "address1": "163-08 Northern Blvd", "zip_code": "11358"}}, {"rating": 4.0, "review_count": 4, "name": "Paddy Quinn's Tavern", "transactions": [], "url": "https://www.yelp.com/biz/paddy-quinns-tavern-flushing?adjust_creative=yhLoLzsNXKw40xZ5RCWPpA&utm_campaign=yelp_api_v3&utm_medium=api_v3_business_search&utm_source=yhLoLzsNXKw40xZ5RCWPpA", "distance": 1636.74432891727, "coordinates": {"latitude": 40.759915, "longitude": -73.803849}, "alias": "paddy-quinns-tavern-flushing", "image_url": "https://s3-media2.fl.yelpcdn.com/bphoto/tx6WKijRSagwtrc_5fKBrQ/o.jpg", "categories": [{"alias": "bars", "title": "Bars"}], "display_phone": "(718) 359-9820", "phone": "+17183599820", "id": "CBX1E0afhB2zaBUWowRQ1g", "is_closed": false, "location": {"city": "Flushing", "display_address": ["4207 162nd St", "Flushing, NY 11358"], "country": "US", "address2": "", "address3": "", "state": "NY", "address1": "4207 162nd St", "zip_code": "11358"}}, {"rating": 2.0, "review_count": 13, "name": "K-Show KTV Lounge & Bar Party", "transactions": [], "url": "https://www.yelp.com/biz/k-show-ktv-lounge-and-bar-party-flushing-2?adjust_creative=yhLoLzsNXKw40xZ5RCWPpA&utm_campaign=yelp_api_v3&utm_medium=api_v3_business_search&utm_source=yhLoLzsNXKw40xZ5RCWPpA", "distance": 1645.202742043593, "coordinates": {"latitude": 40.7608499, "longitude": -73.8295023}, "alias": "k-show-ktv-lounge-and-bar-party-flushing-2", "image_url": "https://s3-media4.fl.yelpcdn.com/bphoto/fp0N_MPN6z_PRzsa8wOY0g/o.jpg", "categories": [{"alias": "karaoke", "title": "Karaoke"}], "display_phone": "(718) 321-1666", "phone": "+17183211666", "id": "QQjRu3X6yze-SSUXfB9seQ", "is_closed": false, "location": {"city": "Flushing", "display_address": ["38-10 138th St", "Flushing, NY 11354"], "country": "US", "address2": null, "address3": "", "state": "NY", "address1": "38-10 138th St", "zip_code": "11354"}}, {"rating": 2.0, "review_count": 10, "name": "Studio M Bar & Lounges", "transactions": [], "url": "https://www.yelp.com/biz/studio-m-bar-and-lounges-flushing?adjust_creative=yhLoLzsNXKw40xZ5RCWPpA&utm_campaign=yelp_api_v3&utm_medium=api_v3_business_search&utm_source=yhLoLzsNXKw40xZ5RCWPpA", "price": "$$", "distance": 1657.9665696803545, "coordinates": {"latitude": 40.7623142749071, "longitude": -73.8315099477768}, "alias": "studio-m-bar-and-lounges-flushing", "image_url": "https://s3-media1.fl.yelpcdn.com/bphoto/pjqPAARuk4_Z8n_O7tpiVw/o.jpg", "categories": [{"alias": "lounges", "title": "Lounges"}, {"alias": "venues", "title": "Venues & Event Spaces"}, {"alias": "seafood", "title": "Seafood"}], "display_phone": "(718) 358-0703", "phone": "+17183580703", "id": "lu7qGXOGQ10OzS8_-YGpsA", "is_closed": false, "location": {"city": "Flushing", "display_address": ["36-41 Main St", "Flushing, NY 11354"], "country": "US", "address2": "", "address3": "", "state": "NY", "address1": "36-41 Main St", "zip_code": "11354"}}, {"rating": 4.0, "review_count": 255, "name": "Zebra Lounge 2", "transactions": [], "url": "https://www.yelp.com/biz/zebra-lounge-2-flushing?adjust_creative=yhLoLzsNXKw40xZ5RCWPpA&utm_campaign=yelp_api_v3&utm_medium=api_v3_business_search&utm_source=yhLoLzsNXKw40xZ5RCWPpA", "price": "$$", "distance": 1672.3097910581375, "coordinates": {"latitude": 40.76114, "longitude": -73.8303}, "alias": "zebra-lounge-2-flushing", "image_url": "https://s3-media4.fl.yelpcdn.com/bphoto/qnzwerzbTNn8N6Rq0Xgutw/o.jpg", "categories": [{"alias": "lounges", "title": "Lounges"}, {"alias": "karaoke", "title": "Karaoke"}, {"alias": "sportsbars", "title": "Sports Bars"}], "display_phone": "(718) 886-7366", "phone": "+17188867366", "id": "_WhRrnqcCMMqF1ySQz4jfQ", "is_closed": false, "location": {"city": "Flushing", "display_address": ["136-11 38th Ave", "Flushing, NY 11354"], "country": "US", "address2": "", "address3": "", "state": "NY", "address1": "136-11 38th Ave", "zip_code": "11354"}}, {"rating": 4.0, "review_count": 12, "name": "Prince Billiards", "transactions": [], "url": "https://www.yelp.com/biz/prince-billiards-queens-2?adjust_creative=yhLoLzsNXKw40xZ5RCWPpA&utm_campaign=yelp_api_v3&utm_medium=api_v3_business_search&utm_source=yhLoLzsNXKw40xZ5RCWPpA", "price": "$", "distance": 1687.0381581947338, "coordinates": {"latitude": 40.76372, "longitude": -73.83292}, "alias": "prince-billiards-queens-2", "image_url": "https://s3-media4.fl.yelpcdn.com/bphoto/8Uc3wvuBUpLLZnPmLhrvWQ/o.jpg", "categories": [{"alias": "poolhalls", "title": "Pool Halls"}], "display_phone": "(718) 888-0800", "phone": "+17188880800", "id": "ChH0e9k7RbPG1KxhFUYsxg", "is_closed": false, "location": {"city": "Queens", "display_address": ["35-11 Prince St", "Queens, NY 11354"], "country": "US", "address2": "", "address3": null, "state": "NY", "address1": "35-11 Prince St", "zip_code": "11354"}}, {"rating": 4.0, "review_count": 4, "name": "Pine Tree", "transactions": [], "url": "https://www.yelp.com/biz/pine-tree-flushing-3?adjust_creative=yhLoLzsNXKw40xZ5RCWPpA&utm_campaign=yelp_api_v3&utm_medium=api_v3_business_search&utm_source=yhLoLzsNXKw40xZ5RCWPpA", "distance": 1690.9947479754633, "coordinates": {"latitude": 40.7607535357104, "longitude": -73.801648134916}, "alias": "pine-tree-flushing-3", "image_url": "https://s3-media2.fl.yelpcdn.com/bphoto/FncumDekorEQ-g3DFaVxUw/o.jpg", "categories": [{"alias": "wine_bars", "title": "Wine Bars"}], "display_phone": "(718) 321-1240", "phone": "+17183211240", "id": "rZGgN-rFe5mOzBAniGfaDQ", "is_closed": false, "location": {"city": "Flushing", "display_address": ["163-28 Northern Blvd", "Flushing, NY 11358"], "country": "US", "address2": "", "address3": "", "state": "NY", "address1": "163-28 Northern Blvd", "zip_code": "11358"}}, {"rating": 4.0, "review_count": 83, "name": "Alley 41", "transactions": ["pickup"], "url": "https://www.yelp.com/biz/alley-41-flushing-2?adjust_creative=yhLoLzsNXKw40xZ5RCWPpA&utm_campaign=yelp_api_v3&utm_medium=api_v3_business_search&utm_source=yhLoLzsNXKw40xZ5RCWPpA", "price": "$$", "distance": 1710.5662748039676, "coordinates": {"latitude": 40.75911, "longitude": -73.828}, "alias": "alley-41-flushing-2", "image_url": "https://s3-media4.fl.yelpcdn.com/bphoto/Pmj22m-yt4MxkAiilNgu5w/o.jpg", "categories": [{"alias": "bars", "title": "Bars"}, {"alias": "asianfusion", "title": "Asian Fusion"}, {"alias": "szechuan", "title": "Szechuan"}], "display_phone": "(718) 353-3608", "phone": "+17183533608", "id": "_EgBjtufCZIWwUkRn53OAA", "is_closed": false, "location": {"city": "Flushing", "display_address": ["136-45 41st Ave", "Flushing, NY 11355"], "country": "US", "address2": "", "address3": null, "state": "NY", "address1": "136-45 41st Ave", "zip_code": "11355"}}, {"rating": 4.0, "review_count": 33, "name": "Cali Red Lounge", "transactions": [], "url": "https://www.yelp.com/biz/cali-red-lounge-flushing?adjust_creative=yhLoLzsNXKw40xZ5RCWPpA&utm_campaign=yelp_api_v3&utm_medium=api_v3_business_search&utm_source=yhLoLzsNXKw40xZ5RCWPpA", "price": "$$", "distance": 1713.9708229077469, "coordinates": {"latitude": 40.7614309033398, "longitude": -73.8313436508179}, "alias": "cali-red-lounge-flushing", "image_url": "https://s3-media2.fl.yelpcdn.com/bphoto/BlmiJ8802hfY1xTnItyBTg/o.jpg", "categories": [{"alias": "lounges", "title": "Lounges"}, {"alias": "karaoke", "title": "Karaoke"}, {"alias": "sportsbars", "title": "Sports Bars"}], "display_phone": "(718) 661-9090", "phone": "+17186619090", "id": "ZpnhwmjHKMrQ5MUbC8sDjA", "is_closed": false, "location": {"city": "Flushing", "display_address": ["37-08 Main St", "M fl", "Flushing, NY 11354"], "country": "US", "address2": "M fl", "address3": "", "state": "NY", "address1": "37-08 Main St", "zip_code": "11354"}}, {"rating": 2.5, "review_count": 8, "name": "Shenanigans", "transactions": [], "url": "https://www.yelp.com/biz/shenanigans-whitestone?adjust_creative=yhLoLzsNXKw40xZ5RCWPpA&utm_campaign=yelp_api_v3&utm_medium=api_v3_business_search&utm_source=yhLoLzsNXKw40xZ5RCWPpA", "price": "$", "distance": 1733.4715783325994, "coordinates": {"latitude": 40.7907409667969, "longitude": -73.8145599365234}, "alias": "shenanigans-whitestone", "image_url": "", "categories": [{"alias": "pubs", "title": "Pubs"}], "display_phone": "(718) 767-0316", "phone": "+17187670316", "id": "ect4gfKfEplLfHE2E99Kvw", "is_closed": false, "location": {"city": "Whitestone", "display_address": ["15-1 150th St", "Whitestone, NY 11357"], "country": "US", "address2": "", "address3": "", "state": "NY", "address1": "15-1 150th St", "zip_code": "11357"}}, {"rating": 4.5, "review_count": 11, "name": "Blue Storm", "transactions": [], "url": "https://www.yelp.com/biz/blue-storm-flushing?adjust_creative=yhLoLzsNXKw40xZ5RCWPpA&utm_campaign=yelp_api_v3&utm_medium=api_v3_business_search&utm_source=yhLoLzsNXKw40xZ5RCWPpA", "price": "$$", "distance": 1735.8809833112844, "coordinates": {"latitude": 40.7613783, "longitude": -73.8316263}, "alias": "blue-storm-flushing", "image_url": "https://s3-media2.fl.yelpcdn.com/bphoto/nDVk_1sZJlnxbuX19c1i7Q/o.jpg", "categories": [{"alias": "coffee", "title": "Coffee & Tea"}, {"alias": "poolhalls", "title": "Pool Halls"}, {"alias": "bars", "title": "Bars"}], "display_phone": "(718) 461-6600", "phone": "+17184616600", "id": "M_9-eOZAwnNSOW6VTsnkNQ", "is_closed": false, "location": {"city": "Flushing", "display_address": ["135-41 37th Ave", "Unit 1R", "Flushing, NY 11354"], "country": "US", "address2": "Unit 1R", "address3": null, "state": "NY", "address1": "135-41 37th Ave", "zip_code": "11354"}}, {"rating": 4.5, "review_count": 128, "name": "The Real KTV", "transactions": [], "url": "https://www.yelp.com/biz/the-real-ktv-flushing?adjust_creative=yhLoLzsNXKw40xZ5RCWPpA&utm_campaign=yelp_api_v3&utm_medium=api_v3_business_search&utm_source=yhLoLzsNXKw40xZ5RCWPpA", "price": "$$", "distance": 1745.6038175513115, "coordinates": {"latitude": 40.759362, "longitude": -73.8290939}, "alias": "the-real-ktv-flushing", "image_url": "https://s3-media2.fl.yelpcdn.com/bphoto/knqMWHAbHjTjtx0RYK9A0w/o.jpg", "categories": [{"alias": "karaoke", "title": "Karaoke"}], "display_phone": "(718) 358-6886", "phone": "+17183586886", "id": "9K2bJux5SVYVmydUyg-Ubg", "is_closed": false, "location": {"city": "Flushing", "display_address": ["136-20 Roosevelt Ave", "Fl 3", "Flushing, NY 11354"], "country": "US", "address2": "Fl 3", "address3": "", "state": "NY", "address1": "136-20 Roosevelt Ave", "zip_code": "11354"}}]}