{"region": {"center": {"latitude": 40.7258428013, "longitude": -73.7961981784}}, "total": 508, "businesses": [{"rating": 1.0, "review_count": 1, "name": "Swiss Air Lounge", "transactions": [], "url": "https://www.yelp.com/biz/swiss-air-lounge-queens?adjust_creative=yhLoLzsNXKw40xZ5RCWPpA&utm_campaign=yelp_api_v3&utm_medium=api_v3_business_search&utm_source=yhLoLzsNXKw40xZ5RCWPpA", "distance": 288.05669908942224, "coordinates": {"latitude": 40.7211074829102, "longitude": -73.8177719116211}, "alias": "swiss-air-lounge-queens", "image_url": "", "categories": [{"alias": "airportlounges", "title": "Airport Lounges"}], "display_phone": "", "phone": "", "id": "IYzMOsO4Aq5wHqmCg-k8ng", "is_closed": false, "location": {"city": "Queens", "display_address": ["Jfk Airport", "International Departures Terminal", "Queens, NY"], "country": "US", "address2": "", "address3": "International Departures Terminal", "state": "NY", "address1": "Jfk Airport", "zip_code": ""}}, {"rating": 4.0, "review_count": 39, "name": "Junooon", "transactions": [], "url": "https://www.yelp.com/biz/junooon-fresh-meadows?adjust_creative=yhLoLzsNXKw40xZ5RCWPpA&utm_campaign=yelp_api_v3&utm_medium=api_v3_business_search&utm_source=yhLoLzsNXKw40xZ5RCWPpA", "price": "$$", "distance": 671.5079065341708, "coordinates": {"latitude": 40.7266456, "longitude": -73.788371}, "alias": "junooon-fresh-meadows", "image_url": "https://s3-media4.fl.yelpcdn.com/bphoto/sMjPu9C4CsykgEU7zcHMYQ/o.jpg", "categories": [{"alias": "hookah_bars", "title": "Hookah Bars"}, {"alias": "halal", "title": "Halal"}, {"alias": "cafes", "title": "Cafes"}], "display_phone": "(718) 969-7000", "phone": "+17189697000", "id": "qI18SQBMcNTNo4ZqosfEig", "is_closed": false, "location": {"city": "Fresh Meadows", "display_address": ["179-22 Union Tpke", "Fresh Meadows, NY 11366"], "country": "US", "address2": "", "address3": null, "state": "NY", "address1": "179-22 Union Tpke", "zip_code": "11366"}}, {"rating": 3.0, "review_count": 26, "name": "Parsons Ale House", "transactions": [], "url": "https://www.yelp.com/biz/parsons-ale-house-kew-gardens?adjust_creative=yhLoLzsNXKw40xZ5RCWPpA&utm_campaign=yelp_api_v3&utm_medium=api_v3_business_search&utm_source=yhLoLzsNXKw40xZ5RCWPpA", "price": "$", "distance": 1266.16805946746, "coordinates": {"latitude": 40.7207474112511, "longitude": -73.8093435019255}, "alias": "parsons-ale-house-kew-gardens", "image_url": "https://s3-media2.fl.yelpcdn.com/bphoto/f0fLjL64MJVIUH1o24x6cQ/o.jpg", "categories": [{"alias": "sportsbars", "title": "Sports Bars"}], "display_phone": "(718) 380-4500", "phone": "+17183804500", "id": "CcgvqzQrrlbi9HCFZjQDGw", "is_closed": false, "location": {"city": "Kew Gardens", "display_address": ["79-08 Parsons Blvd", "Kew Gardens, NY 11367"], "country": "US", "address2": "", "address3": "", "state": "NY", "address1": "79-08 Parsons Blvd", "zip_code": "11367"}}, {"rating": 4.0, "review_count": 170, "name": "Fillmore's Tavern", "transactions": [], "url": "https://www.yelp.com/biz/fillmores-tavern-flushing?adjust_creative=yhLoLzsNXKw40xZ5RCWPpA&utm_campaign=yelp_api_v3&utm_medium=api_v3_business_search&utm_source=yhLoLzsNXKw40xZ5RCWPpA", "price": "$$", "distance": 1299.6199621073417, "coordinates": {"latitude": 40.73643, "longitude": -73.8027}, "alias": "fillmores-tavern-flushing", "image_url": "https://s3-media2.fl.yelpcdn.com/bphoto/xG545lOlHOFeXXHWkFbYog/o.jpg", "categories": [{"alias": "pubs", "title": "Pubs"}, {"alias": "burgers", "title": "Burgers"}, {"alias": "desserts", "title": "Desserts"}], "display_phone": "(718) 762-2727", "phone": "+17187622727", "id": "F212FpDO0usnEbWBmpDdKA", "is_closed": false, "location": {"city": "Flushing", "display_address": ["16602 65th Ave", "Flushing, NY 11365"], "country": "US", "address2": "", "address3": "", "state": "NY", "address1": "16602 65th Ave", "zip_code": "11365"}}, {"rating": 4.5, "review_count": 12, "name": "The Dart Inn", "transactions": [], "url": "https://www.yelp.com/biz/the-dart-inn-briarwood?adjust_creative=yhLoLzsNXKw40xZ5RCWPpA&utm_campaign=yelp_api_v3&utm_medium=api_v3_business_search&utm_source=yhLoLzsNXKw40xZ5RCWPpA", "price": "$$", "distance": 1546.8760967571723, "coordinates": {"latitude": 40.71515, "longitude": -73.80795}, "alias": "the-dart-inn-briarwood", "image_url": "https://s3-media1.fl.yelpcdn.com/bphoto/WuyE3YNyAxdO98qtpahDtQ/o.jpg", "categories": [{"alias": "divebars", "title": "Dive Bars"}], "display_phone": "", "phone": "", "id": "XUrbMZ_9wtP47LdnXvzNiA", "is_closed": false, "location": {"city": "Briarwood", "display_address": ["83-18 Parsons Blvd", "Briarwood, NY 11432"], "country": "US", "address2": "", "address3": "", "state": "NY", "address1": "83-18 Parsons Blvd", "zip_code": "11432"}}, {"rating": 4.5, "review_count": 12, "name": "El Tequilazo", "transactions": [], "url": "https://www.yelp.com/biz/el-tequilazo-jamaica?adjust_creative=yhLoLzsNXKw40xZ5RCWPpA&utm_campaign=yelp_api_v3&utm_medium=api_v3_business_search&utm_source=yhLoLzsNXKw40xZ5RCWPpA", "distance": 1619.2906545363926, "coordinates": {"latitude": 40.7122945231321, "longitude": -73.7891526480506}, "alias": "el-tequilazo-jamaica", "image_url": "https://s3-media1.fl.yelpcdn.com/bphoto/T-S1q3gsH9B9uIGzDCKyRw/o.jpg", "categories": [{"alias": "mexican", "title": "Mexican"}, {"alias": "beerbar", "title": "Beer Bar"}], "display_phone": "(718) 558-0020", "phone": "+17185580020", "id": "N-yqacjOkrrXsGMgogmZWg", "is_closed": false, "location": {"city": "Jamaica", "display_address": ["17237 Hillside Ave", "Jamaica, NY 11432"], "country": "US", "address2": "", "address3": null, "state": "NY", "address1": "17237 Hillside Ave", "zip_code": "11432"}}, {"rating": 3.0, "review_count": 13, "name": "The Emerald Pub", "transactions": [], "url": "https://www.yelp.com/biz/the-emerald-pub-fresh-meadows?adjust_creative=yhLoLzsNXKw40xZ5RCWPpA&utm_campaign=yelp_api_v3&utm_medium=api_v3_business_search&utm_source=yhLoLzsNXKw40xZ5RCWPpA", "price": "$", "distance": 1642.7847156269725, "coordinates": {"latitude": 40.7401351928711, "longitude": -73.7911682128906}, "alias": "the-emerald-pub-fresh-meadows", "image_url": "https://s3-media1.fl.yelpcdn.com/bphoto/dGxx8BklkpfiOjNtY2AW3Q/o.jpg", "categories": [{"alias": "pubs", "title": "Pubs"}], "display_phone": "(718) 357-5572", "phone": "+17183575572", "id": "cgJfEfKLQUu9Fwkrc5Qidg", "is_closed": false, "location": {"city": "Fresh Meadows", "display_address": ["18301 Horace Harding Expy", "Fresh Meadows, NY 11365"], "country": "US", "address2": "", "address3": "", "state": "NY", "address1": "18301 Horace Harding Expy", "zip_code": "11365"}}, {"rating": 3.5, "review_count": 80, "name": "Cheap Shots", "transactions": [], "url": "https://www.yelp.com/biz/cheap-shots-flushing?adjust_creative=yhLoLzsNXKw40xZ5RCWPpA&utm_campaign=yelp_api_v3&utm_medium=api_v3_business_search&utm_source=yhLoLzsNXKw40xZ5RCWPpA", "price": "$", "distance": 1665.088114762128, "coordinates": {"latitude": 40.7188189, "longitude": -73.8136349}, "alias": "cheap-shots-flushing", "image_url": "https://s3-media4.fl.yelpcdn.com/bphoto/aOpdtnPVcC7PCKUZYzsGmA/o.jpg", "categories": [{"alias": "divebars", "title": "Dive Bars"}], "display_phone": "(718) 969-0070", "phone": "+17189690070", "id": "LUNVZXFSHGKKafZo0t4Ktg", "is_closed": false, "location": {"city": "Flushing", "display_address": ["14905 Union Tpke", "Flushing, NY 11367"], "country": "US", "address2": null, "address3": null, "state": "NY", "address1": "14905 Union Tpke", "zip_code": "11367"}}, {"rating": 2.5, "review_count": 229, "name": "Applebee's Grill + Bar", "transactions": [], "url": "https://www.yelp.com/biz/applebees-grill-bar-fresh-meadows?adjust_creative=yhLoLzsNXKw40xZ5RCWPpA&utm_campaign=yelp_api_v3&utm_medium=api_v3_business_search&utm_source=yhLoLzsNXKw40xZ5RCWPpA", "price": "$$", "distance": 1699.6837247978067, "coordinates": {"latitude": 40.739223, "longitude": -73.786445}, "alias": "applebees-grill-bar-fresh-meadows", "image_url": "https://s3-media2.fl.yelpcdn.com/bphoto/cBHVev6GMRbypVlFllM7sw/o.jpg", "categories": [{"alias": "tradamerican", "title": "American (Traditional)"}, {"alias": "sportsbars", "title": "Sports Bars"}, {"alias": "burgers", "title": "Burgers"}], "display_phone": "(718) 264-1222", "phone": "+17182641222", "id": "GXM9LNceu2QRSgtoVHAB-Q", "is_closed": false, "location": {"city": "Fresh Meadows", "display_address": ["61-48 188th St", "Fresh Meadows, NY 11365"], "country": "US", "address2": "", "address3": "", "state": "NY", "address1": "61-48 188th St", "zip_code": "11365"}}, {"rating": 3.0, "review_count": 1, "name": "Island Rage", "transactions": [], "url": "https://www.yelp.com/biz/island-rage-queens?adjust_creative=yhLoLzsNXKw40xZ5RCWPpA&utm_campaign=yelp_api_v3&utm_medium=api_v3_business_search&utm_source=yhLoLzsNXKw40xZ5RCWPpA", "price": "$", "distance": 1854.0691396788695, "coordinates": {"latitude": 40.7022895812988, "longitude": -73.8279495239258}, "alias": "island-rage-queens", "image_url": "https://s3-media4.fl.yelpcdn.com/bphoto/QWHk4ZBWjhzC8mkaF0AkFg/o.jpg", "categories": [{"alias": "hookah_bars", "title": "Hookah Bars"}, {"alias": "divebars", "title": "Dive Bars"}], "display_phone": "(718) 487-4997", "phone": "+17184874997", "id": "t-lJRbzhhG_SACvSOfYX4A", "is_closed": false, "location": {"city": "Queens", "display_address": ["180-2 Hillside Ave", "Queens, NY 11432"], "country": "US", "address2": null, "address3": "", "state": "NY", "address1": "180-2 Hillside Ave", "zip_code": "11432"}}, {"rating": 3.5, "review_count": 45, "name": "El Gauchito ||", "transactions": [], "url": "https://www.yelp.com/biz/el-gauchito-fresh-meadows-2?adjust_creative=yhLoLzsNXKw40xZ5RCWPpA&utm_campaign=yelp_api_v3&utm_medium=api_v3_business_search&utm_source=yhLoLzsNXKw40xZ5RCWPpA", "price": "$$", "distance": 1858.842619632666, "coordinates": {"latitude": 40.7389851, "longitude": -73.8098674}, "alias": "el-gauchito-fresh-meadows-2", "image_url": "https://s3-media1.fl.yelpcdn.com/bphoto/3BGSzi_B1m7Qp7ILoOpTLQ/o.jpg", "categories": [{"alias": "steak", "title": "Steakhouses"}, {"alias": "argentine", "title": "Argentine"}, {"alias": "wine_bars", "title": "Wine Bars"}], "display_phone": "(718) 661-4262", "phone": "+17186614262", "id": "FZTx3y0PeGje5v6z3zwcbQ", "is_closed": false, "location": {"city": "Fresh Meadows", "display_address": ["158-15 Horace Harding Expy", "Fresh Meadows, NY 11365"], "country": "US", "address2": "", "address3": "", "state": "NY", "address1": "158-15 Horace Harding Expy", "zip_code": "11365"}}, {"rating": 2.5, "review_count": 459, "name": "Hooters", "transactions": [], "url": "https://www.yelp.com/biz/hooters-fresh-meadows?adjust_creative=yhLoLzsNXKw40xZ5RCWPpA&utm_campaign=yelp_api_v3&utm_medium=api_v3_business_search&utm_source=yhLoLzsNXKw40xZ5RCWPpA", "price": "$$", "distance": 1936.453315210099, "coordinates": {"latitude": 40.7407199542533, "longitude": -73.7842514579938}, "alias": "hooters-fresh-meadows", "image_url": "https://s3-media2.fl.yelpcdn.com/bphoto/l-KW1hXEfcHS0AcdHq3NkQ/o.jpg", "categories": [{"alias": "tradamerican", "title": "American (Traditional)"}, {"alias": "sportsbars", "title": "Sports Bars"}, {"alias": "chicken_wings", "title": "Chicken Wings"}], "display_phone": "(718) 454-2800", "phone": "+17184542800", "id": "PpX-FxKK2DcB17rnTVpEeg", "is_closed": false, "location": {"city": "Fresh Meadows", "display_address": ["61-09 190th St", "Fresh Meadows, NY 11365"], "country": "US", "address2": "", "address3": "", "state": "NY", "address1": "61-09 190th St", "zip_code": "11365"}}, {"rating": 3.5, "review_count": 13, "name": "Tropical Fantasy Bar & Lounge", "transactions": [], "url": "https://www.yelp.com/biz/tropical-fantasy-bar-and-lounge-jamaica?adjust_creative=yhLoLzsNXKw40xZ5RCWPpA&utm_campaign=yelp_api_v3&utm_medium=api_v3_business_search&utm_source=yhLoLzsNXKw40xZ5RCWPpA", "price": "$$", "distance": 2165.613917304648, "coordinates": {"latitude": 40.70761, "longitude": -73.786838}, "alias": "tropical-fantasy-bar-and-lounge-jamaica", "image_url": "https://s3-media2.fl.yelpcdn.com/bphoto/t8UajWVf4A2B-OMVgtU-lQ/o.jpg", "categories": [{"alias": "lounges", "title": "Lounges"}], "display_phone": "(718) 658-8200", "phone": "+17186588200", "id": "O2dZuxkdsRH1NBZ2c1pwpQ", "is_closed": false, "location": {"city": "Jamaica", "display_address": ["17232 Jamaica Ave", "Jamaica, NY 11432"], "country": "US", "address2": null, "address3": null, "state": "NY", "address1": "17232 Jamaica Ave", "zip_code": "11432"}}, {"rating": 3.5, "review_count": 5, "name": "Berbice Bar and Restaurant", "transactions": [], "url": "https://www.yelp.com/biz/berbice-bar-and-restaurant-jamaica?adjust_creative=yhLoLzsNXKw40xZ5RCWPpA&utm_campaign=yelp_api_v3&utm_medium=api_v3_business_search&utm_source=yhLoLzsNXKw40xZ5RCWPpA", "distance": 2180.6238596576777, "coordinates": {"latitude": 40.7076988220215, "longitude": -73.7863845825195}, "alias": "berbice-bar-and-restaurant-jamaica", "image_url": "https://s3-media2.fl.yelpcdn.com/bphoto/J3CZloP96gLu8xEeDmojRQ/o.jpg", "categories": [{"alias": "bars", "title": "Bars"}, {"alias": "chinese", "title": "Chinese"}, {"alias": "seafood", "title": "Seafood"}], "display_phone": "(718) 297-6100", "phone": "+17182976100", "id": "CCaCeres8c7Wg2TLdwdP7A", "is_closed": false, "location": {"city": "Jamaica", "display_address": ["17306 Jamaica Ave", "Jamaica, NY 11432"], "country": "US", "address2": null, "address3": "", "state": "NY", "address1": "17306 Jamaica Ave", "zip_code": "11432"}}, {"rating": 3.5, "review_count": 9, "name": "Tori O'Toole's", "transactions": [], "url": "https://www.yelp.com/biz/tori-o-tooles-flushing-2?adjust_creative=yhLoLzsNXKw40xZ5RCWPpA&utm_campaign=yelp_api_v3&utm_medium=api_v3_business_search&utm_source=yhLoLzsNXKw40xZ5RCWPpA", "price": "$", "distance": 2275.708781944749, "coordinates": {"latitude": 40.7404589, "longitude": -73.8152305}, "alias": "tori-o-tooles-flushing-2", "image_url": "https://s3-media1.fl.yelpcdn.com/bphoto/7QHjnpX0Ssf_NgpBo1Blrw/o.jpg", "categories": [{"alias": "bars", "title": "Bars"}], "display_phone": "(718) 353-0380", "phone": "+17183530380", "id": "dQ4GFwP5wCMIk0orfRd7eQ", "is_closed": false, "location": {"city": "Flushing", "display_address": ["5918 Kissena Bvld", "Flushing, NY 11367"], "country": "US", "address2": "", "address3": "", "state": "NY", "address1": "5918 Kissena Bvld", "zip_code": "11367"}}, {"rating": 1.0, "review_count": 1, "name": "Starz Banquet Hall", "transactions": [], "url": "https://www.yelp.com/biz/starz-banquet-hall-jamaica?adjust_creative=yhLoLzsNXKw40xZ5RCWPpA&utm_campaign=yelp_api_v3&utm_medium=api_v3_business_search&utm_source=yhLoLzsNXKw40xZ5RCWPpA", "distance": 2311.5466933616035, "coordinates": {"latitude": 40.7051563331998, "longitude": -73.7934873166507}, "alias": "starz-banquet-hall-jamaica", "image_url": "https://s3-media2.fl.yelpcdn.com/bphoto/pI5dPhbxXY4YCpMNHXwlNQ/o.jpg", "categories": [{"alias": "danceclubs", "title": "Dance Clubs"}, {"alias": "musicvenues", "title": "Music Venues"}], "display_phone": "(718) 977-8279", "phone": "+17189778279", "id": "CLUWToq1-2Akqn02UoDweg", "is_closed": false, "location": {"city": "Jamaica", "display_address": ["23136 Merrick Blvd", "Jamaica, NY 11432"], "country": "US", "address2": "", "address3": "", "state": "NY", "address1": "23136 Merrick Blvd", "zip_code": "11432"}}, {"rating": 4.5, "review_count": 3, "name": "Lovell's Guiding Light", "transactions": [], "url": "https://www.yelp.com/biz/lovells-guiding-light-jamaica?adjust_creative=yhLoLzsNXKw40xZ5RCWPpA&utm_campaign=yelp_api_v3&utm_medium=api_v3_business_search&utm_source=yhLoLzsNXKw40xZ5RCWPpA", "price": "$$", "distance": 2364.243626177108, "coordinates": {"latitude": 40.7065259707219, "longitude": -73.807920364521}, "alias": "lovells-guiding-light-jamaica", "image_url": "https://s3-media3.fl.yelpcdn.com/bphoto/Fc5CBdSjPlBnVBbNxsbTZQ/o.jpg", "categories": [{"alias": "cocktailbars", "title": "Cocktail Bars"}, {"alias": "lounges", "title": "Lounges"}], "display_phone": "(718) 297-3153", "phone": "+17182973153", "id": "_MpwRL91-kOGfjLCrQNqww", "is_closed": false, "location": {"city": "Jamaica", "display_address": ["148-33 Hillside Ave", "Jamaica, NY 11435"], "country": "US", "address2": null, "address3": "", "state": "NY", "address1": "148-33 Hillside Ave", "zip_code": "11435"}}, {"rating": 1.5, "review_count": 135, "name": "Applebee's Grill + Bar", "transactions": [], "url": "https://www.yelp.com/biz/applebees-grill-bar-queens?adjust_creative=yhLoLzsNXKw40xZ5RCWPpA&utm_campaign=yelp_api_v3&utm_medium=api_v3_business_search&utm_source=yhLoLzsNXKw40xZ5RCWPpA", "price": "$$", "distance": 2402.159808939267, "coordinates": {"latitude": 40.7042825, "longitude": -73.79799275}, "alias": "applebees-grill-bar-queens", "image_url": "https://s3-media2.fl.yelpcdn.com/bphoto/w2dxkSd8qXhNI-NEPFbJzA/o.jpg", "categories": [{"alias": "sportsbars", "title": "Sports Bars"}, {"alias": "burgers", "title": "Burgers"}, {"alias": "tradamerican", "title": "American (Traditional)"}], "display_phone": "(347) 571-0921", "phone": "+13475710921", "id": "rWnOWD-mI0vFokt1cs6vSQ", "is_closed": false, "location": {"city": "Queens", "display_address": ["161-21 Jamaica Ave", "Queens, NY 11432"], "country": "US", "address2": "", "address3": "", "state": "NY", "address1": "161-21 Jamaica Ave", "zip_code": "11432"}}, {"rating": 4.0, "review_count": 7, "name": "Maloney's", "transactions": [], "url": "https://www.yelp.com/biz/maloneys-jamaica?adjust_creative=yhLoLzsNXKw40xZ5RCWPpA&utm_campaign=yelp_api_v3&utm_medium=api_v3_business_search&utm_source=yhLoLzsNXKw40xZ5RCWPpA", "price": "$$", "distance": 2525.6941311077176, "coordinates": {"latitude": 40.7053113, "longitude": -73.8092906}, "alias": "maloneys-jamaica", "image_url": "https://s3-media2.fl.yelpcdn.com/bphoto/WscmaMsxxLOSQqw08-OoYg/o.jpg", "categories": [{"alias": "irish", "title": "Irish"}, {"alias": "pubs", "title": "Pubs"}], "display_phone": "(347) 233-4472", "phone": "+13472334472", "id": "XcO60L29ZXavOxhOpDGrbg", "is_closed": false, "location": {"city": "Jamaica", "display_address": ["87-67 Sutphin Blvd", "Jamaica, NY 11435"], "country": "US", "address2": "", "address3": "", "state": "NY", "address1": "87-67 Sutphin Blvd", "zip_code": "11435"}}, {"rating": 3.5, "review_count": 3, "name": "Macumba Bar & Restaurant", "transactions": ["delivery", "pickup"], "url": "https://www.yelp.com/biz/macumba-bar-and-restaurant-hollis-3?adjust_creative=yhLoLzsNXKw40xZ5RCWPpA&utm_campaign=yelp_api_v3&utm_medium=api_v3_business_search&utm_source=yhLoLzsNXKw40xZ5RCWPpA", "price": "$$", "distance": 2561.7137828559376, "coordinates": {"latitude": 40.7094612121582, "longitude": -73.7748260498047}, "alias": "macumba-bar-and-restaurant-hollis-3", "image_url": "https://s3-media1.fl.yelpcdn.com/bphoto/pdNnFL4LAxvn6dggJhqC3A/o.jpg", "categories": [{"alias": "newamerican", "title": "American (New)"}, {"alias": "bars", "title": "Bars"}], "display_phone": "(718) 264-1960", "phone": "+17182641960", "id": "WezGqBNhTo7XT2XzIlkuKA", "is_closed": false, "location": {"city": "Hollis", "display_address": ["184-33 Jamaica Ave", "Hollis, NY 11423"], "country": "US", "address2": "", "address3": "", "state": "NY", "address1": "184-33 Jamaica Ave", "zip_code": "11423"}}, {"rating": 2.0, "review_count": 2, "name": "Hot Shot Billards", "transactions": [], "url": "https://www.yelp.com/biz/hot-shot-billards-jamaica?adjust_creative=yhLoLzsNXKw40xZ5RCWPpA&utm_campaign=yelp_api_v3&utm_medium=api_v3_business_search&utm_source=yhLoLzsNXKw40xZ5RCWPpA", "price": "$", "distance": 2779.893071257288, "coordinates": {"latitude": 40.70165, "longitude": -73.80459}, "alias": "hot-shot-billards-jamaica", "image_url": "", "categories": [{"alias": "poolhalls", "title": "Pool Halls"}], "display_phone": "(718) 657-4655", "phone": "+17186574655", "id": "q_ourABbcOtpe3lg5KZqTg", "is_closed": false, "location": {"city": "Jamaica", "display_address": ["9212 150th St", "Jamaica, NY 11435"], "country": "US", "address2": "", "address3": "", "state": "NY", "address1": "9212 150th St", "zip_code": "11435"}}, {"rating": 3.0, "review_count": 10, "name": "Blarney Tavern", "transactions": [], "url": "https://www.yelp.com/biz/blarney-tavern-jamaica?adjust_creative=yhLoLzsNXKw40xZ5RCWPpA&utm_campaign=yelp_api_v3&utm_medium=api_v3_business_search&utm_source=yhLoLzsNXKw40xZ5RCWPpA", "price": "$$", "distance": 2855.8503230780934, "coordinates": {"latitude": 40.702072, "longitude": -73.808601}, "alias": "blarney-tavern-jamaica", "image_url": "https://s3-media2.fl.yelpcdn.com/bphoto/-uyyPigdKkycZ89lYTNkdg/o.jpg", "categories": [{"alias": "bars", "title": "Bars"}], "display_phone": "(718) 526-9272", "phone": "+17185269272", "id": "yb37Jd1cANsvv419Pl_wsA", "is_closed": false, "location": {"city": "Jamaica", "display_address": ["14609 Jamaica Ave", "Jamaica, NY 11435"], "country": "US", "address2": "", "address3": "", "state": "NY", "address1": "14609 Jamaica Ave", "zip_code": "11435"}}, {"rating": 5.0, "review_count": 1, "name": "Ca\u00f1as Restaurant and Bar", "transactions": ["delivery", "pickup"], "url": "https://www.yelp.com/biz/ca%C3%B1as-restaurant-and-bar-jamaica?adjust_creative=yhLoLzsNXKw40xZ5RCWPpA&utm_campaign=yelp_api_v3&utm_medium=api_v3_business_search&utm_source=yhLoLzsNXKw40xZ5RCWPpA", "distance": 2902.7354988934885, "coordinates": {"latitude": 40.70238, "longitude": -73.8112}, "alias": "ca\u00f1as-restaurant-and-bar-jamaica", "image_url": "https://s3-media4.fl.yelpcdn.com/bphoto/oKsZvcESi13eEZY1KNn6zQ/o.jpg", "categories": [{"alias": "latin", "title": "Latin American"}, {"alias": "dominican", "title": "Dominican"}, {"alias": "bars", "title": "Bars"}], "display_phone": "(929) 244-7267", "phone": "+19292447267", "id": "Lm-N3uF0PMHuu9A7FrXYNw", "is_closed": false, "location": {"city": "Jamaica", "display_address": ["144-07 Jamaica Ave", "Jamaica, NY 11435"], "country": "US", "address2": null, "address3": "", "state": "NY", "address1": "144-07 Jamaica Ave", "zip_code": "11435"}}, {"rating": 3.5, "review_count": 33, "name": "B.B.'S Pub and Grill", "transactions": [], "url": "https://www.yelp.com/biz/b-b-s-pub-and-grill-flushing?adjust_creative=yhLoLzsNXKw40xZ5RCWPpA&utm_campaign=yelp_api_v3&utm_medium=api_v3_business_search&utm_source=yhLoLzsNXKw40xZ5RCWPpA", "price": "$$", "distance": 3101.356848179553, "coordinates": {"latitude": 40.7536482, "longitude": -73.7942079}, "alias": "b-b-s-pub-and-grill-flushing", "image_url": "https://s3-media3.fl.yelpcdn.com/bphoto/QpRRz9bfkSi2mQPdmNyFSg/o.jpg", "categories": [{"alias": "chicken_wings", "title": "Chicken Wings"}, {"alias": "pubs", "title": "Pubs"}], "display_phone": "(718) 961-6161", "phone": "+17189616161", "id": "quq_3RgK5KQUqBad9CFeHA", "is_closed": false, "location": {"city": "Flushing", "display_address": ["17157 46th Ave", "Flushing, NY 11358"], "country": "US", "address2": "", "address3": "", "state": "NY", "address1": "17157 46th Ave", "zip_code": "11358"}}, {"rating": 3.5, "review_count": 17, "name": "Air Bar", "transactions": [], "url": "https://www.yelp.com/biz/air-bar-jamaica?adjust_creative=yhLoLzsNXKw40xZ5RCWPpA&utm_campaign=yelp_api_v3&utm_medium=api_v3_business_search&utm_source=yhLoLzsNXKw40xZ5RCWPpA", "price": "$$", "distance": 3114.080534927342, "coordinates": {"latitude": 40.6991779889921, "longitude": -73.8074934482574}, "alias": "air-bar-jamaica", "image_url": "https://s3-media4.fl.yelpcdn.com/bphoto/M3EPmHL4t1rxfB3ZRNwo3w/o.jpg", "categories": [{"alias": "sportsbars", "title": "Sports Bars"}], "display_phone": "(718) 725-0002", "phone": "+17187250002", "id": "XzevuXHkl43xtPDzZ0tnxw", "is_closed": false, "location": {"city": "Jamaica", "display_address": ["93-40 Sutphin Blvd", "Jamaica, NY 11435"], "country": "US", "address2": "", "address3": "", "state": "NY", "address1": "93-40 Sutphin Blvd", "zip_code": "11435"}}, {"rating": 3.0, "review_count": 3, "name": "Code Lounge", "transactions": [], "url": "https://www.yelp.com/biz/code-lounge-hollis?adjust_creative=yhLoLzsNXKw40xZ5RCWPpA&utm_campaign=yelp_api_v3&utm_medium=api_v3_business_search&utm_source=yhLoLzsNXKw40xZ5RCWPpA", "price": "$$", "distance": 3167.2952458313666, "coordinates": {"latitude": 40.7136688, "longitude": -73.7622299}, "alias": "code-lounge-hollis", "image_url": "https://s3-media3.fl.yelpcdn.com/bphoto/A1KdQK4WYZCnVL4xCTGZzg/o.jpg", "categories": [{"alias": "danceclubs", "title": "Dance Clubs"}, {"alias": "lounges", "title": "Lounges"}], "display_phone": "(917) 468-7437", "phone": "+19174687437", "id": "GhzMfFC0SNrBf0UmxYH3BA", "is_closed": false, "location": {"city": "Hollis", "display_address": ["197-15 Jamaica Ave", "Hollis, NY 11423"], "country": "US", "address2": "", "address3": "", "state": "NY", "address1": "197-15 Jamaica Ave", "zip_code": "11423"}}, {"rating": 4.0, "review_count": 98, "name": "A-Churrasqueira Restaurant & Bar", "transactions": [], "url": "https://www.yelp.com/biz/a-churrasqueira-restaurant-and-bar-jamaica?adjust_creative=yhLoLzsNXKw40xZ5RCWPpA&utm_campaign=yelp_api_v3&utm_medium=api_v3_business_search&utm_source=yhLoLzsNXKw40xZ5RCWPpA", "price": "$$", "distance": 3223.6085454705035, "coordinates": {"latitude": 40.697755, "longitude": -73.805755}, "alias": "a-churrasqueira-restaurant-and-bar-jamaica", "image_url": "https://s3-media1.fl.yelpcdn.com/bphoto/B0LYk-xwdq5PgkJsgAuuRQ/o.jpg", "categories": [{"alias": "steak", "title": "Steakhouses"}, {"alias": "portuguese", "title": "Portuguese"}, {"alias": "bars", "title": "Bars"}], "display_phone": "(718) 523-5293", "phone": "+17185235293", "id": "V9rDr5Nb1ciKSU0LR74ocg", "is_closed": false, "location": {"city": "Jamaica", "display_address": ["9529 Sutphin Blvd", "Jamaica, NY 11435"], "country": "US", "address2": "", "address3": "", "state": "NY", "address1": "9529 Sutphin Blvd", "zip_code": "11435"}}, {"rating": 1.0, "review_count": 1, "name": "La Esmeraldita", "transactions": [], "url": "https://www.yelp.com/biz/la-esmeraldita-queens?adjust_creative=yhLoLzsNXKw40xZ5RCWPpA&utm_campaign=yelp_api_v3&utm_medium=api_v3_business_search&utm_source=yhLoLzsNXKw40xZ5RCWPpA", "price": "$", "distance": 3235.4776909219922, "coordinates": {"latitude": 40.6976681829734, "longitude": -73.8057888048301}, "alias": "la-esmeraldita-queens", "image_url": "", "categories": [{"alias": "bars", "title": "Bars"}], "display_phone": "(718) 658-5825", "phone": "+17186585825", "id": "H_R1yhMak27BlZMbrRSerw", "is_closed": false, "location": {"city": "Queens", "display_address": ["95-35 Sutphin Blvd", "Queens, NY 11435"], "country": "US", "address2": "", "address3": null, "state": "NY", "address1": "95-35 Sutphin Blvd", "zip_code": "11435"}}, {"rating": 4.0, "review_count": 13, "name": "O'Hanlon Bar & Grill", "transactions": [], "url": "https://www.yelp.com/biz/o-hanlon-bar-and-grill-forest-hills?adjust_creative=yhLoLzsNXKw40xZ5RCWPpA&utm_campaign=yelp_api_v3&utm_medium=api_v3_business_search&utm_source=yhLoLzsNXKw40xZ5RCWPpA", "price": "$", "distance": 3266.6982566759625, "coordinates": {"latitude": 40.7145982665638, "longitude": -73.8320088386536}, "alias": "o-hanlon-bar-and-grill-forest-hills", "image_url": "https://s3-media2.fl.yelpcdn.com/bphoto/NgwQ1OnAGXYw-RSzsrDfmQ/o.jpg", "categories": [{"alias": "pubs", "title": "Pubs"}, {"alias": "newamerican", "title": "American (New)"}], "display_phone": "(718) 261-1402", "phone": "+17182611402", "id": "Tam5FPQTQEDjxbLGElPBbw", "is_closed": false, "location": {"city": "Forest Hills", "display_address": ["11812 Queens Blvd", "Forest Hills, NY 11375"], "country": "US", "address2": "", "address3": "", "state": "NY", "address1": "11812 Queens Blvd", "zip_code": "11375"}}, {"rating": 3.0, "review_count": 142, "name": "Cobblestone's Pub", "transactions": ["delivery", "pickup"], "url": "https://www.yelp.com/biz/cobblestones-pub-forest-hills?adjust_creative=yhLoLzsNXKw40xZ5RCWPpA&utm_campaign=yelp_api_v3&utm_medium=api_v3_business_search&utm_source=yhLoLzsNXKw40xZ5RCWPpA", "price": "$$", "distance": 3289.2617436000933, "coordinates": {"latitude": 40.7150622, "longitude": -73.8327231}, "alias": "cobblestones-pub-forest-hills", "image_url": "https://s3-media1.fl.yelpcdn.com/bphoto/81ku0r65VcZEPQI0kU7a6A/o.jpg", "categories": [{"alias": "tradamerican", "title": "American (Traditional)"}, {"alias": "sportsbars", "title": "Sports Bars"}], "display_phone": "(718) 263-9754", "phone": "+17182639754", "id": "Xkz2uUnAM2ckYIUqxI0NPw", "is_closed": false, "location": {"city": "Forest Hills", "display_address": ["11718 Queens Blvd", "Forest Hills, NY 11375"], "country": "US", "address2": "", "address3": "", "state": "NY", "address1": "11718 Queens Blvd", "zip_code": "11375"}}, {"rating": 2.0, "review_count": 17, "name": "Jouvay", "transactions": [], "url": "https://www.yelp.com/biz/jouvay-jamaica?adjust_creative=yhLoLzsNXKw40xZ5RCWPpA&utm_campaign=yelp_api_v3&utm_medium=api_v3_business_search&utm_source=yhLoLzsNXKw40xZ5RCWPpA", "price": "$$", "distance": 3366.851261237046, "coordinates": {"latitude": 40.6961098, "longitude": -73.8037567}, "alias": "jouvay-jamaica", "image_url": "https://s3-media3.fl.yelpcdn.com/bphoto/Gq4XlVDIHftb7f3X1ririg/o.jpg", "categories": [{"alias": "hookah_bars", "title": "Hookah Bars"}, {"alias": "danceclubs", "title": "Dance Clubs"}, {"alias": "eventplanning", "title": "Party & Event Planning"}], "display_phone": "(718) 658-9600", "phone": "+17186589600", "id": "-Our4NbpUkaWmG-LXgfpOw", "is_closed": false, "location": {"city": "Jamaica", "display_address": ["147-02 Liberty Ave", "Jamaica, NY 11435"], "country": "US", "address2": "", "address3": "", "state": "NY", "address1": "147-02 Liberty Ave", "zip_code": "11435"}}, {"rating": 3.5, "review_count": 418, "name": "Austin's Ale House", "transactions": ["delivery", "pickup"], "url": "https://www.yelp.com/biz/austins-ale-house-kew-gardens?adjust_creative=yhLoLzsNXKw40xZ5RCWPpA&utm_campaign=yelp_api_v3&utm_medium=api_v3_business_search&utm_source=yhLoLzsNXKw40xZ5RCWPpA", "price": "$$", "distance": 3391.621518653558, "coordinates": {"latitude": 40.709375, "longitude": -73.830072}, "alias": "austins-ale-house-kew-gardens", "image_url": "https://s3-media2.fl.yelpcdn.com/bphoto/80XlXdclQDaUWWyznuZ7fA/o.jpg", "categories": [{"alias": "sportsbars", "title": "Sports Bars"}, {"alias": "steak", "title": "Steakhouses"}, {"alias": "breakfast_brunch", "title": "Breakfast & Brunch"}], "display_phone": "(718) 849-3939", "phone": "+17188493939", "id": "YIFgTJUuihaHnEjWPSdABg", "is_closed": false, "location": {"city": "Kew Gardens", "display_address": ["8270 Austin St", "Kew Gardens, NY 11415"], "country": "US", "address2": "", "address3": "", "state": "NY", "address1": "8270 Austin St", "zip_code": "11415"}}, {"rating": 4.0, "review_count": 7, "name": "Blutos", "transactions": [], "url": "https://www.yelp.com/biz/blutos-flushing?adjust_creative=yhLoLzsNXKw40xZ5RCWPpA&utm_campaign=yelp_api_v3&utm_medium=api_v3_business_search&utm_source=yhLoLzsNXKw40xZ5RCWPpA", "price": "$", "distance": 3445.7039447673196, "coordinates": {"latitude": 40.756215, "longitude": -73.804301}, "alias": "blutos-flushing", "image_url": "https://s3-media3.fl.yelpcdn.com/bphoto/495S14Qvo6lnDPGtWpF1RQ/o.jpg", "categories": [{"alias": "bars", "title": "Bars"}], "display_phone": "(718) 460-2526", "phone": "+17184602526", "id": "sMb9RzLmvkhL8Nx4H5pSgQ", "is_closed": false, "location": {"city": "Flushing", "display_address": ["4503 162nd St", "Flushing, NY 11358"], "country": "US", "address2": null, "address3": null, "state": "NY", "address1": "4503 162nd St", "zip_code": "11358"}}, {"rating": 3.5, "review_count": 409, "name": "Queens Bully", "transactions": [], "url": "https://www.yelp.com/biz/queens-bully-forest-hills?adjust_creative=yhLoLzsNXKw40xZ5RCWPpA&utm_campaign=yelp_api_v3&utm_medium=api_v3_business_search&utm_source=yhLoLzsNXKw40xZ5RCWPpA", "price": "$$", "distance": 3450.481205877341, "coordinates": {"latitude": 40.7170403853055, "longitude": -73.8354602048588}, "alias": "queens-bully-forest-hills", "image_url": "https://s3-media1.fl.yelpcdn.com/bphoto/VkiI4Kbm-6qXVRXeDxPrVg/o.jpg", "categories": [{"alias": "gastropubs", "title": "Gastropubs"}, {"alias": "cocktailbars", "title": "Cocktail Bars"}, {"alias": "breakfast_brunch", "title": "Breakfast & Brunch"}], "display_phone": "(718) 520-8600", "phone": "+17185208600", "id": "zzcUX6-fwxpVsRYG96f9Ig", "is_closed": false, "location": {"city": "Forest Hills", "display_address": ["113-30 Queens Blvd", "Forest Hills, NY 11375"], "country": "US", "address2": "", "address3": null, "state": "NY", "address1": "113-30 Queens Blvd", "zip_code": "11375"}}, {"rating": 4.5, "review_count": 270, "name": "Keuka Kafe a Wine Bar", "transactions": ["delivery"], "url": "https://www.yelp.com/biz/keuka-kafe-a-wine-bar-forest-hills?adjust_creative=yhLoLzsNXKw40xZ5RCWPpA&utm_campaign=yelp_api_v3&utm_medium=api_v3_business_search&utm_source=yhLoLzsNXKw40xZ5RCWPpA", "price": "$$", "distance": 3535.455277579942, "coordinates": {"latitude": 40.7178485060601, "longitude": -73.8368028981476}, "alias": "keuka-kafe-a-wine-bar-forest-hills", "image_url": "https://s3-media2.fl.yelpcdn.com/bphoto/zS5ilEEdIOactfG_KzXaiQ/o.jpg", "categories": [{"alias": "newamerican", "title": "American (New)"}, {"alias": "sandwiches", "title": "Sandwiches"}, {"alias": "wine_bars", "title": "Wine Bars"}], "display_phone": "(718) 880-1478", "phone": "+17188801478", "id": "qixCJxFFrsthp8mgCy1_Zg", "is_closed": false, "location": {"city": "Forest Hills", "display_address": ["112-04 Queens Blvd", "Forest Hills, NY 11375"], "country": "US", "address2": null, "address3": "", "state": "NY", "address1": "112-04 Queens Blvd", "zip_code": "11375"}}, {"rating": 3.5, "review_count": 23, "name": "GAYA", "transactions": [], "url": "https://www.yelp.com/biz/gaya-flushing?adjust_creative=yhLoLzsNXKw40xZ5RCWPpA&utm_campaign=yelp_api_v3&utm_medium=api_v3_business_search&utm_source=yhLoLzsNXKw40xZ5RCWPpA", "distance": 3552.9575226990323, "coordinates": {"latitude": 40.757651, "longitude": -73.792194}, "alias": "gaya-flushing", "image_url": "https://s3-media1.fl.yelpcdn.com/bphoto/XFO_QxbIiV3cD1WvnMM78Q/o.jpg", "categories": [{"alias": "bars", "title": "Bars"}, {"alias": "coffee", "title": "Coffee & Tea"}, {"alias": "italian", "title": "Italian"}], "display_phone": "(917) 563-1131", "phone": "+19175631131", "id": "IUT3nj5A32W7Igd92KZANw", "is_closed": false, "location": {"city": "Flushing", "display_address": ["188-16 Northern Blvd", "Flushing, NY 11358"], "country": "US", "address2": "", "address3": null, "state": "NY", "address1": "188-16 Northern Blvd", "zip_code": "11358"}}, {"rating": 3.5, "review_count": 22, "name": "Last Call", "transactions": [], "url": "https://www.yelp.com/biz/last-call-kew-gardens?adjust_creative=yhLoLzsNXKw40xZ5RCWPpA&utm_campaign=yelp_api_v3&utm_medium=api_v3_business_search&utm_source=yhLoLzsNXKw40xZ5RCWPpA", "price": "$", "distance": 3572.858963737844, "coordinates": {"latitude": 40.7078, "longitude": -73.83128}, "alias": "last-call-kew-gardens", "image_url": "https://s3-media4.fl.yelpcdn.com/bphoto/_Sw2mwG8uID8M_g2XxzLuw/o.jpg", "categories": [{"alias": "bars", "title": "Bars"}, {"alias": "poolhalls", "title": "Pool Halls"}], "display_phone": "(718) 441-3838", "phone": "+17184413838", "id": "I_QmDe5leDckwouLTOS-oA", "is_closed": false, "location": {"city": "Kew Gardens", "display_address": ["8172 Lefferts Blvd", "Kew Gardens, NY 11415"], "country": "US", "address2": "", "address3": "", "state": "NY", "address1": "8172 Lefferts Blvd", "zip_code": "11415"}}, {"rating": 4.0, "review_count": 20, "name": "192 Restaurant & Bar", "transactions": ["delivery", "pickup"], "url": "https://www.yelp.com/biz/192-restaurant-and-bar-flushing?adjust_creative=yhLoLzsNXKw40xZ5RCWPpA&utm_campaign=yelp_api_v3&utm_medium=api_v3_business_search&utm_source=yhLoLzsNXKw40xZ5RCWPpA", "price": "$$", "distance": 3578.3787914074337, "coordinates": {"latitude": 40.7575853, "longitude": -73.789209}, "alias": "192-restaurant-and-bar-flushing", "image_url": "https://s3-media3.fl.yelpcdn.com/bphoto/xMYsgi7Y3LSZSVuG7HO-vw/o.jpg", "categories": [{"alias": "sportsbars", "title": "Sports Bars"}, {"alias": "tradamerican", "title": "American (Traditional)"}], "display_phone": "(718) 225-4200", "phone": "+17182254200", "id": "qCfaCVSEJlz51a9dMg7mhQ", "is_closed": false, "location": {"city": "Flushing", "display_address": ["192-02 Northern Blvd", "Flushing, NY 11358"], "country": "US", "address2": "", "address3": null, "state": "NY", "address1": "192-02 Northern Blvd", "zip_code": "11358"}}, {"rating": 2.5, "review_count": 43, "name": "Mazi Nightclub", "transactions": [], "url": "https://www.yelp.com/biz/mazi-nightclub-richmond-hill?adjust_creative=yhLoLzsNXKw40xZ5RCWPpA&utm_campaign=yelp_api_v3&utm_medium=api_v3_business_search&utm_source=yhLoLzsNXKw40xZ5RCWPpA", "price": "$$", "distance": 3584.889969113643, "coordinates": {"latitude": 40.69877, "longitude": -73.81936}, "alias": "mazi-nightclub-richmond-hill", "image_url": "https://s3-media2.fl.yelpcdn.com/bphoto/Qmjmqn7d3u-xqRA6XNYPHA/o.jpg", "categories": [{"alias": "danceclubs", "title": "Dance Clubs"}], "display_phone": "(845) 309-1317", "phone": "+18453091317", "id": "9g6mKnPHTvYTO-TxZe665A", "is_closed": false, "location": {"city": "Richmond Hill", "display_address": ["13035 91st Ave", "Richmond Hill, NY 11418"], "country": "US", "address2": "", "address3": "", "state": "NY", "address1": "13035 91st Ave", "zip_code": "11418"}}, {"rating": 3.5, "review_count": 135, "name": "Silk Hookah Lounge & Grill", "transactions": ["pickup"], "url": "https://www.yelp.com/biz/silk-hookah-lounge-and-grill-flushing?adjust_creative=yhLoLzsNXKw40xZ5RCWPpA&utm_campaign=yelp_api_v3&utm_medium=api_v3_business_search&utm_source=yhLoLzsNXKw40xZ5RCWPpA", "price": "$$", "distance": 3584.928960241927, "coordinates": {"latitude": 40.75758, "longitude": -73.78898}, "alias": "silk-hookah-lounge-and-grill-flushing", "image_url": "https://s3-media3.fl.yelpcdn.com/bphoto/muWWCjUHtRkXSOS7gGDnSg/o.jpg", "categories": [{"alias": "hookah_bars", "title": "Hookah Bars"}, {"alias": "newamerican", "title": "American (New)"}, {"alias": "asianfusion", "title": "Asian Fusion"}], "display_phone": "(718) 225-7455", "phone": "+17182257455", "id": "BaYtq_qUXc9_i_mPPsUy3w", "is_closed": false, "location": {"city": "Flushing", "display_address": ["192-08 Northern Blvd", "Flushing, NY 11358"], "country": "US", "address2": "", "address3": "", "state": "NY", "address1": "192-08 Northern Blvd", "zip_code": "11358"}}, {"rating": 2.5, "review_count": 5, "name": "XQuisite", "transactions": [], "url": "https://www.yelp.com/biz/xquisite-richmond-hill-2?adjust_creative=yhLoLzsNXKw40xZ5RCWPpA&utm_campaign=yelp_api_v3&utm_medium=api_v3_business_search&utm_source=yhLoLzsNXKw40xZ5RCWPpA", "price": "$$", "distance": 3585.535620277973, "coordinates": {"latitude": 40.6969501823187, "longitude": -73.8148400187492}, "alias": "xquisite-richmond-hill-2", "image_url": "https://s3-media1.fl.yelpcdn.com/bphoto/xHjNIH4NB_G2hm3-08VKSw/o.jpg", "categories": [{"alias": "lounges", "title": "Lounges"}], "display_phone": "(646) 415-2766", "phone": "+16464152766", "id": "OCZtkI90KOiHynz_aiUnvg", "is_closed": false, "location": {"city": "Richmond Hill", "display_address": ["134-10 Atlantic Ave", "Richmond Hill, NY 11419"], "country": "US", "address2": "", "address3": "", "state": "NY", "address1": "134-10 Atlantic Ave", "zip_code": "11419"}}, {"rating": 2.5, "review_count": 3, "name": "McGully Alley", "transactions": [], "url": "https://www.yelp.com/biz/mcgully-alley-flushing?adjust_creative=yhLoLzsNXKw40xZ5RCWPpA&utm_campaign=yelp_api_v3&utm_medium=api_v3_business_search&utm_source=yhLoLzsNXKw40xZ5RCWPpA", "distance": 3588.129753894376, "coordinates": {"latitude": 40.757575, "longitude": -73.788882}, "alias": "mcgully-alley-flushing", "image_url": "", "categories": [{"alias": "bars", "title": "Bars"}, {"alias": "korean", "title": "Korean"}], "display_phone": "", "phone": "", "id": "rMZucUKIGxQL7t4u-ajcAQ", "is_closed": false, "location": {"city": "Flushing", "display_address": ["19212 Northern Blvd", "Flushing, NY 11358"], "country": "US", "address2": null, "address3": null, "state": "NY", "address1": "19212 Northern Blvd", "zip_code": "11358"}}, {"rating": 4.5, "review_count": 129, "name": "The Sweet Sap", "transactions": [], "url": "https://www.yelp.com/biz/the-sweet-sap-flushing?adjust_creative=yhLoLzsNXKw40xZ5RCWPpA&utm_campaign=yelp_api_v3&utm_medium=api_v3_business_search&utm_source=yhLoLzsNXKw40xZ5RCWPpA", "price": "$$", "distance": 3603.7428960680545, "coordinates": {"latitude": 40.7578205497777, "longitude": -73.7917962842939}, "alias": "the-sweet-sap-flushing", "image_url": "https://s3-media1.fl.yelpcdn.com/bphoto/kR3FO9fVQu_2fZ4skTeiDA/o.jpg", "categories": [{"alias": "newamerican", "title": "American (New)"}, {"alias": "korean", "title": "Korean"}, {"alias": "cocktailbars", "title": "Cocktail Bars"}], "display_phone": "(718) 225-1000", "phone": "+17182251000", "id": "VnnuUGARPaTevTIIApWWVw", "is_closed": false, "location": {"city": "Flushing", "display_address": ["189-11 Northern Blvd", "Flushing, NY 11358"], "country": "US", "address2": "", "address3": null, "state": "NY", "address1": "189-11 Northern Blvd", "zip_code": "11358"}}, {"rating": 1.0, "review_count": 3, "name": "Rose Lounge", "transactions": [], "url": "https://www.yelp.com/biz/rose-lounge-queens?adjust_creative=yhLoLzsNXKw40xZ5RCWPpA&utm_campaign=yelp_api_v3&utm_medium=api_v3_business_search&utm_source=yhLoLzsNXKw40xZ5RCWPpA", "price": "$$", "distance": 3610.159517587066, "coordinates": {"latitude": 40.6991661, "longitude": -73.8206122}, "alias": "rose-lounge-queens", "image_url": "https://s3-media4.fl.yelpcdn.com/bphoto/FT4yYD0Oq6TaqJLzuirRJA/o.jpg", "categories": [{"alias": "lounges", "title": "Lounges"}], "display_phone": "(718) 805-7673", "phone": "+17188057673", "id": "fFGRDQOuGG1-7kdhi_44eQ", "is_closed": false, "location": {"city": "Queens", "display_address": ["89-25 130th St", "Queens, NY 11418"], "country": "US", "address2": "", "address3": null, "state": "NY", "address1": "89-25 130th St", "zip_code": "11418"}}, {"rating": 2.0, "review_count": 2, "name": "Bistro Filipino", "transactions": [], "url": "https://www.yelp.com/biz/bistro-filipino-richmond-hill?adjust_creative=yhLoLzsNXKw40xZ5RCWPpA&utm_campaign=yelp_api_v3&utm_medium=api_v3_business_search&utm_source=yhLoLzsNXKw40xZ5RCWPpA", "distance": 3626.30844494346, "coordinates": {"latitude": 40.699042, "longitude": -73.820537}, "alias": "bistro-filipino-richmond-hill", "image_url": "", "categories": [{"alias": "pubs", "title": "Pubs"}], "display_phone": "(718) 850-2800", "phone": "+17188502800", "id": "GEB4jbR0ufevT4-PZaf0_Q", "is_closed": false, "location": {"city": "Richmond Hill", "display_address": ["8929 130th St", "Richmond Hill, NY 11418"], "country": "US", "address2": null, "address3": null, "state": "NY", "address1": "8929 130th St", "zip_code": "11418"}}, {"rating": 3.5, "review_count": 218, "name": "The Oasis Cafe", "transactions": [], "url": "https://www.yelp.com/biz/the-oasis-cafe-flushing-3?adjust_creative=yhLoLzsNXKw40xZ5RCWPpA&utm_campaign=yelp_api_v3&utm_medium=api_v3_business_search&utm_source=yhLoLzsNXKw40xZ5RCWPpA", "price": "$$", "distance": 3659.663011095316, "coordinates": {"latitude": 40.757503, "longitude": -73.784331}, "alias": "the-oasis-cafe-flushing-3", "image_url": "https://s3-media4.fl.yelpcdn.com/bphoto/EucZoJF19cFfhzHm8jd1lQ/o.jpg", "categories": [{"alias": "cafes", "title": "Cafes"}, {"alias": "lounges", "title": "Lounges"}, {"alias": "bakeries", "title": "Bakeries"}], "display_phone": "(718) 357-4843", "phone": "+17183574843", "id": "grUacswReihhwYx9Ta0bAg", "is_closed": false, "location": {"city": "Flushing", "display_address": ["196-30 Northern Blvd", "Flushing, NY 11358"], "country": "US", "address2": "", "address3": null, "state": "NY", "address1": "196-30 Northern Blvd", "zip_code": "11358"}}, {"rating": 4.0, "review_count": 12, "name": "Recovery Room", "transactions": [], "url": "https://www.yelp.com/biz/recovery-room-flushing-2?adjust_creative=yhLoLzsNXKw40xZ5RCWPpA&utm_campaign=yelp_api_v3&utm_medium=api_v3_business_search&utm_source=yhLoLzsNXKw40xZ5RCWPpA", "price": "$", "distance": 3662.6869610980007, "coordinates": {"latitude": 40.7472191, "longitude": -73.8292618}, "alias": "recovery-room-flushing-2", "image_url": "https://s3-media4.fl.yelpcdn.com/bphoto/1j9xFheuL7iTAINH1gFI1g/o.jpg", "categories": [{"alias": "divebars", "title": "Dive Bars"}, {"alias": "sportsbars", "title": "Sports Bars"}], "display_phone": "", "phone": "", "id": "tT4WY0p21Azfztn_QBmA_g", "is_closed": false, "location": {"city": "Flushing", "display_address": ["135-24 Booth Memorial Ave", "Flushing, NY 11355"], "country": "US", "address2": "", "address3": "", "state": "NY", "address1": "135-24 Booth Memorial Ave", "zip_code": "11355"}}, {"rating": 4.0, "review_count": 203, "name": "O Lavrador", "transactions": [], "url": "https://www.yelp.com/biz/o-lavrador-jamaica-2?adjust_creative=yhLoLzsNXKw40xZ5RCWPpA&utm_campaign=yelp_api_v3&utm_medium=api_v3_business_search&utm_source=yhLoLzsNXKw40xZ5RCWPpA", "price": "$$", "distance": 3665.8697558620165, "coordinates": {"latitude": 40.694413, "longitude": -73.809374}, "alias": "o-lavrador-jamaica-2", "image_url": "https://s3-media2.fl.yelpcdn.com/bphoto/nGrBYB6RgPxEC_xYcILHfg/o.jpg", "categories": [{"alias": "portuguese", "title": "Portuguese"}, {"alias": "bars", "title": "Bars"}, {"alias": "spanish", "title": "Spanish"}], "display_phone": "(718) 526-1526", "phone": "+17185261526", "id": "d61Ejg_qQGTATqh67c912g", "is_closed": false, "location": {"city": "Jamaica", "display_address": ["13840 101st Ave", "Jamaica, NY 11435"], "country": "US", "address2": "", "address3": "", "state": "NY", "address1": "13840 101st Ave", "zip_code": "11435"}}, {"rating": 3.0, "review_count": 22, "name": "Dr. SEA Bar & Hot Pot", "transactions": [], "url": "https://www.yelp.com/biz/dr-sea-bar-and-hot-pot-new-york-3?adjust_creative=yhLoLzsNXKw40xZ5RCWPpA&utm_campaign=yelp_api_v3&utm_medium=api_v3_business_search&utm_source=yhLoLzsNXKw40xZ5RCWPpA", "price": "$$", "distance": 3666.5325903225475, "coordinates": {"latitude": 40.7554319252327, "longitude": -73.8154046076633}, "alias": "dr-sea-bar-and-hot-pot-new-york-3", "image_url": "https://s3-media2.fl.yelpcdn.com/bphoto/E3HIEnoabOA2ir5Mw-62FA/o.jpg", "categories": [{"alias": "cocktailbars", "title": "Cocktail Bars"}, {"alias": "szechuan", "title": "Szechuan"}], "display_phone": "(718) 737-4666", "phone": "+17187374666", "id": "f1MSMLQPpY_-L4YnWgUPcQ", "is_closed": false, "location": {"city": "New York", "display_address": ["45-08 Parsons Blvd", "New York, NY 11355"], "country": "US", "address2": null, "address3": "", "state": "NY", "address1": "45-08 Parsons Blvd", "zip_code": "11355"}}, {"rating": 3.5, "review_count": 110, "name": "Hangar 11 Bar & Grill", "transactions": ["pickup"], "url": "https://www.yelp.com/biz/hangar-11-bar-and-grill-kew-gardens?adjust_creative=yhLoLzsNXKw40xZ5RCWPpA&utm_campaign=yelp_api_v3&utm_medium=api_v3_business_search&utm_source=yhLoLzsNXKw40xZ5RCWPpA", "price": "$$", "distance": 3671.526208448932, "coordinates": {"latitude": 40.7061098292587, "longitude": -73.8311260566115}, "alias": "hangar-11-bar-and-grill-kew-gardens", "image_url": "https://s3-media2.fl.yelpcdn.com/bphoto/AgGcVupxXRsdxTerNmd1qQ/o.jpg", "categories": [{"alias": "sportsbars", "title": "Sports Bars"}, {"alias": "pubs", "title": "Pubs"}], "display_phone": "(718) 441-8100", "phone": "+17184418100", "id": "iQZYOzNB7b-vTF806dlbYA", "is_closed": false, "location": {"city": "Kew Gardens", "display_address": ["119-11 Metropolitan Ave", "Kew Gardens, NY 11415"], "country": "US", "address2": "", "address3": "", "state": "NY", "address1": "119-11 Metropolitan Ave", "zip_code": "11415"}}]}