{"region": {"center": {"latitude": 40.7104047213, "longitude": -73.8894582261}}, "total": 3100, "businesses": [{"rating": 4.0, "review_count": 27, "name": "Sweet Jane's", "transactions": [], "url": "https://www.yelp.com/biz/sweet-janes-glendale?adjust_creative=yhLoLzsNXKw40xZ5RCWPpA&utm_campaign=yelp_api_v3&utm_medium=api_v3_business_search&utm_source=yhLoLzsNXKw40xZ5RCWPpA", "price": "$", "distance": 680.2673166761019, "coordinates": {"latitude": 40.7056683309166, "longitude": -73.8945664013928}, "alias": "sweet-janes-glendale", "image_url": "https://s3-media2.fl.yelpcdn.com/bphoto/4t1IWuW7btl3ll9qDgpV_w/o.jpg", "categories": [{"alias": "bars", "title": "Bars"}], "display_phone": "(718) 381-2031", "phone": "+17183812031", "id": "AQKmQzEC6ua8xoA8nerlyQ", "is_closed": false, "location": {"city": "Glendale", "display_address": ["6402 68th Ave", "Ground Fl", "Glendale, NY 11385"], "country": "US", "address2": "", "address3": "Ground Fl", "state": "NY", "address1": "6402 68th Ave", "zip_code": "11385"}}, {"rating": 3.0, "review_count": 26, "name": "Glenlo Tavern", "transactions": [], "url": "https://www.yelp.com/biz/glenlo-tavern-ridgewood?adjust_creative=yhLoLzsNXKw40xZ5RCWPpA&utm_campaign=yelp_api_v3&utm_medium=api_v3_business_search&utm_source=yhLoLzsNXKw40xZ5RCWPpA", "price": "$$", "distance": 829.5728190087447, "coordinates": {"latitude": 40.709754, "longitude": -73.899307}, "alias": "glenlo-tavern-ridgewood", "image_url": "https://s3-media4.fl.yelpcdn.com/bphoto/1ZO1MUMN5tDzd18MkJao1w/o.jpg", "categories": [{"alias": "pubs", "title": "Pubs"}], "display_phone": "(718) 418-0661", "phone": "+17184180661", "id": "o4vPoiF9aF9wnUz6ULk2kg", "is_closed": false, "location": {"city": "Ridgewood", "display_address": ["64-18 Fresh Pond Rd", "Ridgewood, NY 11385"], "country": "US", "address2": "", "address3": "", "state": "NY", "address1": "64-18 Fresh Pond Rd", "zip_code": "11385"}}, {"rating": 5.0, "review_count": 1, "name": "The Tavern", "transactions": [], "url": "https://www.yelp.com/biz/the-tavern-ridgewood?adjust_creative=yhLoLzsNXKw40xZ5RCWPpA&utm_campaign=yelp_api_v3&utm_medium=api_v3_business_search&utm_source=yhLoLzsNXKw40xZ5RCWPpA", "distance": 908.3766016394036, "coordinates": {"latitude": 40.7034607, "longitude": -73.8951569}, "alias": "the-tavern-ridgewood", "image_url": "", "categories": [{"alias": "bars", "title": "Bars"}], "display_phone": "", "phone": "", "id": "HaJb876Ugfm_abFyYgHfPw", "is_closed": false, "location": {"city": "Ridgewood", "display_address": ["6869 Fresh Pond Rd", "Ridgewood, NY 11385"], "country": "US", "address2": "", "address3": "", "state": "NY", "address1": "6869 Fresh Pond Rd", "zip_code": "11385"}}, {"rating": 4.0, "review_count": 6, "name": "Cafe Monk", "transactions": [], "url": "https://www.yelp.com/biz/cafe-monk-ridgewood-2?adjust_creative=yhLoLzsNXKw40xZ5RCWPpA&utm_campaign=yelp_api_v3&utm_medium=api_v3_business_search&utm_source=yhLoLzsNXKw40xZ5RCWPpA", "price": "$", "distance": 909.082199209398, "coordinates": {"latitude": 40.7034779, "longitude": -73.895187}, "alias": "cafe-monk-ridgewood-2", "image_url": "https://s3-media3.fl.yelpcdn.com/bphoto/t1VWxG_Q5jakxCTpJ3NOaA/o.jpg", "categories": [{"alias": "beergardens", "title": "Beer Gardens"}, {"alias": "sandwiches", "title": "Sandwiches"}, {"alias": "coffee", "title": "Coffee & Tea"}], "display_phone": "(347) 987-4097", "phone": "+13479874097", "id": "WiiIsL_slt3aVI53OC3EMg", "is_closed": false, "location": {"city": "Ridgewood", "display_address": ["68-67 Fresh Pond Rd", "Ridgewood, NY 11385"], "country": "US", "address2": "", "address3": null, "state": "NY", "address1": "68-67 Fresh Pond Rd", "zip_code": "11385"}}, {"rating": 4.5, "review_count": 10, "name": "Pat's Sports Bar", "transactions": [], "url": "https://www.yelp.com/biz/pats-sports-bar-middle-village?adjust_creative=yhLoLzsNXKw40xZ5RCWPpA&utm_campaign=yelp_api_v3&utm_medium=api_v3_business_search&utm_source=yhLoLzsNXKw40xZ5RCWPpA", "price": "$", "distance": 938.3224520715376, "coordinates": {"latitude": 40.7128967, "longitude": -73.8788221}, "alias": "pats-sports-bar-middle-village", "image_url": "https://s3-media1.fl.yelpcdn.com/bphoto/Trs_wysEVlcj9TGVMgEptg/o.jpg", "categories": [{"alias": "sportsbars", "title": "Sports Bars"}], "display_phone": "(718) 894-7090", "phone": "+17188947090", "id": "4I4vMGN47CmnvG8YmRK7Qg", "is_closed": false, "location": {"city": "Middle Village", "display_address": ["7313 Metropolitan Ave", "Middle Village, NY 11379"], "country": "US", "address2": null, "address3": null, "state": "NY", "address1": "7313 Metropolitan Ave", "zip_code": "11379"}}, {"rating": 3.5, "review_count": 4, "name": "Club House Sports Bar", "transactions": [], "url": "https://www.yelp.com/biz/club-house-sports-bar-middle-village?adjust_creative=yhLoLzsNXKw40xZ5RCWPpA&utm_campaign=yelp_api_v3&utm_medium=api_v3_business_search&utm_source=yhLoLzsNXKw40xZ5RCWPpA", "price": "$", "distance": 1028.0316904355393, "coordinates": {"latitude": 40.714025, "longitude": -73.900734}, "alias": "club-house-sports-bar-middle-village", "image_url": "https://s3-media2.fl.yelpcdn.com/bphoto/YFa4GodFaHvxr5oBihmT5g/o.jpg", "categories": [{"alias": "sportsbars", "title": "Sports Bars"}], "display_phone": "(718) 821-8338", "phone": "+17188218338", "id": "OkZc7O3PatlWqDkush0LNg", "is_closed": false, "location": {"city": "Middle Village", "display_address": ["6121 Fresh Pond Rd", "Middle Village, NY 11379"], "country": "US", "address2": null, "address3": null, "state": "NY", "address1": "6121 Fresh Pond Rd", "zip_code": "11379"}}, {"rating": 3.5, "review_count": 16, "name": "Queens Tavern", "transactions": [], "url": "https://www.yelp.com/biz/queens-tavern-ridgewood?adjust_creative=yhLoLzsNXKw40xZ5RCWPpA&utm_campaign=yelp_api_v3&utm_medium=api_v3_business_search&utm_source=yhLoLzsNXKw40xZ5RCWPpA", "price": "$", "distance": 1033.046607172831, "coordinates": {"latitude": 40.7021423, "longitude": -73.8950618}, "alias": "queens-tavern-ridgewood", "image_url": "https://s3-media4.fl.yelpcdn.com/bphoto/myH6BDwZg0CMqIU5NrCOAg/o.jpg", "categories": [{"alias": "bars", "title": "Bars"}], "display_phone": "(718) 821-9337", "phone": "+17188219337", "id": "wUOOIrxFTGdIcBbj1WuRgQ", "is_closed": false, "location": {"city": "Ridgewood", "display_address": ["6869 Fresh Pond Rd", "Ridgewood, NY 11385"], "country": "US", "address2": "", "address3": "", "state": "NY", "address1": "6869 Fresh Pond Rd", "zip_code": "11385"}}, {"rating": 4.5, "review_count": 7, "name": "K & A", "transactions": [], "url": "https://www.yelp.com/biz/k-and-a-glendale?adjust_creative=yhLoLzsNXKw40xZ5RCWPpA&utm_campaign=yelp_api_v3&utm_medium=api_v3_business_search&utm_source=yhLoLzsNXKw40xZ5RCWPpA", "price": "$", "distance": 1042.792748410151, "coordinates": {"latitude": 40.70122, "longitude": -73.88652}, "alias": "k-and-a-glendale", "image_url": "https://s3-media3.fl.yelpcdn.com/bphoto/w5aOiKx0SiXuuc4feCaIQQ/o.jpg", "categories": [{"alias": "sportsbars", "title": "Sports Bars"}, {"alias": "pubs", "title": "Pubs"}, {"alias": "arcades", "title": "Arcades"}], "display_phone": "(347) 721-3012", "phone": "+13477213012", "id": "QlZNc5HhxtuEWUQSYf7JxA", "is_closed": false, "location": {"city": "Glendale", "display_address": ["66-48 Myrtle Ave", "Glendale, NY 11385"], "country": "US", "address2": "", "address3": "", "state": "NY", "address1": "66-48 Myrtle Ave", "zip_code": "11385"}}, {"rating": 4.0, "review_count": 3, "name": "Celtic Gasthaus", "transactions": [], "url": "https://www.yelp.com/biz/celtic-gasthaus-glendale?adjust_creative=yhLoLzsNXKw40xZ5RCWPpA&utm_campaign=yelp_api_v3&utm_medium=api_v3_business_search&utm_source=yhLoLzsNXKw40xZ5RCWPpA", "price": "$", "distance": 1082.5764824703876, "coordinates": {"latitude": 40.700901, "longitude": -73.892246}, "alias": "celtic-gasthaus-glendale", "image_url": "https://s3-media2.fl.yelpcdn.com/bphoto/h7QHdhCmPgrT3_h-j-QrOA/o.jpg", "categories": [{"alias": "pubs", "title": "Pubs"}, {"alias": "german", "title": "German"}, {"alias": "irish", "title": "Irish"}], "display_phone": "(718) 456-8341", "phone": "+17184568341", "id": "NQmucLdr50HUN5trUSzjng", "is_closed": false, "location": {"city": "Glendale", "display_address": ["6404 Myrtle Ave", "Glendale, NY 11385"], "country": "US", "address2": "", "address3": "", "state": "NY", "address1": "6404 Myrtle Ave", "zip_code": "11385"}}, {"rating": 4.0, "review_count": 43, "name": "Trattoria Cerbone", "transactions": ["pickup", "delivery"], "url": "https://www.yelp.com/biz/trattoria-cerbone-ridgewood?adjust_creative=yhLoLzsNXKw40xZ5RCWPpA&utm_campaign=yelp_api_v3&utm_medium=api_v3_business_search&utm_source=yhLoLzsNXKw40xZ5RCWPpA", "price": "$$", "distance": 1130.4602898242151, "coordinates": {"latitude": 40.7014002, "longitude": -73.894951}, "alias": "trattoria-cerbone-ridgewood", "image_url": "https://s3-media2.fl.yelpcdn.com/bphoto/fkHJfofHAnrnfage1ATIaw/o.jpg", "categories": [{"alias": "italian", "title": "Italian"}, {"alias": "lounges", "title": "Lounges"}], "display_phone": "(718) 386-4400", "phone": "+17183864400", "id": "fR4JL77ZHvoXHQ_-bComqA", "is_closed": false, "location": {"city": "Ridgewood", "display_address": ["71-24 Fresh Pond Rd", "Ridgewood, NY 11385"], "country": "US", "address2": "", "address3": "", "state": "NY", "address1": "71-24 Fresh Pond Rd", "zip_code": "11385"}}, {"rating": 3.0, "review_count": 2, "name": "TJ's Sports Bar", "transactions": [], "url": "https://www.yelp.com/biz/tjs-sports-bar-maspeth?adjust_creative=yhLoLzsNXKw40xZ5RCWPpA&utm_campaign=yelp_api_v3&utm_medium=api_v3_business_search&utm_source=yhLoLzsNXKw40xZ5RCWPpA", "price": "$", "distance": 1175.8917002737585, "coordinates": {"latitude": 40.71549, "longitude": -73.90176}, "alias": "tjs-sports-bar-maspeth", "image_url": "", "categories": [{"alias": "sportsbars", "title": "Sports Bars"}], "display_phone": "(718) 821-8312", "phone": "+17188218312", "id": "0E_RUgXaoAemTb64rbElhw", "is_closed": false, "location": {"city": "Maspeth", "display_address": ["6054 Fresh Pond Rd", "Maspeth, NY 11378"], "country": "US", "address2": "", "address3": "", "state": "NY", "address1": "6054 Fresh Pond Rd", "zip_code": "11378"}}, {"rating": 3.0, "review_count": 1, "name": "Rosehill Inn", "transactions": [], "url": "https://www.yelp.com/biz/rosehill-inn-ridgewood?adjust_creative=yhLoLzsNXKw40xZ5RCWPpA&utm_campaign=yelp_api_v3&utm_medium=api_v3_business_search&utm_source=yhLoLzsNXKw40xZ5RCWPpA", "distance": 1234.740778812261, "coordinates": {"latitude": 40.70669, "longitude": -73.90325}, "alias": "rosehill-inn-ridgewood", "image_url": "", "categories": [{"alias": "hotels", "title": "Hotels"}, {"alias": "bars", "title": "Bars"}], "display_phone": "(718) 628-7180", "phone": "+17186287180", "id": "tNvyo8dVDMwIdtGLNtuclw", "is_closed": false, "location": {"city": "Ridgewood", "display_address": ["6628 Forest Ave", "Ridgewood, NY 11385"], "country": "US", "address2": "", "address3": "", "state": "NY", "address1": "6628 Forest Ave", "zip_code": "11385"}}, {"rating": 3.0, "review_count": 5, "name": "I O Cafe", "transactions": [], "url": "https://www.yelp.com/biz/i-o-cafe-ridgewood?adjust_creative=yhLoLzsNXKw40xZ5RCWPpA&utm_campaign=yelp_api_v3&utm_medium=api_v3_business_search&utm_source=yhLoLzsNXKw40xZ5RCWPpA", "price": "$", "distance": 1247.588276731805, "coordinates": {"latitude": 40.7048542, "longitude": -73.9024828}, "alias": "i-o-cafe-ridgewood", "image_url": "https://s3-media2.fl.yelpcdn.com/bphoto/8lNQWuLzBPquHKQhHsQU3w/o.jpg", "categories": [{"alias": "bars", "title": "Bars"}, {"alias": "cafes", "title": "Cafes"}], "display_phone": "(718) 456-1207", "phone": "+17184561207", "id": "tkiX-R4vjL_JhMH8CopbnQ", "is_closed": false, "location": {"city": "Ridgewood", "display_address": ["793 Fairview Ave", "Ridgewood, NY 11385"], "country": "US", "address2": null, "address3": null, "state": "NY", "address1": "793 Fairview Ave", "zip_code": "11385"}}, {"rating": 4.0, "review_count": 27, "name": "Cozy Corner Bar", "transactions": [], "url": "https://www.yelp.com/biz/cozy-corner-bar-ridgewood?adjust_creative=yhLoLzsNXKw40xZ5RCWPpA&utm_campaign=yelp_api_v3&utm_medium=api_v3_business_search&utm_source=yhLoLzsNXKw40xZ5RCWPpA", "price": "$", "distance": 1249.1120311309974, "coordinates": {"latitude": 40.70174, "longitude": -73.89883}, "alias": "cozy-corner-bar-ridgewood", "image_url": "https://s3-media3.fl.yelpcdn.com/bphoto/nfbhYzDL9w_6LO4rcJYlJQ/o.jpg", "categories": [{"alias": "pubs", "title": "Pubs"}, {"alias": "divebars", "title": "Dive Bars"}], "display_phone": "(718) 381-8397", "phone": "+17183818397", "id": "fDWDB1X7f1l7pcjxVFU6Jw", "is_closed": false, "location": {"city": "Ridgewood", "display_address": ["60-01 70th Ave", "Ridgewood, NY 11385"], "country": "US", "address2": "", "address3": "", "state": "NY", "address1": "60-01 70th Ave", "zip_code": "11385"}}, {"rating": 4.5, "review_count": 6, "name": "Rogner Cafe & Lounge", "transactions": [], "url": "https://www.yelp.com/biz/rogner-cafe-and-lounge-ridgewood-2?adjust_creative=yhLoLzsNXKw40xZ5RCWPpA&utm_campaign=yelp_api_v3&utm_medium=api_v3_business_search&utm_source=yhLoLzsNXKw40xZ5RCWPpA", "distance": 1254.4063267978274, "coordinates": {"latitude": 40.70931, "longitude": -73.90412}, "alias": "rogner-cafe-and-lounge-ridgewood-2", "image_url": "https://s3-media3.fl.yelpcdn.com/bphoto/kx0fccRMiVfSOlTfmfCPhA/o.jpg", "categories": [{"alias": "lounges", "title": "Lounges"}, {"alias": "hookah_bars", "title": "Hookah Bars"}, {"alias": "coffee", "title": "Coffee & Tea"}], "display_phone": "(516) 749-2724", "phone": "+15167492724", "id": "GaLnz9qhkiDHJjc-raC9_Q", "is_closed": false, "location": {"city": "Ridgewood", "display_address": ["63-59 Forest Ave", "Ridgewood, NY 11385"], "country": "US", "address2": "", "address3": "", "state": "NY", "address1": "63-59 Forest Ave", "zip_code": "11385"}}, {"rating": 4.0, "review_count": 27, "name": "The Live Oak", "transactions": ["pickup", "delivery"], "url": "https://www.yelp.com/biz/the-live-oak-maspeth-2?adjust_creative=yhLoLzsNXKw40xZ5RCWPpA&utm_campaign=yelp_api_v3&utm_medium=api_v3_business_search&utm_source=yhLoLzsNXKw40xZ5RCWPpA", "price": "$$", "distance": 1272.3930956677675, "coordinates": {"latitude": 40.717117, "longitude": -73.901594}, "alias": "the-live-oak-maspeth-2", "image_url": "https://s3-media1.fl.yelpcdn.com/bphoto/OgevvQE26rcfZU2uny-cuw/o.jpg", "categories": [{"alias": "sportsbars", "title": "Sports Bars"}, {"alias": "irish_pubs", "title": "Irish Pub"}], "display_phone": "(718) 326-4920", "phone": "+17183264920", "id": "5uAh2s_Iu_fPv9LgoNCgtg", "is_closed": false, "location": {"city": "Maspeth", "display_address": ["5993 Fresh Pond Rd", "Maspeth, NY 11378"], "country": "US", "address2": null, "address3": "", "state": "NY", "address1": "5993 Fresh Pond Rd", "zip_code": "11378"}}, {"rating": 4.0, "review_count": 71, "name": "The Avenue Restaurant", "transactions": ["pickup", "delivery"], "url": "https://www.yelp.com/biz/the-avenue-restaurant-glendale?adjust_creative=yhLoLzsNXKw40xZ5RCWPpA&utm_campaign=yelp_api_v3&utm_medium=api_v3_business_search&utm_source=yhLoLzsNXKw40xZ5RCWPpA", "price": "$$", "distance": 1286.161601763544, "coordinates": {"latitude": 40.701847, "longitude": -73.879193}, "alias": "the-avenue-restaurant-glendale", "image_url": "https://s3-media4.fl.yelpcdn.com/bphoto/Vkch6hfiEZwPuwdTvERTTA/o.jpg", "categories": [{"alias": "newamerican", "title": "American (New)"}, {"alias": "bars", "title": "Bars"}, {"alias": "sandwiches", "title": "Sandwiches"}], "display_phone": "(347) 725-3853", "phone": "+13477253853", "id": "wo2mD2d2ufdmM5FV0u139w", "is_closed": false, "location": {"city": "Glendale", "display_address": ["71-22 Myrtle Ave", "Glendale, NY 11385"], "country": "US", "address2": null, "address3": null, "state": "NY", "address1": "71-22 Myrtle Ave", "zip_code": "11385"}}, {"rating": 4.0, "review_count": 4, "name": "Sundown Bar", "transactions": [], "url": "https://www.yelp.com/biz/sundown-bar-queens?adjust_creative=yhLoLzsNXKw40xZ5RCWPpA&utm_campaign=yelp_api_v3&utm_medium=api_v3_business_search&utm_source=yhLoLzsNXKw40xZ5RCWPpA", "distance": 1318.3419946332072, "coordinates": {"latitude": 40.70259, "longitude": -73.90122}, "alias": "sundown-bar-queens", "image_url": "https://s3-media3.fl.yelpcdn.com/bphoto/LE3ADNI6ickJtxBRdo8aeg/o.jpg", "categories": [{"alias": "cocktailbars", "title": "Cocktail Bars"}], "display_phone": "", "phone": "", "id": "FIHKhTAcnY8_FE5NRSrYmA", "is_closed": false, "location": {"city": "Queens", "display_address": ["68-38 Forest Ave", "Queens, NY 11385"], "country": "US", "address2": "", "address3": null, "state": "NY", "address1": "68-38 Forest Ave", "zip_code": "11385"}}, {"rating": 4.0, "review_count": 192, "name": "Super  Pollo  Restaurant", "transactions": ["pickup", "delivery"], "url": "https://www.yelp.com/biz/super-pollo-restaurant-ridgewood?adjust_creative=yhLoLzsNXKw40xZ5RCWPpA&utm_campaign=yelp_api_v3&utm_medium=api_v3_business_search&utm_source=yhLoLzsNXKw40xZ5RCWPpA", "price": "$$", "distance": 1338.0223405623003, "coordinates": {"latitude": 40.702892, "longitude": -73.901858}, "alias": "super-pollo-restaurant-ridgewood", "image_url": "https://s3-media3.fl.yelpcdn.com/bphoto/fNpvu1oBtSIKaLyuLOKEtw/o.jpg", "categories": [{"alias": "spanish", "title": "Spanish"}, {"alias": "empanadas", "title": "Empanadas"}, {"alias": "cocktailbars", "title": "Cocktail Bars"}], "display_phone": "(718) 418-0808", "phone": "+17184180808", "id": "yjAhpQ8eNM9X8FdAPXTiTA", "is_closed": false, "location": {"city": "Ridgewood", "display_address": ["865 Woodward Ave", "Ridgewood, NY 11385"], "country": "US", "address2": "", "address3": "", "state": "NY", "address1": "865 Woodward Ave", "zip_code": "11385"}}, {"rating": 5.0, "review_count": 5, "name": "Tee Dee's Tavern", "transactions": [], "url": "https://www.yelp.com/biz/tee-dees-tavern-queens?adjust_creative=yhLoLzsNXKw40xZ5RCWPpA&utm_campaign=yelp_api_v3&utm_medium=api_v3_business_search&utm_source=yhLoLzsNXKw40xZ5RCWPpA", "price": "$", "distance": 1346.2486229557226, "coordinates": {"latitude": 40.6982827, "longitude": -73.8909624}, "alias": "tee-dees-tavern-queens", "image_url": "https://s3-media2.fl.yelpcdn.com/bphoto/SziPAnLcsQ5NwoGVMmr3Jg/o.jpg", "categories": [{"alias": "pubs", "title": "Pubs"}], "display_phone": "(718) 821-8229", "phone": "+17188218229", "id": "L_4WU4C-5fAHT7r5GbQbFQ", "is_closed": false, "location": {"city": "Queens", "display_address": ["6431 Cooper Ave", "Queens, NY 11385"], "country": "US", "address2": "", "address3": "", "state": "NY", "address1": "6431 Cooper Ave", "zip_code": "11385"}}, {"rating": 4.5, "review_count": 178, "name": "Julia's", "transactions": [], "url": "https://www.yelp.com/biz/julias-ridgewood?adjust_creative=yhLoLzsNXKw40xZ5RCWPpA&utm_campaign=yelp_api_v3&utm_medium=api_v3_business_search&utm_source=yhLoLzsNXKw40xZ5RCWPpA", "price": "$$", "distance": 1392.9976830477456, "coordinates": {"latitude": 40.703143, "longitude": -73.902956}, "alias": "julias-ridgewood", "image_url": "https://s3-media3.fl.yelpcdn.com/bphoto/qx50a0k6monlgrmsqOy1Gw/o.jpg", "categories": [{"alias": "wine_bars", "title": "Wine Bars"}, {"alias": "newamerican", "title": "American (New)"}], "display_phone": "(917) 909-1314", "phone": "+19179091314", "id": "9kCcNKe7z9GZFU3NhkoExA", "is_closed": false, "location": {"city": "Ridgewood", "display_address": ["818 Woodward Ave", "Ridgewood, NY 11385"], "country": "US", "address2": "", "address3": "", "state": "NY", "address1": "818 Woodward Ave", "zip_code": "11385"}}, {"rating": 4.5, "review_count": 42, "name": "Gottscheer Hall", "transactions": [], "url": "https://www.yelp.com/biz/gottscheer-hall-ridgewood?adjust_creative=yhLoLzsNXKw40xZ5RCWPpA&utm_campaign=yelp_api_v3&utm_medium=api_v3_business_search&utm_source=yhLoLzsNXKw40xZ5RCWPpA", "price": "$", "distance": 1404.1327295871413, "coordinates": {"latitude": 40.706891, "longitude": -73.905479}, "alias": "gottscheer-hall-ridgewood", "image_url": "https://s3-media1.fl.yelpcdn.com/bphoto/jZZhgRYFUXbt8BJsMCZTSQ/o.jpg", "categories": [{"alias": "german", "title": "German"}, {"alias": "bars", "title": "Bars"}], "display_phone": "(718) 366-3030", "phone": "+17183663030", "id": "XA7phnS0fBfLR8xdsngiUQ", "is_closed": false, "location": {"city": "Ridgewood", "display_address": ["657 Fairview Ave", "Ridgewood, NY 11385"], "country": "US", "address2": "", "address3": "", "state": "NY", "address1": "657 Fairview Ave", "zip_code": "11385"}}, {"rating": 5.0, "review_count": 35, "name": "Craft Culture", "transactions": [], "url": "https://www.yelp.com/biz/craft-culture-ridgewood-4?adjust_creative=yhLoLzsNXKw40xZ5RCWPpA&utm_campaign=yelp_api_v3&utm_medium=api_v3_business_search&utm_source=yhLoLzsNXKw40xZ5RCWPpA", "price": "$$", "distance": 1404.7706716046378, "coordinates": {"latitude": 40.7004551589489, "longitude": -73.8999652862549}, "alias": "craft-culture-ridgewood-4", "image_url": "https://s3-media3.fl.yelpcdn.com/bphoto/kz6cwGwsvLG00RppA4FRAg/o.jpg", "categories": [{"alias": "gastropubs", "title": "Gastropubs"}, {"alias": "beerbar", "title": "Beer Bar"}, {"alias": "newamerican", "title": "American (New)"}], "display_phone": "(718) 628-3931", "phone": "+17186283931", "id": "oW25x1w-Zv6CmprrT_R4Hw", "is_closed": false, "location": {"city": "Ridgewood", "display_address": ["59-04 Myrtle Ave", "Ridgewood, NY 11385"], "country": "US", "address2": null, "address3": "", "state": "NY", "address1": "59-04 Myrtle Ave", "zip_code": "11385"}}, {"rating": 2.5, "review_count": 6, "name": "Piekielko", "transactions": [], "url": "https://www.yelp.com/biz/piekielko-new-york?adjust_creative=yhLoLzsNXKw40xZ5RCWPpA&utm_campaign=yelp_api_v3&utm_medium=api_v3_business_search&utm_source=yhLoLzsNXKw40xZ5RCWPpA", "distance": 1404.8051671383716, "coordinates": {"latitude": 40.7124719, "longitude": -73.9059007}, "alias": "piekielko-new-york", "image_url": "", "categories": [{"alias": "sportsbars", "title": "Sports Bars"}, {"alias": "polish", "title": "Polish"}], "display_phone": "(718) 366-6656", "phone": "+17183666656", "id": "Z0AdSHSPzhLiX3kM7hB9qQ", "is_closed": false, "location": {"city": "New York", "display_address": ["6236 Forest Ave", "New York, NY 11385"], "country": "US", "address2": "", "address3": "", "state": "NY", "address1": "6236 Forest Ave", "zip_code": "11385"}}, {"rating": 2.0, "review_count": 18, "name": "Chili's", "transactions": [], "url": "https://www.yelp.com/biz/chilis-queens?adjust_creative=yhLoLzsNXKw40xZ5RCWPpA&utm_campaign=yelp_api_v3&utm_medium=api_v3_business_search&utm_source=yhLoLzsNXKw40xZ5RCWPpA", "price": "$$", "distance": 1434.379775709406, "coordinates": {"latitude": 40.7140007, "longitude": -73.8299866}, "alias": "chilis-queens", "image_url": "https://s3-media3.fl.yelpcdn.com/bphoto/HV9cdUXoz7PPH8f68633_A/o.jpg", "categories": [{"alias": "bars", "title": "Bars"}, {"alias": "tex-mex", "title": "Tex-Mex"}], "display_phone": "", "phone": "", "id": "sdJR2FH3Yj3yE-X-ShEnlQ", "is_closed": false, "location": {"city": "Queens", "display_address": ["Atlas Park", "Queens, NY"], "country": "US", "address2": "", "address3": "", "state": "NY", "address1": "Atlas Park", "zip_code": ""}}, {"rating": 4.5, "review_count": 41, "name": "Taj Village", "transactions": ["pickup"], "url": "https://www.yelp.com/biz/taj-village-middle-village?adjust_creative=yhLoLzsNXKw40xZ5RCWPpA&utm_campaign=yelp_api_v3&utm_medium=api_v3_business_search&utm_source=yhLoLzsNXKw40xZ5RCWPpA", "price": "$", "distance": 1461.9461325393233, "coordinates": {"latitude": 40.713021, "longitude": -73.87246}, "alias": "taj-village-middle-village", "image_url": "https://s3-media2.fl.yelpcdn.com/bphoto/qNN33FR8FHAdFNZIfTYuZQ/o.jpg", "categories": [{"alias": "hookah_bars", "title": "Hookah Bars"}, {"alias": "lounges", "title": "Lounges"}, {"alias": "indpak", "title": "Indian"}], "display_phone": "(718) 326-0099", "phone": "+17183260099", "id": "YRXXIqqaLcWJaL22lnj7mQ", "is_closed": false, "location": {"city": "Middle Village", "display_address": ["79-28 Metropolitan Ave", "Middle Village, NY 11379"], "country": "US", "address2": "", "address3": null, "state": "NY", "address1": "79-28 Metropolitan Ave", "zip_code": "11379"}}, {"rating": 4.0, "review_count": 5, "name": "The Windjammer", "transactions": [], "url": "https://www.yelp.com/biz/the-windjammer-ridgewood?adjust_creative=yhLoLzsNXKw40xZ5RCWPpA&utm_campaign=yelp_api_v3&utm_medium=api_v3_business_search&utm_source=yhLoLzsNXKw40xZ5RCWPpA", "price": "$", "distance": 1483.836899954829, "coordinates": {"latitude": 40.709074, "longitude": -73.90705}, "alias": "the-windjammer-ridgewood", "image_url": "https://s3-media4.fl.yelpcdn.com/bphoto/s4WG7v5t3w8IhZ5LX9WwPQ/o.jpg", "categories": [{"alias": "bars", "title": "Bars"}], "display_phone": "(718) 821-9779", "phone": "+17188219779", "id": "WaNdisNSGLNzn_epZAtHPA", "is_closed": false, "location": {"city": "Ridgewood", "display_address": ["552 Grandview Ave", "Ridgewood, NY 11385"], "country": "US", "address2": "", "address3": "", "state": "NY", "address1": "552 Grandview Ave", "zip_code": "11385"}}, {"rating": 3.0, "review_count": 156, "name": "The Ridgewood Ale House", "transactions": ["pickup", "delivery"], "url": "https://www.yelp.com/biz/the-ridgewood-ale-house-ridgewood?adjust_creative=yhLoLzsNXKw40xZ5RCWPpA&utm_campaign=yelp_api_v3&utm_medium=api_v3_business_search&utm_source=yhLoLzsNXKw40xZ5RCWPpA", "price": "$$", "distance": 1553.0457325262314, "coordinates": {"latitude": 40.700279, "longitude": -73.902197}, "alias": "the-ridgewood-ale-house-ridgewood", "image_url": "https://s3-media2.fl.yelpcdn.com/bphoto/doIpRPpsG5TshywSS4-LIg/o.jpg", "categories": [{"alias": "sportsbars", "title": "Sports Bars"}, {"alias": "pizza", "title": "Pizza"}, {"alias": "tradamerican", "title": "American (Traditional)"}], "display_phone": "(718) 456-4495", "phone": "+17184564495", "id": "LuwgaxEM5ObSWMAsEVzPlg", "is_closed": false, "location": {"city": "Ridgewood", "display_address": ["5738 Myrtle Ave", "Ridgewood, NY 11385"], "country": "US", "address2": "", "address3": "", "state": "NY", "address1": "5738 Myrtle Ave", "zip_code": "11385"}}, {"rating": 4.0, "review_count": 24, "name": "Aunt Ginny's", "transactions": [], "url": "https://www.yelp.com/biz/aunt-ginnys-ridgewood?adjust_creative=yhLoLzsNXKw40xZ5RCWPpA&utm_campaign=yelp_api_v3&utm_medium=api_v3_business_search&utm_source=yhLoLzsNXKw40xZ5RCWPpA", "price": "$", "distance": 1574.6500928293522, "coordinates": {"latitude": 40.7054850985214, "longitude": -73.9069759100676}, "alias": "aunt-ginnys-ridgewood", "image_url": "https://s3-media1.fl.yelpcdn.com/bphoto/5-Ohs4oCBpBOaFH4YWdzqg/o.jpg", "categories": [{"alias": "divebars", "title": "Dive Bars"}], "display_phone": "", "phone": "", "id": "SnyhBH8vJekYogXjoXAZBw", "is_closed": false, "location": {"city": "Ridgewood", "display_address": ["652 Woodward Ave", "Ridgewood, NY 11385"], "country": "US", "address2": "", "address3": null, "state": "NY", "address1": "652 Woodward Ave", "zip_code": "11385"}}, {"rating": 4.0, "review_count": 187, "name": "Nepalese Indian Restaurant", "transactions": ["pickup", "delivery"], "url": "https://www.yelp.com/biz/nepalese-indian-restaurant-ridgewood?adjust_creative=yhLoLzsNXKw40xZ5RCWPpA&utm_campaign=yelp_api_v3&utm_medium=api_v3_business_search&utm_source=yhLoLzsNXKw40xZ5RCWPpA", "price": "$$", "distance": 1625.2064634652347, "coordinates": {"latitude": 40.700617, "longitude": -73.903777}, "alias": "nepalese-indian-restaurant-ridgewood", "image_url": "https://s3-media4.fl.yelpcdn.com/bphoto/G_6hTN7xTyB9wJAKKzH90Q/o.jpg", "categories": [{"alias": "indpak", "title": "Indian"}, {"alias": "himalayan", "title": "Himalayan/Nepalese"}, {"alias": "beerbar", "title": "Beer Bar"}], "display_phone": "(718) 417-1873", "phone": "+17184171873", "id": "7eUoHxFCZKdYkl7ONixCKA", "is_closed": false, "location": {"city": "Ridgewood", "display_address": ["907 Seneca Ave", "Ridgewood, NY 11385"], "country": "US", "address2": "", "address3": "", "state": "NY", "address1": "907 Seneca Ave", "zip_code": "11385"}}, {"rating": 4.0, "review_count": 15, "name": "Hungry Burrito", "transactions": ["pickup", "delivery"], "url": "https://www.yelp.com/biz/hungry-burrito-ridgewood?adjust_creative=yhLoLzsNXKw40xZ5RCWPpA&utm_campaign=yelp_api_v3&utm_medium=api_v3_business_search&utm_source=yhLoLzsNXKw40xZ5RCWPpA", "price": "$$", "distance": 1648.1268693617928, "coordinates": {"latitude": 40.7014612, "longitude": -73.9051407}, "alias": "hungry-burrito-ridgewood", "image_url": "https://s3-media2.fl.yelpcdn.com/bphoto/m05n4f6GGRs-REmYPk0jLw/o.jpg", "categories": [{"alias": "mexican", "title": "Mexican"}, {"alias": "tex-mex", "title": "Tex-Mex"}, {"alias": "bars", "title": "Bars"}], "display_phone": "(718) 885-8080", "phone": "+17188858080", "id": "nV-LbnEV_2OwXvXRany1sg", "is_closed": false, "location": {"city": "Ridgewood", "display_address": ["811 Seneca Ave", "Ridgewood, NY 11385"], "country": "US", "address2": "", "address3": null, "state": "NY", "address1": "811 Seneca Ave", "zip_code": "11385"}}, {"rating": 4.0, "review_count": 16, "name": "Peggy Dempseys", "transactions": ["pickup", "delivery"], "url": "https://www.yelp.com/biz/peggy-dempseys-maspeth?adjust_creative=yhLoLzsNXKw40xZ5RCWPpA&utm_campaign=yelp_api_v3&utm_medium=api_v3_business_search&utm_source=yhLoLzsNXKw40xZ5RCWPpA", "price": "$$", "distance": 1680.1817466504094, "coordinates": {"latitude": 40.7227683, "longitude": -73.9009193}, "alias": "peggy-dempseys-maspeth", "image_url": "https://s3-media2.fl.yelpcdn.com/bphoto/4oy5pamF7f3O51Tj9Ef4eg/o.jpg", "categories": [{"alias": "tradamerican", "title": "American (Traditional)"}, {"alias": "breakfast_brunch", "title": "Breakfast & Brunch"}, {"alias": "sportsbars", "title": "Sports Bars"}], "display_phone": "(718) 326-3707", "phone": "+17183263707", "id": "eyPLPYE1gttc34MLKSmvPw", "is_closed": false, "location": {"city": "Maspeth", "display_address": ["6414 Flushing Ave", "Maspeth, NY 11378"], "country": "US", "address2": null, "address3": "", "state": "NY", "address1": "6414 Flushing Ave", "zip_code": "11378"}}, {"rating": 2.5, "review_count": 286, "name": "Chili's", "transactions": [], "url": "https://www.yelp.com/biz/chilis-glendale-5?adjust_creative=yhLoLzsNXKw40xZ5RCWPpA&utm_campaign=yelp_api_v3&utm_medium=api_v3_business_search&utm_source=yhLoLzsNXKw40xZ5RCWPpA", "price": "$$", "distance": 1691.4602129372606, "coordinates": {"latitude": 40.7094545, "longitude": -73.8691764}, "alias": "chilis-glendale-5", "image_url": "https://s3-media2.fl.yelpcdn.com/bphoto/55cqdLRSWtOtmcXD6DlC6g/o.jpg", "categories": [{"alias": "tradamerican", "title": "American (Traditional)"}, {"alias": "tex-mex", "title": "Tex-Mex"}, {"alias": "bars", "title": "Bars"}], "display_phone": "(718) 366-4272", "phone": "+17183664272", "id": "zy4c9c58POWmm7UBc-49nA", "is_closed": false, "location": {"city": "Glendale", "display_address": ["80-16 Cooper Ave", "Glendale, NY 11385"], "country": "US", "address2": "", "address3": "", "state": "NY", "address1": "80-16 Cooper Ave", "zip_code": "11385"}}, {"rating": 5.0, "review_count": 1, "name": "Hickey's Pub", "transactions": [], "url": "https://www.yelp.com/biz/hickeys-pub-maspeth?adjust_creative=yhLoLzsNXKw40xZ5RCWPpA&utm_campaign=yelp_api_v3&utm_medium=api_v3_business_search&utm_source=yhLoLzsNXKw40xZ5RCWPpA", "distance": 1693.0554891518022, "coordinates": {"latitude": 40.720995, "longitude": -73.903643}, "alias": "hickeys-pub-maspeth", "image_url": "", "categories": [{"alias": "pubs", "title": "Pubs"}], "display_phone": "(718) 326-7297", "phone": "+17183267297", "id": "Q0lKLncBCIBY878FVhq0Yw", "is_closed": false, "location": {"city": "Maspeth", "display_address": ["6108 Flushing Ave", "Maspeth, NY 11378"], "country": "US", "address2": "", "address3": "", "state": "NY", "address1": "6108 Flushing Ave", "zip_code": "11378"}}, {"rating": 4.5, "review_count": 85, "name": "While In Kathmandu", "transactions": ["pickup", "delivery"], "url": "https://www.yelp.com/biz/while-in-kathmandu-ridgewood?adjust_creative=yhLoLzsNXKw40xZ5RCWPpA&utm_campaign=yelp_api_v3&utm_medium=api_v3_business_search&utm_source=yhLoLzsNXKw40xZ5RCWPpA", "price": "$", "distance": 1724.16316467483, "coordinates": {"latitude": 40.7020642, "longitude": -73.9067213}, "alias": "while-in-kathmandu-ridgewood", "image_url": "https://s3-media2.fl.yelpcdn.com/bphoto/gPk2Sn6MtCpY3Z4UIhr47A/o.jpg", "categories": [{"alias": "cafes", "title": "Cafes"}, {"alias": "bars", "title": "Bars"}, {"alias": "himalayan", "title": "Himalayan/Nepalese"}], "display_phone": "(718) 386-3416", "phone": "+17183863416", "id": "Scs2L-4imyt_lorJ6biFKA", "is_closed": false, "location": {"city": "Ridgewood", "display_address": ["758 Seneca Ave", "Ridgewood, NY 11385"], "country": "US", "address2": null, "address3": "", "state": "NY", "address1": "758 Seneca Ave", "zip_code": "11385"}}, {"rating": 5.0, "review_count": 2, "name": "Chasers", "transactions": [], "url": "https://www.yelp.com/biz/chasers-new-york-2?adjust_creative=yhLoLzsNXKw40xZ5RCWPpA&utm_campaign=yelp_api_v3&utm_medium=api_v3_business_search&utm_source=yhLoLzsNXKw40xZ5RCWPpA", "price": "$$", "distance": 1747.964482697778, "coordinates": {"latitude": 40.720382, "longitude": -73.905494}, "alias": "chasers-new-york-2", "image_url": "https://s3-media1.fl.yelpcdn.com/bphoto/NZGv_vdbBCtEJSo0jgAJSw/o.jpg", "categories": [{"alias": "pubs", "title": "Pubs"}], "display_phone": "(718) 326-2973", "phone": "+17183262973", "id": "NWrMq1iqMDlvy8-8XuLIog", "is_closed": false, "location": {"city": "New York", "display_address": ["6065 Flushing Ave", "New York, NY 11378"], "country": "US", "address2": "", "address3": "", "state": "NY", "address1": "6065 Flushing Ave", "zip_code": "11378"}}, {"rating": 2.5, "review_count": 21, "name": "Lugo Lounge & Restaurant", "transactions": ["pickup", "delivery"], "url": "https://www.yelp.com/biz/lugo-lounge-and-restaurant-new-york?adjust_creative=yhLoLzsNXKw40xZ5RCWPpA&utm_campaign=yelp_api_v3&utm_medium=api_v3_business_search&utm_source=yhLoLzsNXKw40xZ5RCWPpA", "price": "$$", "distance": 1774.9265127673316, "coordinates": {"latitude": 40.696515, "longitude": -73.899834}, "alias": "lugo-lounge-and-restaurant-new-york", "image_url": "https://s3-media2.fl.yelpcdn.com/bphoto/d11SVxIG_vced3f3OWDClQ/o.jpg", "categories": [{"alias": "spanish", "title": "Spanish"}, {"alias": "lounges", "title": "Lounges"}, {"alias": "sandwiches", "title": "Sandwiches"}], "display_phone": "(718) 366-5366", "phone": "+17183665366", "id": "2cqg0qGfC6bEC1AKGazSXg", "is_closed": false, "location": {"city": "New York", "display_address": ["1089 Cypress Ave", "New York, NY 11385"], "country": "US", "address2": "", "address3": "", "state": "NY", "address1": "1089 Cypress Ave", "zip_code": "11385"}}, {"rating": 4.0, "review_count": 16, "name": "Cooper Beer Garden", "transactions": [], "url": "https://www.yelp.com/biz/cooper-beer-garden-glendale?adjust_creative=yhLoLzsNXKw40xZ5RCWPpA&utm_campaign=yelp_api_v3&utm_medium=api_v3_business_search&utm_source=yhLoLzsNXKw40xZ5RCWPpA", "price": "$$", "distance": 1779.6836649769539, "coordinates": {"latitude": 40.7090866, "longitude": -73.8684157}, "alias": "cooper-beer-garden-glendale", "image_url": "https://s3-media2.fl.yelpcdn.com/bphoto/Bm4_9ed4nSq9MUHWt5i7XQ/o.jpg", "categories": [{"alias": "beergardens", "title": "Beer Gardens"}], "display_phone": "(718) 326-2199", "phone": "+17183262199", "id": "ydoGxUTN9adaJ90lviuE3A", "is_closed": false, "location": {"city": "Glendale", "display_address": ["8000 Cooper Ave", "Glendale, NY 11385"], "country": "US", "address2": "", "address3": null, "state": "NY", "address1": "8000 Cooper Ave", "zip_code": "11385"}}, {"rating": 5.0, "review_count": 1, "name": "QuarcNYC", "transactions": [], "url": "https://www.yelp.com/biz/quarcnyc-ridgewood?adjust_creative=yhLoLzsNXKw40xZ5RCWPpA&utm_campaign=yelp_api_v3&utm_medium=api_v3_business_search&utm_source=yhLoLzsNXKw40xZ5RCWPpA", "price": "$", "distance": 1793.521111968482, "coordinates": {"latitude": 40.706051, "longitude": -73.90995}, "alias": "quarcnyc-ridgewood", "image_url": "https://s3-media2.fl.yelpcdn.com/bphoto/0h6qmS2fCuWTubdrqBkhUQ/o.jpg", "categories": [{"alias": "musicvenues", "title": "Music Venues"}], "display_phone": "", "phone": "", "id": "EIWsm5f5WmRQdNts01kAYA", "is_closed": false, "location": {"city": "Ridgewood", "display_address": ["1862 Bleecker St", "Ridgewood, NY 11385"], "country": "US", "address2": "", "address3": "", "state": "NY", "address1": "1862 Bleecker St", "zip_code": "11385"}}, {"rating": 4.5, "review_count": 11, "name": "Billy's Marketplace", "transactions": [], "url": "https://www.yelp.com/biz/billys-marketplace-ridgewood?adjust_creative=yhLoLzsNXKw40xZ5RCWPpA&utm_campaign=yelp_api_v3&utm_medium=api_v3_business_search&utm_source=yhLoLzsNXKw40xZ5RCWPpA", "price": "$$$", "distance": 1804.3880225525365, "coordinates": {"latitude": 40.699317, "longitude": -73.905308}, "alias": "billys-marketplace-ridgewood", "image_url": "https://s3-media1.fl.yelpcdn.com/bphoto/fnew2QyN2T6NQrgIaqrm9w/o.jpg", "categories": [{"alias": "grocery", "title": "Grocery"}, {"alias": "coffee", "title": "Coffee & Tea"}, {"alias": "beerbar", "title": "Beer Bar"}], "display_phone": "(718) 456-1007", "phone": "+17184561007", "id": "MqmM078K6dmsDEtgaC-0VQ", "is_closed": false, "location": {"city": "Ridgewood", "display_address": ["870 Cypress Ave", "Ridgewood, NY 11385"], "country": "US", "address2": null, "address3": null, "state": "NY", "address1": "870 Cypress Ave", "zip_code": "11385"}}, {"rating": 4.0, "review_count": 89, "name": "Manor Oktoberfest", "transactions": [], "url": "https://www.yelp.com/biz/manor-oktoberfest-glendale?adjust_creative=yhLoLzsNXKw40xZ5RCWPpA&utm_campaign=yelp_api_v3&utm_medium=api_v3_business_search&utm_source=yhLoLzsNXKw40xZ5RCWPpA", "price": "$$", "distance": 1807.7289736861278, "coordinates": {"latitude": 40.708132, "longitude": -73.868222}, "alias": "manor-oktoberfest-glendale", "image_url": "https://s3-media3.fl.yelpcdn.com/bphoto/UuWYAaNNiSP5t1rhIGIhvg/o.jpg", "categories": [{"alias": "german", "title": "German"}, {"alias": "beerbar", "title": "Beer Bar"}, {"alias": "burgers", "title": "Burgers"}], "display_phone": "(718) 326-2201", "phone": "+17183262201", "id": "VFaHfWhyNb66yQAuiB1S-A", "is_closed": false, "location": {"city": "Glendale", "display_address": ["80-28 Cooper Ave", "Glendale, NY 11385"], "country": "US", "address2": "", "address3": "", "state": "NY", "address1": "80-28 Cooper Ave", "zip_code": "11385"}}, {"rating": 4.5, "review_count": 62, "name": "Onderdonk & Sons", "transactions": [], "url": "https://www.yelp.com/biz/onderdonk-and-sons-ridgewood?adjust_creative=yhLoLzsNXKw40xZ5RCWPpA&utm_campaign=yelp_api_v3&utm_medium=api_v3_business_search&utm_source=yhLoLzsNXKw40xZ5RCWPpA", "price": "$", "distance": 1810.7762208364334, "coordinates": {"latitude": 40.70546, "longitude": -73.90993}, "alias": "onderdonk-and-sons-ridgewood", "image_url": "https://s3-media4.fl.yelpcdn.com/bphoto/HMJnjYwsw0ermIoJs0Yptw/o.jpg", "categories": [{"alias": "cocktailbars", "title": "Cocktail Bars"}, {"alias": "wine_bars", "title": "Wine Bars"}, {"alias": "burgers", "title": "Burgers"}], "display_phone": "(718) 366-5981", "phone": "+17183665981", "id": "1gk8TCOubwKmGJZWxVRmQQ", "is_closed": false, "location": {"city": "Ridgewood", "display_address": ["566 Onderdonk Ave", "Ridgewood, NY 11385"], "country": "US", "address2": "", "address3": "", "state": "NY", "address1": "566 Onderdonk Ave", "zip_code": "11385"}}, {"rating": 4.0, "review_count": 50, "name": "The Bad Old Days", "transactions": [], "url": "https://www.yelp.com/biz/the-bad-old-days-ridgewood?adjust_creative=yhLoLzsNXKw40xZ5RCWPpA&utm_campaign=yelp_api_v3&utm_medium=api_v3_business_search&utm_source=yhLoLzsNXKw40xZ5RCWPpA", "price": "$", "distance": 1880.7603310312597, "coordinates": {"latitude": 40.7010154724121, "longitude": -73.9079742431641}, "alias": "the-bad-old-days-ridgewood", "image_url": "https://s3-media1.fl.yelpcdn.com/bphoto/RlAt865ZhiSbUPZmEtJ_3g/o.jpg", "categories": [{"alias": "beerbar", "title": "Beer Bar"}, {"alias": "cocktailbars", "title": "Cocktail Bars"}, {"alias": "wine_bars", "title": "Wine Bars"}], "display_phone": "(347) 696-0612", "phone": "+13476960612", "id": "nR-p3akW9XqlgpW7zdNUCw", "is_closed": false, "location": {"city": "Ridgewood", "display_address": ["1684 Woodbine St", "Ridgewood, NY 11385"], "country": "US", "address2": "", "address3": "", "state": "NY", "address1": "1684 Woodbine St", "zip_code": "11385"}}, {"rating": 3.0, "review_count": 5, "name": "Burke's Pub", "transactions": [], "url": "https://www.yelp.com/biz/burkes-pub-queens?adjust_creative=yhLoLzsNXKw40xZ5RCWPpA&utm_campaign=yelp_api_v3&utm_medium=api_v3_business_search&utm_source=yhLoLzsNXKw40xZ5RCWPpA", "price": "$", "distance": 1884.072296895714, "coordinates": {"latitude": 40.72698, "longitude": -73.89407}, "alias": "burkes-pub-queens", "image_url": "https://s3-media3.fl.yelpcdn.com/bphoto/sPuwb2wYrGDaMGUhTl3Lpg/o.jpg", "categories": [{"alias": "pubs", "title": "Pubs"}], "display_phone": "", "phone": "", "id": "p8MfQGKTXOwN26rx1YEueQ", "is_closed": false, "location": {"city": "Queens", "display_address": ["69-47 Grand Ave", "Queens, NY 11378"], "country": "US", "address2": "", "address3": "", "state": "NY", "address1": "69-47 Grand Ave", "zip_code": "11378"}}, {"rating": 5.0, "review_count": 8, "name": "The Seneca", "transactions": [], "url": "https://www.yelp.com/biz/the-seneca-queens-3?adjust_creative=yhLoLzsNXKw40xZ5RCWPpA&utm_campaign=yelp_api_v3&utm_medium=api_v3_business_search&utm_source=yhLoLzsNXKw40xZ5RCWPpA", "distance": 1890.939425972294, "coordinates": {"latitude": 40.7042272, "longitude": -73.9103837}, "alias": "the-seneca-queens-3", "image_url": "https://s3-media3.fl.yelpcdn.com/bphoto/8Sa5Jqr9RB7tCLggyVkauQ/o.jpg", "categories": [{"alias": "bars", "title": "Bars"}, {"alias": "burgers", "title": "Burgers"}, {"alias": "chicken_wings", "title": "Chicken Wings"}], "display_phone": "", "phone": "", "id": "Xc-FSZDqhMEI5-dc7eiu8Q", "is_closed": false, "location": {"city": "Queens", "display_address": ["582 Seneca Ave", "Queens, NY 11385"], "country": "US", "address2": "", "address3": null, "state": "NY", "address1": "582 Seneca Ave", "zip_code": "11385"}}, {"rating": 3.5, "review_count": 60, "name": "Hush Cafe Lounge & Garden", "transactions": ["pickup", "delivery"], "url": "https://www.yelp.com/biz/hush-cafe-lounge-and-garden-maspeth?adjust_creative=yhLoLzsNXKw40xZ5RCWPpA&utm_campaign=yelp_api_v3&utm_medium=api_v3_business_search&utm_source=yhLoLzsNXKw40xZ5RCWPpA", "price": "$$", "distance": 1905.963373307051, "coordinates": {"latitude": 40.727355, "longitude": -73.892555}, "alias": "hush-cafe-lounge-and-garden-maspeth", "image_url": "https://s3-media1.fl.yelpcdn.com/bphoto/IkHj8vOjjQ43WomeJQ7TnA/o.jpg", "categories": [{"alias": "danceclubs", "title": "Dance Clubs"}, {"alias": "mediterranean", "title": "Mediterranean"}], "display_phone": "(718) 779-6061", "phone": "+17187796061", "id": "vDJLLv3K5OtXdVq83Bw95g", "is_closed": false, "location": {"city": "Maspeth", "display_address": ["70-10 Grand Ave", "Maspeth, NY 11378"], "country": "US", "address2": "", "address3": "", "state": "NY", "address1": "70-10 Grand Ave", "zip_code": "11378"}}, {"rating": 5.0, "review_count": 24, "name": "Milo's Yard", "transactions": [], "url": "https://www.yelp.com/biz/milos-yard-ridgewood?adjust_creative=yhLoLzsNXKw40xZ5RCWPpA&utm_campaign=yelp_api_v3&utm_medium=api_v3_business_search&utm_source=yhLoLzsNXKw40xZ5RCWPpA", "price": "$$", "distance": 1921.2245968871248, "coordinates": {"latitude": 40.7046293, "longitude": -73.9110541}, "alias": "milos-yard-ridgewood", "image_url": "https://s3-media1.fl.yelpcdn.com/bphoto/PT2DQIb5NN1ZVKPOpl6tdQ/o.jpg", "categories": [{"alias": "bars", "title": "Bars"}], "display_phone": "(347) 987-4535", "phone": "+13479874535", "id": "dfSlRuVfifkYExogBtkFyw", "is_closed": false, "location": {"city": "Ridgewood", "display_address": ["564 Seneca Ave", "Ridgewood, NY 11385"], "country": "US", "address2": "", "address3": "", "state": "NY", "address1": "564 Seneca Ave", "zip_code": "11385"}}, {"rating": 4.0, "review_count": 101, "name": "Connolly's Corner", "transactions": [], "url": "https://www.yelp.com/biz/connollys-corner-maspeth?adjust_creative=yhLoLzsNXKw40xZ5RCWPpA&utm_campaign=yelp_api_v3&utm_medium=api_v3_business_search&utm_source=yhLoLzsNXKw40xZ5RCWPpA", "price": "$$", "distance": 1997.5597042051522, "coordinates": {"latitude": 40.72827, "longitude": -73.89188}, "alias": "connollys-corner-maspeth", "image_url": "https://s3-media2.fl.yelpcdn.com/bphoto/6a820Fmgg58kdg89zV4RDA/o.jpg", "categories": [{"alias": "sportsbars", "title": "Sports Bars"}, {"alias": "irish", "title": "Irish"}], "display_phone": "(718) 565-7383", "phone": "+17185657383", "id": "9mX6M3VO1MpZcNH6BxcHtw", "is_closed": false, "location": {"city": "Maspeth", "display_address": ["71-15 Grand Ave", "Maspeth, NY 11378"], "country": "US", "address2": null, "address3": "", "state": "NY", "address1": "71-15 Grand Ave", "zip_code": "11378"}}, {"rating": 2.5, "review_count": 12, "name": "El Manaba", "transactions": ["pickup", "delivery"], "url": "https://www.yelp.com/biz/el-manaba-ridgewood?adjust_creative=yhLoLzsNXKw40xZ5RCWPpA&utm_campaign=yelp_api_v3&utm_medium=api_v3_business_search&utm_source=yhLoLzsNXKw40xZ5RCWPpA", "price": "$$", "distance": 2019.0449404750766, "coordinates": {"latitude": 40.7009201, "longitude": -73.9091415}, "alias": "el-manaba-ridgewood", "image_url": "https://s3-media2.fl.yelpcdn.com/bphoto/ZhSi_D-iWMZ9zxUhYItEFA/o.jpg", "categories": [{"alias": "bars", "title": "Bars"}, {"alias": "spanish", "title": "Spanish"}], "display_phone": "(347) 227-7506", "phone": "+13472277506", "id": "fX15Hx2YjiZx0Ut4eBHPKQ", "is_closed": false, "location": {"city": "Ridgewood", "display_address": ["341 Saint Nicholas", "Ridgewood, NY 11385"], "country": "US", "address2": "", "address3": "", "state": "NY", "address1": "341 Saint Nicholas", "zip_code": "11385"}}, {"rating": 3.0, "review_count": 59, "name": "Drunken Fish Sushi & Lounge", "transactions": ["pickup", "delivery"], "url": "https://www.yelp.com/biz/drunken-fish-sushi-and-lounge-ridgewood?adjust_creative=yhLoLzsNXKw40xZ5RCWPpA&utm_campaign=yelp_api_v3&utm_medium=api_v3_business_search&utm_source=yhLoLzsNXKw40xZ5RCWPpA", "price": "$$", "distance": 2020.6597910004757, "coordinates": {"latitude": 40.713527, "longitude": -73.913078}, "alias": "drunken-fish-sushi-and-lounge-ridgewood", "image_url": "https://s3-media2.fl.yelpcdn.com/bphoto/sU512n8dagSArgWJcrSiQw/o.jpg", "categories": [{"alias": "sushi", "title": "Sushi Bars"}, {"alias": "lounges", "title": "Lounges"}], "display_phone": "(718) 821-1283", "phone": "+17188211283", "id": "3FK3d4A_w0k-KRBPzxPXZA", "is_closed": false, "location": {"city": "Ridgewood", "display_address": ["5235 Metropolitan Ave", "Ridgewood, NY 11385"], "country": "US", "address2": "", "address3": "", "state": "NY", "address1": "5235 Metropolitan Ave", "zip_code": "11385"}}]}