{"region": {"center": {"latitude": 40.6916419042, "longitude": -73.7786503373}}, "total": 462, "businesses": [{"rating": 3.5, "review_count": 47, "name": "Latens Place", "transactions": [], "url": "https://www.yelp.com/biz/latens-place-jamaica?adjust_creative=yhLoLzsNXKw40xZ5RCWPpA&utm_campaign=yelp_api_v3&utm_medium=api_v3_business_search&utm_source=yhLoLzsNXKw40xZ5RCWPpA", "price": "$$", "distance": 818.7496938409886, "coordinates": {"latitude": 40.6854035, "longitude": -73.7729278}, "alias": "latens-place-jamaica", "image_url": "https://s3-media2.fl.yelpcdn.com/bphoto/XrMxPdHLNM_zt3Mg3kjzpQ/o.jpg", "categories": [{"alias": "caribbean", "title": "Caribbean"}, {"alias": "lounges", "title": "Lounges"}, {"alias": "seafood", "title": "Seafood"}], "display_phone": "(718) 527-0339", "phone": "+17185270339", "id": "yLrcXiXgRdtWXLjt1n-U_A", "is_closed": false, "location": {"city": "Jamaica", "display_address": ["11908 Merrick Blvd", "Jamaica, NY 11434"], "country": "US", "address2": null, "address3": null, "state": "NY", "address1": "11908 Merrick Blvd", "zip_code": "11434"}}, {"rating": 3.5, "review_count": 5, "name": "Berbice Bar and Restaurant", "transactions": [], "url": "https://www.yelp.com/biz/berbice-bar-and-restaurant-jamaica?adjust_creative=yhLoLzsNXKw40xZ5RCWPpA&utm_campaign=yelp_api_v3&utm_medium=api_v3_business_search&utm_source=yhLoLzsNXKw40xZ5RCWPpA", "distance": 1900.5855235627578, "coordinates": {"latitude": 40.7076988220215, "longitude": -73.7863845825195}, "alias": "berbice-bar-and-restaurant-jamaica", "image_url": "https://s3-media2.fl.yelpcdn.com/bphoto/J3CZloP96gLu8xEeDmojRQ/o.jpg", "categories": [{"alias": "bars", "title": "Bars"}, {"alias": "chinese", "title": "Chinese"}, {"alias": "seafood", "title": "Seafood"}], "display_phone": "(718) 297-6100", "phone": "+17182976100", "id": "CCaCeres8c7Wg2TLdwdP7A", "is_closed": false, "location": {"city": "Jamaica", "display_address": ["17306 Jamaica Ave", "Jamaica, NY 11432"], "country": "US", "address2": null, "address3": "", "state": "NY", "address1": "17306 Jamaica Ave", "zip_code": "11432"}}, {"rating": 3.5, "review_count": 13, "name": "Tropical Fantasy Bar & Lounge", "transactions": [], "url": "https://www.yelp.com/biz/tropical-fantasy-bar-and-lounge-jamaica?adjust_creative=yhLoLzsNXKw40xZ5RCWPpA&utm_campaign=yelp_api_v3&utm_medium=api_v3_business_search&utm_source=yhLoLzsNXKw40xZ5RCWPpA", "price": "$$", "distance": 1914.8586131717798, "coordinates": {"latitude": 40.70761, "longitude": -73.786838}, "alias": "tropical-fantasy-bar-and-lounge-jamaica", "image_url": "https://s3-media2.fl.yelpcdn.com/bphoto/t8UajWVf4A2B-OMVgtU-lQ/o.jpg", "categories": [{"alias": "lounges", "title": "Lounges"}], "display_phone": "(718) 658-8200", "phone": "+17186588200", "id": "O2dZuxkdsRH1NBZ2c1pwpQ", "is_closed": false, "location": {"city": "Jamaica", "display_address": ["17232 Jamaica Ave", "Jamaica, NY 11432"], "country": "US", "address2": null, "address3": null, "state": "NY", "address1": "17232 Jamaica Ave", "zip_code": "11432"}}, {"rating": 1.0, "review_count": 1, "name": "Starz Banquet Hall", "transactions": [], "url": "https://www.yelp.com/biz/starz-banquet-hall-jamaica?adjust_creative=yhLoLzsNXKw40xZ5RCWPpA&utm_campaign=yelp_api_v3&utm_medium=api_v3_business_search&utm_source=yhLoLzsNXKw40xZ5RCWPpA", "distance": 1955.1730482429816, "coordinates": {"latitude": 40.7051563331998, "longitude": -73.7934873166507}, "alias": "starz-banquet-hall-jamaica", "image_url": "https://s3-media2.fl.yelpcdn.com/bphoto/pI5dPhbxXY4YCpMNHXwlNQ/o.jpg", "categories": [{"alias": "danceclubs", "title": "Dance Clubs"}, {"alias": "musicvenues", "title": "Music Venues"}], "display_phone": "(718) 977-8279", "phone": "+17189778279", "id": "CLUWToq1-2Akqn02UoDweg", "is_closed": false, "location": {"city": "Jamaica", "display_address": ["23136 Merrick Blvd", "Jamaica, NY 11432"], "country": "US", "address2": "", "address3": "", "state": "NY", "address1": "23136 Merrick Blvd", "zip_code": "11432"}}, {"rating": 3.5, "review_count": 3, "name": "Macumba Bar & Restaurant", "transactions": ["delivery", "pickup"], "url": "https://www.yelp.com/biz/macumba-bar-and-restaurant-hollis-3?adjust_creative=yhLoLzsNXKw40xZ5RCWPpA&utm_campaign=yelp_api_v3&utm_medium=api_v3_business_search&utm_source=yhLoLzsNXKw40xZ5RCWPpA", "price": "$$", "distance": 2007.4702010400879, "coordinates": {"latitude": 40.7094612121582, "longitude": -73.7748260498047}, "alias": "macumba-bar-and-restaurant-hollis-3", "image_url": "https://s3-media1.fl.yelpcdn.com/bphoto/pdNnFL4LAxvn6dggJhqC3A/o.jpg", "categories": [{"alias": "newamerican", "title": "American (New)"}, {"alias": "bars", "title": "Bars"}], "display_phone": "(718) 264-1960", "phone": "+17182641960", "id": "WezGqBNhTo7XT2XzIlkuKA", "is_closed": false, "location": {"city": "Hollis", "display_address": ["184-33 Jamaica Ave", "Hollis, NY 11423"], "country": "US", "address2": "", "address3": "", "state": "NY", "address1": "184-33 Jamaica Ave", "zip_code": "11423"}}, {"rating": 5.0, "review_count": 1, "name": "Innovations in Creative Arts", "transactions": [], "url": "https://www.yelp.com/biz/innovations-in-creative-arts-queens?adjust_creative=yhLoLzsNXKw40xZ5RCWPpA&utm_campaign=yelp_api_v3&utm_medium=api_v3_business_search&utm_source=yhLoLzsNXKw40xZ5RCWPpA", "distance": 2139.836069290663, "coordinates": {"latitude": 40.69387, "longitude": -73.75344}, "alias": "innovations-in-creative-arts-queens", "image_url": "https://s3-media4.fl.yelpcdn.com/bphoto/PUE0hdUQ_unR20KT2EKv5Q/o.jpg", "categories": [{"alias": "venues", "title": "Venues & Event Spaces"}, {"alias": "arts", "title": "Arts & Entertainment"}, {"alias": "karaoke", "title": "Karaoke"}], "display_phone": "(718) 658-3881", "phone": "+17186583881", "id": "E2uo0icpce9Vys7mBx8g1Q", "is_closed": false, "location": {"city": "Queens", "display_address": ["198-20 Linden Blvd", "Queens, NY 11412"], "country": "US", "address2": null, "address3": "", "state": "NY", "address1": "198-20 Linden Blvd", "zip_code": "11412"}}, {"rating": 1.5, "review_count": 135, "name": "Applebee's Grill + Bar", "transactions": [], "url": "https://www.yelp.com/biz/applebees-grill-bar-queens?adjust_creative=yhLoLzsNXKw40xZ5RCWPpA&utm_campaign=yelp_api_v3&utm_medium=api_v3_business_search&utm_source=yhLoLzsNXKw40xZ5RCWPpA", "price": "$$", "distance": 2152.8044162172887, "coordinates": {"latitude": 40.7042825, "longitude": -73.79799275}, "alias": "applebees-grill-bar-queens", "image_url": "https://s3-media2.fl.yelpcdn.com/bphoto/w2dxkSd8qXhNI-NEPFbJzA/o.jpg", "categories": [{"alias": "sportsbars", "title": "Sports Bars"}, {"alias": "burgers", "title": "Burgers"}, {"alias": "tradamerican", "title": "American (Traditional)"}], "display_phone": "(347) 571-0921", "phone": "+13475710921", "id": "rWnOWD-mI0vFokt1cs6vSQ", "is_closed": false, "location": {"city": "Queens", "display_address": ["161-21 Jamaica Ave", "Queens, NY 11432"], "country": "US", "address2": "", "address3": "", "state": "NY", "address1": "161-21 Jamaica Ave", "zip_code": "11432"}}, {"rating": 2.0, "review_count": 17, "name": "Jouvay", "transactions": [], "url": "https://www.yelp.com/biz/jouvay-jamaica?adjust_creative=yhLoLzsNXKw40xZ5RCWPpA&utm_campaign=yelp_api_v3&utm_medium=api_v3_business_search&utm_source=yhLoLzsNXKw40xZ5RCWPpA", "price": "$$", "distance": 2175.3677039416084, "coordinates": {"latitude": 40.6961098, "longitude": -73.8037567}, "alias": "jouvay-jamaica", "image_url": "https://s3-media3.fl.yelpcdn.com/bphoto/Gq4XlVDIHftb7f3X1ririg/o.jpg", "categories": [{"alias": "hookah_bars", "title": "Hookah Bars"}, {"alias": "danceclubs", "title": "Dance Clubs"}, {"alias": "eventplanning", "title": "Party & Event Planning"}], "display_phone": "(718) 658-9600", "phone": "+17186589600", "id": "-Our4NbpUkaWmG-LXgfpOw", "is_closed": false, "location": {"city": "Jamaica", "display_address": ["147-02 Liberty Ave", "Jamaica, NY 11435"], "country": "US", "address2": "", "address3": "", "state": "NY", "address1": "147-02 Liberty Ave", "zip_code": "11435"}}, {"rating": 3.0, "review_count": 2, "name": "729 Bar & Grill", "transactions": [], "url": "https://www.yelp.com/biz/729-bar-and-grill-saint-albans?adjust_creative=yhLoLzsNXKw40xZ5RCWPpA&utm_campaign=yelp_api_v3&utm_medium=api_v3_business_search&utm_source=yhLoLzsNXKw40xZ5RCWPpA", "price": "$", "distance": 2309.362936021046, "coordinates": {"latitude": 40.7002691, "longitude": -73.7537328}, "alias": "729-bar-and-grill-saint-albans", "image_url": "https://s3-media2.fl.yelpcdn.com/bphoto/i6qh6K6ybQtEG9YNynvpuw/o.jpg", "categories": [{"alias": "bars", "title": "Bars"}, {"alias": "tradamerican", "title": "American (Traditional)"}], "display_phone": "(718) 749-2328", "phone": "+17187492328", "id": "kxqBjYGnxjC1pQE8-OYmUg", "is_closed": false, "location": {"city": "Saint Albans", "display_address": ["20103 Murdock Ave", "Saint Albans, NY 11412"], "country": "US", "address2": "", "address3": "", "state": "NY", "address1": "20103 Murdock Ave", "zip_code": "11412"}}, {"rating": 3.0, "review_count": 1, "name": "Island Rage", "transactions": [], "url": "https://www.yelp.com/biz/island-rage-queens?adjust_creative=yhLoLzsNXKw40xZ5RCWPpA&utm_campaign=yelp_api_v3&utm_medium=api_v3_business_search&utm_source=yhLoLzsNXKw40xZ5RCWPpA", "price": "$", "distance": 2373.091472800255, "coordinates": {"latitude": 40.7022895812988, "longitude": -73.8279495239258}, "alias": "island-rage-queens", "image_url": "https://s3-media4.fl.yelpcdn.com/bphoto/QWHk4ZBWjhzC8mkaF0AkFg/o.jpg", "categories": [{"alias": "hookah_bars", "title": "Hookah Bars"}, {"alias": "divebars", "title": "Dive Bars"}], "display_phone": "(718) 487-4997", "phone": "+17184874997", "id": "t-lJRbzhhG_SACvSOfYX4A", "is_closed": false, "location": {"city": "Queens", "display_address": ["180-2 Hillside Ave", "Queens, NY 11432"], "country": "US", "address2": null, "address3": "", "state": "NY", "address1": "180-2 Hillside Ave", "zip_code": "11432"}}, {"rating": 1.0, "review_count": 1, "name": "La Esmeraldita", "transactions": [], "url": "https://www.yelp.com/biz/la-esmeraldita-queens?adjust_creative=yhLoLzsNXKw40xZ5RCWPpA&utm_campaign=yelp_api_v3&utm_medium=api_v3_business_search&utm_source=yhLoLzsNXKw40xZ5RCWPpA", "price": "$", "distance": 2384.080622678681, "coordinates": {"latitude": 40.6976681829734, "longitude": -73.8057888048301}, "alias": "la-esmeraldita-queens", "image_url": "", "categories": [{"alias": "bars", "title": "Bars"}], "display_phone": "(718) 658-5825", "phone": "+17186585825", "id": "H_R1yhMak27BlZMbrRSerw", "is_closed": false, "location": {"city": "Queens", "display_address": ["95-35 Sutphin Blvd", "Queens, NY 11435"], "country": "US", "address2": "", "address3": null, "state": "NY", "address1": "95-35 Sutphin Blvd", "zip_code": "11435"}}, {"rating": 4.0, "review_count": 98, "name": "A-Churrasqueira Restaurant & Bar", "transactions": [], "url": "https://www.yelp.com/biz/a-churrasqueira-restaurant-and-bar-jamaica?adjust_creative=yhLoLzsNXKw40xZ5RCWPpA&utm_campaign=yelp_api_v3&utm_medium=api_v3_business_search&utm_source=yhLoLzsNXKw40xZ5RCWPpA", "price": "$$", "distance": 2385.5864171639987, "coordinates": {"latitude": 40.697755, "longitude": -73.805755}, "alias": "a-churrasqueira-restaurant-and-bar-jamaica", "image_url": "https://s3-media1.fl.yelpcdn.com/bphoto/B0LYk-xwdq5PgkJsgAuuRQ/o.jpg", "categories": [{"alias": "steak", "title": "Steakhouses"}, {"alias": "portuguese", "title": "Portuguese"}, {"alias": "bars", "title": "Bars"}], "display_phone": "(718) 523-5293", "phone": "+17185235293", "id": "V9rDr5Nb1ciKSU0LR74ocg", "is_closed": false, "location": {"city": "Jamaica", "display_address": ["9529 Sutphin Blvd", "Jamaica, NY 11435"], "country": "US", "address2": "", "address3": "", "state": "NY", "address1": "9529 Sutphin Blvd", "zip_code": "11435"}}, {"rating": 2.0, "review_count": 2, "name": "Hot Shot Billards", "transactions": [], "url": "https://www.yelp.com/biz/hot-shot-billards-jamaica?adjust_creative=yhLoLzsNXKw40xZ5RCWPpA&utm_campaign=yelp_api_v3&utm_medium=api_v3_business_search&utm_source=yhLoLzsNXKw40xZ5RCWPpA", "price": "$", "distance": 2452.8913202884373, "coordinates": {"latitude": 40.70165, "longitude": -73.80459}, "alias": "hot-shot-billards-jamaica", "image_url": "", "categories": [{"alias": "poolhalls", "title": "Pool Halls"}], "display_phone": "(718) 657-4655", "phone": "+17186574655", "id": "q_ourABbcOtpe3lg5KZqTg", "is_closed": false, "location": {"city": "Jamaica", "display_address": ["9212 150th St", "Jamaica, NY 11435"], "country": "US", "address2": "", "address3": "", "state": "NY", "address1": "9212 150th St", "zip_code": "11435"}}, {"rating": 4.5, "review_count": 12, "name": "El Tequilazo", "transactions": [], "url": "https://www.yelp.com/biz/el-tequilazo-jamaica?adjust_creative=yhLoLzsNXKw40xZ5RCWPpA&utm_campaign=yelp_api_v3&utm_medium=api_v3_business_search&utm_source=yhLoLzsNXKw40xZ5RCWPpA", "distance": 2461.2083681995823, "coordinates": {"latitude": 40.7122945231321, "longitude": -73.7891526480506}, "alias": "el-tequilazo-jamaica", "image_url": "https://s3-media1.fl.yelpcdn.com/bphoto/T-S1q3gsH9B9uIGzDCKyRw/o.jpg", "categories": [{"alias": "mexican", "title": "Mexican"}, {"alias": "beerbar", "title": "Beer Bar"}], "display_phone": "(718) 558-0020", "phone": "+17185580020", "id": "N-yqacjOkrrXsGMgogmZWg", "is_closed": false, "location": {"city": "Jamaica", "display_address": ["17237 Hillside Ave", "Jamaica, NY 11432"], "country": "US", "address2": "", "address3": null, "state": "NY", "address1": "17237 Hillside Ave", "zip_code": "11432"}}, {"rating": 4.5, "review_count": 54, "name": "West Bar & Lounge", "transactions": [], "url": "https://www.yelp.com/biz/west-bar-and-lounge-jamaica?adjust_creative=yhLoLzsNXKw40xZ5RCWPpA&utm_campaign=yelp_api_v3&utm_medium=api_v3_business_search&utm_source=yhLoLzsNXKw40xZ5RCWPpA", "price": "$$", "distance": 2461.245880426908, "coordinates": {"latitude": 40.6817447933482, "longitude": -73.7523196312304}, "alias": "west-bar-and-lounge-jamaica", "image_url": "https://s3-media3.fl.yelpcdn.com/bphoto/Ha0IxCsuI-k6mdiOkUf-WA/o.jpg", "categories": [{"alias": "bars", "title": "Bars"}, {"alias": "seafood", "title": "Seafood"}, {"alias": "caribbean", "title": "Caribbean"}], "display_phone": "(917) 300-2497", "phone": "+19173002497", "id": "wTlEh4QMyrkIlEakEgpGHA", "is_closed": false, "location": {"city": "Jamaica", "display_address": ["133-24 Springfield Blvd", "Jamaica, NY 11413"], "country": "US", "address2": null, "address3": "", "state": "NY", "address1": "133-24 Springfield Blvd", "zip_code": "11413"}}, {"rating": 3.5, "review_count": 7, "name": "Aso Rock Lounge & Restaurant", "transactions": [], "url": "https://www.yelp.com/biz/aso-rock-lounge-and-restaurant-new-york-2?adjust_creative=yhLoLzsNXKw40xZ5RCWPpA&utm_campaign=yelp_api_v3&utm_medium=api_v3_business_search&utm_source=yhLoLzsNXKw40xZ5RCWPpA", "price": "$$", "distance": 2472.005059330092, "coordinates": {"latitude": 40.6723654, "longitude": -73.7643218}, "alias": "aso-rock-lounge-and-restaurant-new-york-2", "image_url": "https://s3-media2.fl.yelpcdn.com/bphoto/56gGdlZtwjJjqVUBezARXg/o.jpg", "categories": [{"alias": "african", "title": "African"}, {"alias": "wine_bars", "title": "Wine Bars"}, {"alias": "beerbar", "title": "Beer Bar"}], "display_phone": "(718) 525-1533", "phone": "+17185251533", "id": "zsnuKy5X7JkSgjPIC7xSqg", "is_closed": false, "location": {"city": "New York", "display_address": ["13824 Farmers Blvd", "New York, NY 11434"], "country": "US", "address2": "", "address3": "", "state": "NY", "address1": "13824 Farmers Blvd", "zip_code": "11434"}}, {"rating": 2.5, "review_count": 34, "name": "Alaska Lounge", "transactions": [], "url": "https://www.yelp.com/biz/alaska-lounge-queens?adjust_creative=yhLoLzsNXKw40xZ5RCWPpA&utm_campaign=yelp_api_v3&utm_medium=api_v3_business_search&utm_source=yhLoLzsNXKw40xZ5RCWPpA", "price": "$$", "distance": 2539.216503986471, "coordinates": {"latitude": 40.645105, "longitude": -73.786895}, "alias": "alaska-lounge-queens", "image_url": "https://s3-media4.fl.yelpcdn.com/bphoto/0L4MWjZzh2gVvmKDTH4Hfg/o.jpg", "categories": [{"alias": "airportlounges", "title": "Airport Lounges"}], "display_phone": "", "phone": "", "id": "bfvscYeSmDhIQAjbpaVhXA", "is_closed": false, "location": {"city": "Queens", "display_address": ["Van Wyck & JFK Expressway", "Terminal 7", "Queens, NY 11430"], "country": "US", "address2": "", "address3": "Terminal 7", "state": "NY", "address1": "Van Wyck & JFK Expressway", "zip_code": "11430"}}, {"rating": 3.5, "review_count": 17, "name": "Air Bar", "transactions": [], "url": "https://www.yelp.com/biz/air-bar-jamaica?adjust_creative=yhLoLzsNXKw40xZ5RCWPpA&utm_campaign=yelp_api_v3&utm_medium=api_v3_business_search&utm_source=yhLoLzsNXKw40xZ5RCWPpA", "price": "$$", "distance": 2571.99634422654, "coordinates": {"latitude": 40.6991779889921, "longitude": -73.8074934482574}, "alias": "air-bar-jamaica", "image_url": "https://s3-media4.fl.yelpcdn.com/bphoto/M3EPmHL4t1rxfB3ZRNwo3w/o.jpg", "categories": [{"alias": "sportsbars", "title": "Sports Bars"}], "display_phone": "(718) 725-0002", "phone": "+17187250002", "id": "XzevuXHkl43xtPDzZ0tnxw", "is_closed": false, "location": {"city": "Jamaica", "display_address": ["93-40 Sutphin Blvd", "Jamaica, NY 11435"], "country": "US", "address2": "", "address3": "", "state": "NY", "address1": "93-40 Sutphin Blvd", "zip_code": "11435"}}, {"rating": 4.0, "review_count": 152, "name": "Vibes", "transactions": [], "url": "https://www.yelp.com/biz/vibes-jamaica-2?adjust_creative=yhLoLzsNXKw40xZ5RCWPpA&utm_campaign=yelp_api_v3&utm_medium=api_v3_business_search&utm_source=yhLoLzsNXKw40xZ5RCWPpA", "price": "$$", "distance": 2592.7496950539553, "coordinates": {"latitude": 40.6920219729081, "longitude": -73.8093984872103}, "alias": "vibes-jamaica-2", "image_url": "https://s3-media3.fl.yelpcdn.com/bphoto/aUt6Ja8orpIxXzaxIIixMQ/o.jpg", "categories": [{"alias": "seafood", "title": "Seafood"}, {"alias": "soulfood", "title": "Soul Food"}, {"alias": "sportsbars", "title": "Sports Bars"}], "display_phone": "(718) 262-0433", "phone": "+17182620433", "id": "i1fs2DRTIoKy1sNr3Gx-5g", "is_closed": false, "location": {"city": "Jamaica", "display_address": ["143-06 Liberty Ave", "Jamaica, NY 11435"], "country": "US", "address2": "", "address3": "", "state": "NY", "address1": "143-06 Liberty Ave", "zip_code": "11435"}}, {"rating": 4.0, "review_count": 203, "name": "O Lavrador", "transactions": [], "url": "https://www.yelp.com/biz/o-lavrador-jamaica-2?adjust_creative=yhLoLzsNXKw40xZ5RCWPpA&utm_campaign=yelp_api_v3&utm_medium=api_v3_business_search&utm_source=yhLoLzsNXKw40xZ5RCWPpA", "price": "$$", "distance": 2614.6547274490426, "coordinates": {"latitude": 40.694413, "longitude": -73.809374}, "alias": "o-lavrador-jamaica-2", "image_url": "https://s3-media2.fl.yelpcdn.com/bphoto/nGrBYB6RgPxEC_xYcILHfg/o.jpg", "categories": [{"alias": "portuguese", "title": "Portuguese"}, {"alias": "bars", "title": "Bars"}, {"alias": "spanish", "title": "Spanish"}], "display_phone": "(718) 526-1526", "phone": "+17185261526", "id": "d61Ejg_qQGTATqh67c912g", "is_closed": false, "location": {"city": "Jamaica", "display_address": ["13840 101st Ave", "Jamaica, NY 11435"], "country": "US", "address2": "", "address3": "", "state": "NY", "address1": "13840 101st Ave", "zip_code": "11435"}}, {"rating": 3.0, "review_count": 10, "name": "Blarney Tavern", "transactions": [], "url": "https://www.yelp.com/biz/blarney-tavern-jamaica?adjust_creative=yhLoLzsNXKw40xZ5RCWPpA&utm_campaign=yelp_api_v3&utm_medium=api_v3_business_search&utm_source=yhLoLzsNXKw40xZ5RCWPpA", "price": "$$", "distance": 2766.4411223032143, "coordinates": {"latitude": 40.702072, "longitude": -73.808601}, "alias": "blarney-tavern-jamaica", "image_url": "https://s3-media2.fl.yelpcdn.com/bphoto/-uyyPigdKkycZ89lYTNkdg/o.jpg", "categories": [{"alias": "bars", "title": "Bars"}], "display_phone": "(718) 526-9272", "phone": "+17185269272", "id": "yb37Jd1cANsvv419Pl_wsA", "is_closed": false, "location": {"city": "Jamaica", "display_address": ["14609 Jamaica Ave", "Jamaica, NY 11435"], "country": "US", "address2": "", "address3": "", "state": "NY", "address1": "14609 Jamaica Ave", "zip_code": "11435"}}, {"rating": 4.0, "review_count": 4, "name": "The Food Hut & Bar", "transactions": ["delivery", "pickup"], "url": "https://www.yelp.com/biz/the-food-hut-and-bar-south-ozone-park?adjust_creative=yhLoLzsNXKw40xZ5RCWPpA&utm_campaign=yelp_api_v3&utm_medium=api_v3_business_search&utm_source=yhLoLzsNXKw40xZ5RCWPpA", "price": "$$", "distance": 2789.924156070398, "coordinates": {"latitude": 40.674176, "longitude": -73.802404}, "alias": "the-food-hut-and-bar-south-ozone-park", "image_url": "https://s3-media4.fl.yelpcdn.com/bphoto/9kk_sQibZf5hDxbLwkxmig/o.jpg", "categories": [{"alias": "caribbean", "title": "Caribbean"}, {"alias": "cocktailbars", "title": "Cocktail Bars"}], "display_phone": "(718) 529-7743", "phone": "+17185297743", "id": "fUzmfJoh8uklk1cxpsaJxQ", "is_closed": false, "location": {"city": "South Ozone Park", "display_address": ["13532 Rockaway Blvd", "South Ozone Park, NY 11420"], "country": "US", "address2": "", "address3": "", "state": "NY", "address1": "13532 Rockaway Blvd", "zip_code": "11420"}}, {"rating": 3.0, "review_count": 3, "name": "Code Lounge", "transactions": [], "url": "https://www.yelp.com/biz/code-lounge-hollis?adjust_creative=yhLoLzsNXKw40xZ5RCWPpA&utm_campaign=yelp_api_v3&utm_medium=api_v3_business_search&utm_source=yhLoLzsNXKw40xZ5RCWPpA", "price": "$$", "distance": 2804.794190727051, "coordinates": {"latitude": 40.7136688, "longitude": -73.7622299}, "alias": "code-lounge-hollis", "image_url": "https://s3-media3.fl.yelpcdn.com/bphoto/A1KdQK4WYZCnVL4xCTGZzg/o.jpg", "categories": [{"alias": "danceclubs", "title": "Dance Clubs"}, {"alias": "lounges", "title": "Lounges"}], "display_phone": "(917) 468-7437", "phone": "+19174687437", "id": "GhzMfFC0SNrBf0UmxYH3BA", "is_closed": false, "location": {"city": "Hollis", "display_address": ["197-15 Jamaica Ave", "Hollis, NY 11423"], "country": "US", "address2": "", "address3": "", "state": "NY", "address1": "197-15 Jamaica Ave", "zip_code": "11423"}}, {"rating": 4.5, "review_count": 3, "name": "Lovell's Guiding Light", "transactions": [], "url": "https://www.yelp.com/biz/lovells-guiding-light-jamaica?adjust_creative=yhLoLzsNXKw40xZ5RCWPpA&utm_campaign=yelp_api_v3&utm_medium=api_v3_business_search&utm_source=yhLoLzsNXKw40xZ5RCWPpA", "price": "$$", "distance": 2971.1539764609097, "coordinates": {"latitude": 40.7065259707219, "longitude": -73.807920364521}, "alias": "lovells-guiding-light-jamaica", "image_url": "https://s3-media3.fl.yelpcdn.com/bphoto/Fc5CBdSjPlBnVBbNxsbTZQ/o.jpg", "categories": [{"alias": "cocktailbars", "title": "Cocktail Bars"}, {"alias": "lounges", "title": "Lounges"}], "display_phone": "(718) 297-3153", "phone": "+17182973153", "id": "_MpwRL91-kOGfjLCrQNqww", "is_closed": false, "location": {"city": "Jamaica", "display_address": ["148-33 Hillside Ave", "Jamaica, NY 11435"], "country": "US", "address2": null, "address3": "", "state": "NY", "address1": "148-33 Hillside Ave", "zip_code": "11435"}}, {"rating": 3.5, "review_count": 196, "name": "Singh's Roti Shop & Bar", "transactions": [], "url": "https://www.yelp.com/biz/singhs-roti-shop-and-bar-south-richmond-hill?adjust_creative=yhLoLzsNXKw40xZ5RCWPpA&utm_campaign=yelp_api_v3&utm_medium=api_v3_business_search&utm_source=yhLoLzsNXKw40xZ5RCWPpA", "price": "$", "distance": 2994.3452500740614, "coordinates": {"latitude": 40.6901083, "longitude": -73.8144673}, "alias": "singhs-roti-shop-and-bar-south-richmond-hill", "image_url": "https://s3-media2.fl.yelpcdn.com/bphoto/G2aZ_-AGJGLyMcS_R_nY-Q/o.jpg", "categories": [{"alias": "chinese", "title": "Chinese"}, {"alias": "bars", "title": "Bars"}, {"alias": "indpak", "title": "Indian"}], "display_phone": "(718) 323-5990", "phone": "+17183235990", "id": "5g7Kz9ffnv7t47oaomIlqA", "is_closed": false, "location": {"city": "South Richmond Hill", "display_address": ["13118 Liberty Ave", "South Richmond Hill, NY 11419"], "country": "US", "address2": "", "address3": "", "state": "NY", "address1": "13118 Liberty Ave", "zip_code": "11419"}}, {"rating": 5.0, "review_count": 1, "name": "Ca\u00f1as Restaurant and Bar", "transactions": ["delivery", "pickup"], "url": "https://www.yelp.com/biz/ca%C3%B1as-restaurant-and-bar-jamaica?adjust_creative=yhLoLzsNXKw40xZ5RCWPpA&utm_campaign=yelp_api_v3&utm_medium=api_v3_business_search&utm_source=yhLoLzsNXKw40xZ5RCWPpA", "distance": 2997.057000701951, "coordinates": {"latitude": 40.70238, "longitude": -73.8112}, "alias": "ca\u00f1as-restaurant-and-bar-jamaica", "image_url": "https://s3-media4.fl.yelpcdn.com/bphoto/oKsZvcESi13eEZY1KNn6zQ/o.jpg", "categories": [{"alias": "latin", "title": "Latin American"}, {"alias": "dominican", "title": "Dominican"}, {"alias": "bars", "title": "Bars"}], "display_phone": "(929) 244-7267", "phone": "+19292447267", "id": "Lm-N3uF0PMHuu9A7FrXYNw", "is_closed": false, "location": {"city": "Jamaica", "display_address": ["144-07 Jamaica Ave", "Jamaica, NY 11435"], "country": "US", "address2": null, "address3": "", "state": "NY", "address1": "144-07 Jamaica Ave", "zip_code": "11435"}}, {"rating": 4.0, "review_count": 7, "name": "Maloney's", "transactions": [], "url": "https://www.yelp.com/biz/maloneys-jamaica?adjust_creative=yhLoLzsNXKw40xZ5RCWPpA&utm_campaign=yelp_api_v3&utm_medium=api_v3_business_search&utm_source=yhLoLzsNXKw40xZ5RCWPpA", "price": "$$", "distance": 3001.2278062915716, "coordinates": {"latitude": 40.7053113, "longitude": -73.8092906}, "alias": "maloneys-jamaica", "image_url": "https://s3-media2.fl.yelpcdn.com/bphoto/WscmaMsxxLOSQqw08-OoYg/o.jpg", "categories": [{"alias": "irish", "title": "Irish"}, {"alias": "pubs", "title": "Pubs"}], "display_phone": "(347) 233-4472", "phone": "+13472334472", "id": "XcO60L29ZXavOxhOpDGrbg", "is_closed": false, "location": {"city": "Jamaica", "display_address": ["87-67 Sutphin Blvd", "Jamaica, NY 11435"], "country": "US", "address2": "", "address3": "", "state": "NY", "address1": "87-67 Sutphin Blvd", "zip_code": "11435"}}, {"rating": 3.0, "review_count": 21, "name": "Shisha Cafe & Hookah Lounge", "transactions": [], "url": "https://www.yelp.com/biz/shisha-cafe-and-hookah-lounge-new-york?adjust_creative=yhLoLzsNXKw40xZ5RCWPpA&utm_campaign=yelp_api_v3&utm_medium=api_v3_business_search&utm_source=yhLoLzsNXKw40xZ5RCWPpA", "price": "$$", "distance": 3026.723324497194, "coordinates": {"latitude": 40.690577, "longitude": -73.814522}, "alias": "shisha-cafe-and-hookah-lounge-new-york", "image_url": "https://s3-media3.fl.yelpcdn.com/bphoto/k_funkumXXdPx2mMU_BVDA/o.jpg", "categories": [{"alias": "hookah_bars", "title": "Hookah Bars"}, {"alias": "lounges", "title": "Lounges"}, {"alias": "wine_bars", "title": "Wine Bars"}], "display_phone": "(718) 845-1285", "phone": "+17188451285", "id": "ZirjSKKF381tV7VJpAGfeA", "is_closed": false, "location": {"city": "New York", "display_address": ["131-17 Liberty Ave", "New York, NY 11419"], "country": "US", "address2": "", "address3": "", "state": "NY", "address1": "131-17 Liberty Ave", "zip_code": "11419"}}, {"rating": 3.0, "review_count": 62, "name": "144 Restaurant and Lounge", "transactions": [], "url": "https://www.yelp.com/biz/144-restaurant-and-lounge-jamaica?adjust_creative=yhLoLzsNXKw40xZ5RCWPpA&utm_campaign=yelp_api_v3&utm_medium=api_v3_business_search&utm_source=yhLoLzsNXKw40xZ5RCWPpA", "price": "$$", "distance": 3050.7844683340786, "coordinates": {"latitude": 40.6674920049489, "longitude": -73.7958197060822}, "alias": "144-restaurant-and-lounge-jamaica", "image_url": "https://s3-media4.fl.yelpcdn.com/bphoto/dLsV8F_Jtjtwo5R0-tnYeg/o.jpg", "categories": [{"alias": "newamerican", "title": "American (New)"}, {"alias": "lounges", "title": "Lounges"}], "display_phone": "(718) 659-0200", "phone": "+17186590200", "id": "5q-Q-jDanar1qPbm_KBVqQ", "is_closed": false, "location": {"city": "Jamaica", "display_address": ["144-02 135th Ave", "Jamaica, NY 11436"], "country": "US", "address2": "", "address3": "", "state": "NY", "address1": "144-02 135th Ave", "zip_code": "11436"}}, {"rating": 2.5, "review_count": 5, "name": "XQuisite", "transactions": [], "url": "https://www.yelp.com/biz/xquisite-richmond-hill-2?adjust_creative=yhLoLzsNXKw40xZ5RCWPpA&utm_campaign=yelp_api_v3&utm_medium=api_v3_business_search&utm_source=yhLoLzsNXKw40xZ5RCWPpA", "price": "$$", "distance": 3105.1041004239605, "coordinates": {"latitude": 40.6969501823187, "longitude": -73.8148400187492}, "alias": "xquisite-richmond-hill-2", "image_url": "https://s3-media1.fl.yelpcdn.com/bphoto/xHjNIH4NB_G2hm3-08VKSw/o.jpg", "categories": [{"alias": "lounges", "title": "Lounges"}], "display_phone": "(646) 415-2766", "phone": "+16464152766", "id": "OCZtkI90KOiHynz_aiUnvg", "is_closed": false, "location": {"city": "Richmond Hill", "display_address": ["134-10 Atlantic Ave", "Richmond Hill, NY 11419"], "country": "US", "address2": "", "address3": "", "state": "NY", "address1": "134-10 Atlantic Ave", "zip_code": "11419"}}, {"rating": 1.0, "review_count": 2, "name": "Insomnia Bar & Lounge", "transactions": [], "url": "https://www.yelp.com/biz/insomnia-bar-and-lounge-south-ozone-park-2?adjust_creative=yhLoLzsNXKw40xZ5RCWPpA&utm_campaign=yelp_api_v3&utm_medium=api_v3_business_search&utm_source=yhLoLzsNXKw40xZ5RCWPpA", "price": "$", "distance": 3149.02593957897, "coordinates": {"latitude": 40.6826878234026, "longitude": -73.8140819594264}, "alias": "insomnia-bar-and-lounge-south-ozone-park-2", "image_url": "https://s3-media2.fl.yelpcdn.com/bphoto/OlgvtOms4_GhqHR6qEYCNA/o.jpg", "categories": [{"alias": "beer_and_wine", "title": "Beer, Wine & Spirits"}, {"alias": "lounges", "title": "Lounges"}], "display_phone": "", "phone": "", "id": "Ma8XdGL2Npx0KijSZNPltw", "is_closed": false, "location": {"city": "South Ozone Park", "display_address": ["127-05 111th Ave", "South Ozone Park, NY 11420"], "country": "US", "address2": "", "address3": "", "state": "NY", "address1": "127-05 111th Ave", "zip_code": "11420"}}, {"rating": 2.0, "review_count": 8, "name": "Mingle 1", "transactions": [], "url": "https://www.yelp.com/biz/mingle-1-south-richmond-hill-2?adjust_creative=yhLoLzsNXKw40xZ5RCWPpA&utm_campaign=yelp_api_v3&utm_medium=api_v3_business_search&utm_source=yhLoLzsNXKw40xZ5RCWPpA", "price": "$$", "distance": 3186.063023533459, "coordinates": {"latitude": 40.692405, "longitude": -73.816429}, "alias": "mingle-1-south-richmond-hill-2", "image_url": "https://s3-media3.fl.yelpcdn.com/bphoto/sClSKQtNfWDbM65KJVjJDQ/o.jpg", "categories": [{"alias": "danceclubs", "title": "Dance Clubs"}, {"alias": "lounges", "title": "Lounges"}], "display_phone": "(718) 805-6507", "phone": "+17188056507", "id": "clgzANJG6q1aIMzOMqdq9w", "is_closed": false, "location": {"city": "South Richmond Hill", "display_address": ["13018 101st Ave", "South Richmond Hill, NY 11419"], "country": "US", "address2": "", "address3": "", "state": "NY", "address1": "13018 101st Ave", "zip_code": "11419"}}, {"rating": 3.0, "review_count": 2, "name": "East Indian Music Academy", "transactions": [], "url": "https://www.yelp.com/biz/east-indian-music-academy-south-ozone-park?adjust_creative=yhLoLzsNXKw40xZ5RCWPpA&utm_campaign=yelp_api_v3&utm_medium=api_v3_business_search&utm_source=yhLoLzsNXKw40xZ5RCWPpA", "price": "$$", "distance": 3208.256502169617, "coordinates": {"latitude": 40.6821399, "longitude": -73.81457}, "alias": "east-indian-music-academy-south-ozone-park", "image_url": "https://s3-media2.fl.yelpcdn.com/bphoto/SZ8Cg7LuyHcMshBN0seIWA/o.jpg", "categories": [{"alias": "musicvenues", "title": "Music Venues"}], "display_phone": "(718) 738-7836", "phone": "+17187387836", "id": "8Fj1ZqGX4mK7Fgy7UUuRXg", "is_closed": false, "location": {"city": "South Ozone Park", "display_address": ["126-10 111th Ave", "South Ozone Park, NY 11420"], "country": "US", "address2": "", "address3": "", "state": "NY", "address1": "126-10 111th Ave", "zip_code": "11420"}}, {"rating": 5.0, "review_count": 12, "name": "Majnoon Cafe", "transactions": [], "url": "https://www.yelp.com/biz/majnoon-cafe-queens?adjust_creative=yhLoLzsNXKw40xZ5RCWPpA&utm_campaign=yelp_api_v3&utm_medium=api_v3_business_search&utm_source=yhLoLzsNXKw40xZ5RCWPpA", "distance": 3209.5901684921505, "coordinates": {"latitude": 40.68893, "longitude": -73.81653}, "alias": "majnoon-cafe-queens", "image_url": "https://s3-media2.fl.yelpcdn.com/bphoto/LM4tZT5z9bYn0gb3erMLBQ/o.jpg", "categories": [{"alias": "cafes", "title": "Cafes"}, {"alias": "hookah_bars", "title": "Hookah Bars"}], "display_phone": "", "phone": "", "id": "DhDjZXjypbqLYmr7gvu_BQ", "is_closed": false, "location": {"city": "Queens", "display_address": ["128-12 Liberty Ave", "Queens, NY 11419"], "country": "US", "address2": null, "address3": "", "state": "NY", "address1": "128-12 Liberty Ave", "zip_code": "11419"}}, {"rating": 4.0, "review_count": 4, "name": "Lovell's Afterdark Bar And Lounge", "transactions": [], "url": "https://www.yelp.com/biz/lovells-afterdark-bar-and-lounge-jamaica?adjust_creative=yhLoLzsNXKw40xZ5RCWPpA&utm_campaign=yelp_api_v3&utm_medium=api_v3_business_search&utm_source=yhLoLzsNXKw40xZ5RCWPpA", "price": "$$", "distance": 3238.98725303833, "coordinates": {"latitude": 40.6778427217413, "longitude": -73.7448210329714}, "alias": "lovells-afterdark-bar-and-lounge-jamaica", "image_url": "https://s3-media1.fl.yelpcdn.com/bphoto/UYNrWDCEvcJOMAwF0PAZPQ/o.jpg", "categories": [{"alias": "lounges", "title": "Lounges"}], "display_phone": "(718) 978-8600", "phone": "+17189788600", "id": "OvTEmgNy3yhSlT-YkXQNvQ", "is_closed": false, "location": {"city": "Jamaica", "display_address": ["224-01 Merrick Blvd", "Jamaica, NY 11413"], "country": "US", "address2": "", "address3": "", "state": "NY", "address1": "224-01 Merrick Blvd", "zip_code": "11413"}}, {"rating": 3.0, "review_count": 3, "name": "TicTavern Barlounge", "transactions": [], "url": "https://www.yelp.com/biz/tictavern-barlounge-south-ozone-park?adjust_creative=yhLoLzsNXKw40xZ5RCWPpA&utm_campaign=yelp_api_v3&utm_medium=api_v3_business_search&utm_source=yhLoLzsNXKw40xZ5RCWPpA", "price": "$", "distance": 3345.2506897670146, "coordinates": {"latitude": 40.675584, "longitude": -73.812199}, "alias": "tictavern-barlounge-south-ozone-park", "image_url": "https://s3-media2.fl.yelpcdn.com/bphoto/0IWwmk5g3BhhtVDm9YlWRg/o.jpg", "categories": [{"alias": "lounges", "title": "Lounges"}], "display_phone": "(718) 848-4297", "phone": "+17188484297", "id": "eYCgf5RfmsiTBRY3JHMD-g", "is_closed": false, "location": {"city": "South Ozone Park", "display_address": ["125-17 Rockaway Blvd", "South Ozone Park, NY 11420"], "country": "US", "address2": "", "address3": "", "state": "NY", "address1": "125-17 Rockaway Blvd", "zip_code": "11420"}}, {"rating": 2.5, "review_count": 43, "name": "Mazi Nightclub", "transactions": [], "url": "https://www.yelp.com/biz/mazi-nightclub-richmond-hill?adjust_creative=yhLoLzsNXKw40xZ5RCWPpA&utm_campaign=yelp_api_v3&utm_medium=api_v3_business_search&utm_source=yhLoLzsNXKw40xZ5RCWPpA", "price": "$$", "distance": 3511.021821411928, "coordinates": {"latitude": 40.69877, "longitude": -73.81936}, "alias": "mazi-nightclub-richmond-hill", "image_url": "https://s3-media2.fl.yelpcdn.com/bphoto/Qmjmqn7d3u-xqRA6XNYPHA/o.jpg", "categories": [{"alias": "danceclubs", "title": "Dance Clubs"}], "display_phone": "(845) 309-1317", "phone": "+18453091317", "id": "9g6mKnPHTvYTO-TxZe665A", "is_closed": false, "location": {"city": "Richmond Hill", "display_address": ["13035 91st Ave", "Richmond Hill, NY 11418"], "country": "US", "address2": "", "address3": "", "state": "NY", "address1": "13035 91st Ave", "zip_code": "11418"}}, {"rating": 5.0, "review_count": 1, "name": "Exclusive Lounge & Grill", "transactions": [], "url": "https://www.yelp.com/biz/exclusive-lounge-and-grill-cambria-heights?adjust_creative=yhLoLzsNXKw40xZ5RCWPpA&utm_campaign=yelp_api_v3&utm_medium=api_v3_business_search&utm_source=yhLoLzsNXKw40xZ5RCWPpA", "distance": 3532.41925608908, "coordinates": {"latitude": 40.6941035, "longitude": -73.7372661}, "alias": "exclusive-lounge-and-grill-cambria-heights", "image_url": "", "categories": [{"alias": "nightlife", "title": "Nightlife"}], "display_phone": "(718) 712-2500", "phone": "+17187122500", "id": "6H23iIQaBBX-KERgXmGnCw", "is_closed": false, "location": {"city": "Cambria Heights", "display_address": ["22320 Linden Blvd", "Cambria Heights, NY 11411"], "country": "US", "address2": null, "address3": null, "state": "NY", "address1": "22320 Linden Blvd", "zip_code": "11411"}}, {"rating": 3.5, "review_count": 23, "name": "Step One Restaurant and Lounge", "transactions": [], "url": "https://www.yelp.com/biz/step-one-restaurant-and-lounge-merrick-blvd?adjust_creative=yhLoLzsNXKw40xZ5RCWPpA&utm_campaign=yelp_api_v3&utm_medium=api_v3_business_search&utm_source=yhLoLzsNXKw40xZ5RCWPpA", "price": "$$", "distance": 3543.950025682088, "coordinates": {"latitude": 40.681692, "longitude": -73.73872}, "alias": "step-one-restaurant-and-lounge-merrick-blvd", "image_url": "https://s3-media2.fl.yelpcdn.com/bphoto/O1BB6e73YWTi8MW0V3buCA/o.jpg", "categories": [{"alias": "haitian", "title": "Haitian"}, {"alias": "lounges", "title": "Lounges"}], "display_phone": "(718) 723-0428", "phone": "+17187230428", "id": "HVG9S6mfxl2jSUC8Exde4A", "is_closed": false, "location": {"city": "Merrick Blvd", "display_address": ["229-10C", "Merrick Blvd, NY 11413"], "country": "US", "address2": null, "address3": "", "state": "NY", "address1": "229-10C", "zip_code": "11413"}}, {"rating": 4.5, "review_count": 3, "name": "Grey Dolphin Restaurant and Lounge", "transactions": [], "url": "https://www.yelp.com/biz/grey-dolphin-restaurant-and-lounge-cambria-heights?adjust_creative=yhLoLzsNXKw40xZ5RCWPpA&utm_campaign=yelp_api_v3&utm_medium=api_v3_business_search&utm_source=yhLoLzsNXKw40xZ5RCWPpA", "price": "$", "distance": 3544.878133329982, "coordinates": {"latitude": 40.6938553447103, "longitude": -73.7367059290409}, "alias": "grey-dolphin-restaurant-and-lounge-cambria-heights", "image_url": "https://s3-media2.fl.yelpcdn.com/bphoto/IUQBXZu_2-i0i8kTGwH7fg/o.jpg", "categories": [{"alias": "cocktailbars", "title": "Cocktail Bars"}, {"alias": "lounges", "title": "Lounges"}], "display_phone": "(718) 949-2321", "phone": "+17189492321", "id": "wiz1CBph0oU63-0EhnjoxA", "is_closed": false, "location": {"city": "Cambria Heights", "display_address": ["22320 Linden Blvd", "Cambria Heights, NY 11411"], "country": "US", "address2": "", "address3": null, "state": "NY", "address1": "22320 Linden Blvd", "zip_code": "11411"}}, {"rating": 4.0, "review_count": 2, "name": "Pulse Zero Bar and Cocktail Lounge", "transactions": [], "url": "https://www.yelp.com/biz/pulse-zero-bar-and-cocktail-lounge-cambria-heights?adjust_creative=yhLoLzsNXKw40xZ5RCWPpA&utm_campaign=yelp_api_v3&utm_medium=api_v3_business_search&utm_source=yhLoLzsNXKw40xZ5RCWPpA", "distance": 3552.8626755144246, "coordinates": {"latitude": 40.6940050729302, "longitude": -73.7366251274943}, "alias": "pulse-zero-bar-and-cocktail-lounge-cambria-heights", "image_url": "https://s3-media3.fl.yelpcdn.com/bphoto/q7nA8wMlYKoSrcmk-UNK1Q/o.jpg", "categories": [{"alias": "lounges", "title": "Lounges"}], "display_phone": "(718) 525-0270", "phone": "+17185250270", "id": "Ik3wRQ5mq9rK2OEDMBRJkA", "is_closed": false, "location": {"city": "Cambria Heights", "display_address": ["224-01 Linden Blvd", "Cambria Heights, NY 11411"], "country": "US", "address2": "", "address3": null, "state": "NY", "address1": "224-01 Linden Blvd", "zip_code": "11411"}}, {"rating": 3.0, "review_count": 12, "name": "Underground", "transactions": [], "url": "https://www.yelp.com/biz/underground-richmond-hill?adjust_creative=yhLoLzsNXKw40xZ5RCWPpA&utm_campaign=yelp_api_v3&utm_medium=api_v3_business_search&utm_source=yhLoLzsNXKw40xZ5RCWPpA", "price": "$$", "distance": 3555.898207813248, "coordinates": {"latitude": 40.68722, "longitude": -73.82041}, "alias": "underground-richmond-hill", "image_url": "https://s3-media2.fl.yelpcdn.com/bphoto/3brjsF3ZpnXVlQHinZuFAQ/o.jpg", "categories": [{"alias": "lounges", "title": "Lounges"}, {"alias": "asianfusion", "title": "Asian Fusion"}], "display_phone": "(718) 322-4144", "phone": "+17183224144", "id": "6aebr2J_NjAfaOqSmfwx-A", "is_closed": false, "location": {"city": "Richmond Hill", "display_address": ["104-09 123rd St", "Richmond Hill, NY 11419"], "country": "US", "address2": "", "address3": "", "state": "NY", "address1": "104-09 123rd St", "zip_code": "11419"}}, {"rating": 3.5, "review_count": 8, "name": "Blend Lounge NY", "transactions": [], "url": "https://www.yelp.com/biz/blend-lounge-ny-richmond-hill?adjust_creative=yhLoLzsNXKw40xZ5RCWPpA&utm_campaign=yelp_api_v3&utm_medium=api_v3_business_search&utm_source=yhLoLzsNXKw40xZ5RCWPpA", "distance": 3573.9535361723306, "coordinates": {"latitude": 40.695684, "longitude": -73.8207051}, "alias": "blend-lounge-ny-richmond-hill", "image_url": "https://s3-media3.fl.yelpcdn.com/bphoto/VBedjfdXuwzalg73suEPPA/o.jpg", "categories": [{"alias": "lounges", "title": "Lounges"}], "display_phone": "(718) 850-1600", "phone": "+17188501600", "id": "Vb-i45uFQIQNo7bVln8IDw", "is_closed": false, "location": {"city": "Richmond Hill", "display_address": ["127-07 Atlantic Ave", "Richmond Hill, NY 11419"], "country": "US", "address2": null, "address3": "", "state": "NY", "address1": "127-07 Atlantic Ave", "zip_code": "11419"}}, {"rating": 4.5, "review_count": 9, "name": "Elevate Sky Lounge", "transactions": [], "url": "https://www.yelp.com/biz/elevate-sky-lounge-queens-2?adjust_creative=yhLoLzsNXKw40xZ5RCWPpA&utm_campaign=yelp_api_v3&utm_medium=api_v3_business_search&utm_source=yhLoLzsNXKw40xZ5RCWPpA", "price": "$$$", "distance": 3594.4176861576175, "coordinates": {"latitude": 40.6876080600462, "longitude": -73.8209485671971}, "alias": "elevate-sky-lounge-queens-2", "image_url": "https://s3-media4.fl.yelpcdn.com/bphoto/5TVPV0ibuCkg78Z_tw_34Q/o.jpg", "categories": [{"alias": "lounges", "title": "Lounges"}], "display_phone": "(718) 323-2026", "phone": "+17183232026", "id": "2xAoZEaIwqNe_bECq-1DNA", "is_closed": false, "location": {"city": "Queens", "display_address": ["123-07 Liberty Ave", "Queens, NY 11419"], "country": "US", "address2": "", "address3": null, "state": "NY", "address1": "123-07 Liberty Ave", "zip_code": "11419"}}, {"rating": 4.5, "review_count": 12, "name": "The Dart Inn", "transactions": [], "url": "https://www.yelp.com/biz/the-dart-inn-briarwood?adjust_creative=yhLoLzsNXKw40xZ5RCWPpA&utm_campaign=yelp_api_v3&utm_medium=api_v3_business_search&utm_source=yhLoLzsNXKw40xZ5RCWPpA", "price": "$$", "distance": 3597.2146993551783, "coordinates": {"latitude": 40.71515, "longitude": -73.80795}, "alias": "the-dart-inn-briarwood", "image_url": "https://s3-media1.fl.yelpcdn.com/bphoto/WuyE3YNyAxdO98qtpahDtQ/o.jpg", "categories": [{"alias": "divebars", "title": "Dive Bars"}], "display_phone": "", "phone": "", "id": "XUrbMZ_9wtP47LdnXvzNiA", "is_closed": false, "location": {"city": "Briarwood", "display_address": ["83-18 Parsons Blvd", "Briarwood, NY 11432"], "country": "US", "address2": "", "address3": "", "state": "NY", "address1": "83-18 Parsons Blvd", "zip_code": "11432"}}, {"rating": 2.0, "review_count": 2, "name": "Bistro Filipino", "transactions": [], "url": "https://www.yelp.com/biz/bistro-filipino-richmond-hill?adjust_creative=yhLoLzsNXKw40xZ5RCWPpA&utm_campaign=yelp_api_v3&utm_medium=api_v3_business_search&utm_source=yhLoLzsNXKw40xZ5RCWPpA", "distance": 3632.663639162544, "coordinates": {"latitude": 40.699042, "longitude": -73.820537}, "alias": "bistro-filipino-richmond-hill", "image_url": "", "categories": [{"alias": "pubs", "title": "Pubs"}], "display_phone": "(718) 850-2800", "phone": "+17188502800", "id": "GEB4jbR0ufevT4-PZaf0_Q", "is_closed": false, "location": {"city": "Richmond Hill", "display_address": ["8929 130th St", "Richmond Hill, NY 11418"], "country": "US", "address2": null, "address3": null, "state": "NY", "address1": "8929 130th St", "zip_code": "11418"}}, {"rating": 1.0, "review_count": 3, "name": "Rose Lounge", "transactions": [], "url": "https://www.yelp.com/biz/rose-lounge-queens?adjust_creative=yhLoLzsNXKw40xZ5RCWPpA&utm_campaign=yelp_api_v3&utm_medium=api_v3_business_search&utm_source=yhLoLzsNXKw40xZ5RCWPpA", "price": "$$", "distance": 3635.241748404995, "coordinates": {"latitude": 40.6991661, "longitude": -73.8206122}, "alias": "rose-lounge-queens", "image_url": "https://s3-media4.fl.yelpcdn.com/bphoto/FT4yYD0Oq6TaqJLzuirRJA/o.jpg", "categories": [{"alias": "lounges", "title": "Lounges"}], "display_phone": "(718) 805-7673", "phone": "+17188057673", "id": "fFGRDQOuGG1-7kdhi_44eQ", "is_closed": false, "location": {"city": "Queens", "display_address": ["89-25 130th St", "Queens, NY 11418"], "country": "US", "address2": "", "address3": null, "state": "NY", "address1": "89-25 130th St", "zip_code": "11418"}}, {"rating": 2.5, "review_count": 14, "name": "Tropical Jade 2", "transactions": [], "url": "https://www.yelp.com/biz/tropical-jade-2-queens-2?adjust_creative=yhLoLzsNXKw40xZ5RCWPpA&utm_campaign=yelp_api_v3&utm_medium=api_v3_business_search&utm_source=yhLoLzsNXKw40xZ5RCWPpA", "distance": 3686.698421576174, "coordinates": {"latitude": 40.6870923, "longitude": -73.8219625}, "alias": "tropical-jade-2-queens-2", "image_url": "https://s3-media1.fl.yelpcdn.com/bphoto/2o8sPMRSFdKA_TxpS-P-oA/o.jpg", "categories": [{"alias": "caribbean", "title": "Caribbean"}, {"alias": "chinese", "title": "Chinese"}, {"alias": "bars", "title": "Bars"}], "display_phone": "(718) 480-1115", "phone": "+17184801115", "id": "rU5xSttgVrW33MIOvM9Xuw", "is_closed": false, "location": {"city": "Queens", "display_address": ["121-14 Liberty Ave", "Queens, NY 11419"], "country": "US", "address2": "", "address3": null, "state": "NY", "address1": "121-14 Liberty Ave", "zip_code": "11419"}}, {"rating": 3.5, "review_count": 4, "name": "Rosemary's", "transactions": [], "url": "https://www.yelp.com/biz/rosemarys-jamaica?adjust_creative=yhLoLzsNXKw40xZ5RCWPpA&utm_campaign=yelp_api_v3&utm_medium=api_v3_business_search&utm_source=yhLoLzsNXKw40xZ5RCWPpA", "price": "$$", "distance": 3727.2997067885967, "coordinates": {"latitude": 40.6658, "longitude": -73.80682}, "alias": "rosemarys-jamaica", "image_url": "https://s3-media2.fl.yelpcdn.com/bphoto/7IkaLJ8SfzEfUECUd6XjEA/o.jpg", "categories": [{"alias": "bars", "title": "Bars"}, {"alias": "tradamerican", "title": "American (Traditional)"}], "display_phone": "(718) 322-7190", "phone": "+17183227190", "id": "YmhYmk6C2KqJc6JzqHBp4Q", "is_closed": false, "location": {"city": "Jamaica", "display_address": ["13226 S Conduit Ave", "Sheraton Jfk Airport Hotel", "Jamaica, NY 11430"], "country": "US", "address2": "", "address3": "Sheraton Jfk Airport Hotel", "state": "NY", "address1": "13226 S Conduit Ave", "zip_code": "11430"}}, {"rating": 2.5, "review_count": 40, "name": "Flamingo Restaurant & Mantra Lounge", "transactions": [], "url": "https://www.yelp.com/biz/flamingo-restaurant-and-mantra-lounge-south-ozone-park-3?adjust_creative=yhLoLzsNXKw40xZ5RCWPpA&utm_campaign=yelp_api_v3&utm_medium=api_v3_business_search&utm_source=yhLoLzsNXKw40xZ5RCWPpA", "price": "$$", "distance": 3755.732051545237, "coordinates": {"latitude": 40.67573, "longitude": -73.81664}, "alias": "flamingo-restaurant-and-mantra-lounge-south-ozone-park-3", "image_url": "https://s3-media1.fl.yelpcdn.com/bphoto/jwzY4C1GoUWXR5v3agnXWw/o.jpg", "categories": [{"alias": "caribbean", "title": "Caribbean"}, {"alias": "tradamerican", "title": "American (Traditional)"}, {"alias": "lounges", "title": "Lounges"}], "display_phone": "(718) 835-1000", "phone": "+17188351000", "id": "rKsCMH949UhfnqLpAIM6JA", "is_closed": false, "location": {"city": "South Ozone Park", "display_address": ["120-04 /06 Rockaway Blvd", "South Ozone Park, NY 11420"], "country": "US", "address2": "", "address3": "", "state": "NY", "address1": "120-04 /06 Rockaway Blvd", "zip_code": "11420"}}]}