{"region": {"center": {"latitude": 40.6693926431, "longitude": -73.8329921422}}, "total": 543, "businesses": [{"rating": 3.5, "review_count": 2, "name": "Equestris Restaurant", "transactions": [], "url": "https://www.yelp.com/biz/equestris-restaurant-south-ozone-park?adjust_creative=yhLoLzsNXKw40xZ5RCWPpA&utm_campaign=yelp_api_v3&utm_medium=api_v3_business_search&utm_source=yhLoLzsNXKw40xZ5RCWPpA", "distance": 319.41862517291156, "coordinates": {"latitude": 40.677987, "longitude": -73.8309196}, "alias": "equestris-restaurant-south-ozone-park", "image_url": "", "categories": [{"alias": "bars", "title": "Bars"}, {"alias": "buffets", "title": "Buffets"}], "display_phone": "(718) 641-4700", "phone": "+17186414700", "id": "XTtcYt55x_MamoMe1K4TBg", "is_closed": false, "location": {"city": "South Ozone Park", "display_address": ["110-00 Rockaway Blvd", "South Ozone Park, NY 11420"], "country": "US", "address2": "", "address3": "", "state": "NY", "address1": "110-00 Rockaway Blvd", "zip_code": "11420"}}, {"rating": 5.0, "review_count": 1, "name": "96 south park", "transactions": [], "url": "https://www.yelp.com/biz/96-south-park-jamaica?adjust_creative=yhLoLzsNXKw40xZ5RCWPpA&utm_campaign=yelp_api_v3&utm_medium=api_v3_business_search&utm_source=yhLoLzsNXKw40xZ5RCWPpA", "price": "$$", "distance": 734.6393208478669, "coordinates": {"latitude": 40.6736984, "longitude": -73.839592}, "alias": "96-south-park-jamaica", "image_url": "https://s3-media4.fl.yelpcdn.com/bphoto/3T4kiHWJhTFrp1zIIlHIcg/o.jpg", "categories": [{"alias": "bars", "title": "Bars"}], "display_phone": "", "phone": "", "id": "ZE8c4aNdJwDWEMhn_-bZYA", "is_closed": false, "location": {"city": "Jamaica", "display_address": ["96-30 Linden Blvd", "Jamaica, NY 11417"], "country": "US", "address2": "", "address3": "", "state": "NY", "address1": "96-30 Linden Blvd", "zip_code": "11417"}}, {"rating": 3.5, "review_count": 160, "name": "Hana Asian Bistro", "transactions": [], "url": "https://www.yelp.com/biz/hana-asian-bistro-ozone-park-2?adjust_creative=yhLoLzsNXKw40xZ5RCWPpA&utm_campaign=yelp_api_v3&utm_medium=api_v3_business_search&utm_source=yhLoLzsNXKw40xZ5RCWPpA", "price": "$$", "distance": 780.5224984038449, "coordinates": {"latitude": 40.6699939531997, "longitude": -73.8424712286242}, "alias": "hana-asian-bistro-ozone-park-2", "image_url": "https://s3-media2.fl.yelpcdn.com/bphoto/ef5QlqWFTzclnGn9QqZfVw/o.jpg", "categories": [{"alias": "sushi", "title": "Sushi Bars"}, {"alias": "asianfusion", "title": "Asian Fusion"}, {"alias": "cocktailbars", "title": "Cocktail Bars"}], "display_phone": "(718) 835-6888", "phone": "+17188356888", "id": "XD9XiCUvbvCt7laocvAadw", "is_closed": false, "location": {"city": "Ozone Park", "display_address": ["150-03 Crossbay Blvd", "Ozone Park, NY 11417"], "country": "US", "address2": null, "address3": null, "state": "NY", "address1": "150-03 Crossbay Blvd", "zip_code": "11417"}}, {"rating": 3.5, "review_count": 54, "name": "CJ's Bar and Lounge", "transactions": [], "url": "https://www.yelp.com/biz/cjs-bar-and-lounge-ozone-park?adjust_creative=yhLoLzsNXKw40xZ5RCWPpA&utm_campaign=yelp_api_v3&utm_medium=api_v3_business_search&utm_source=yhLoLzsNXKw40xZ5RCWPpA", "price": "$$", "distance": 871.5781181382409, "coordinates": {"latitude": 40.6717612145833, "longitude": -73.8428433902073}, "alias": "cjs-bar-and-lounge-ozone-park", "image_url": "https://s3-media2.fl.yelpcdn.com/bphoto/WaHiyuXULwC4-8dijW0tUA/o.jpg", "categories": [{"alias": "lounges", "title": "Lounges"}, {"alias": "sportsbars", "title": "Sports Bars"}, {"alias": "chicken_wings", "title": "Chicken Wings"}], "display_phone": "(718) 848-2498", "phone": "+17188482498", "id": "EfCZ79gw5KdgW5zJzj8-2Q", "is_closed": false, "location": {"city": "Ozone Park", "display_address": ["137-09 Crossbay Blvd", "Ozone Park, NY 11417"], "country": "US", "address2": "", "address3": "", "state": "NY", "address1": "137-09 Crossbay Blvd", "zip_code": "11417"}}, {"rating": 3.0, "review_count": 7, "name": "Bar 360", "transactions": [], "url": "https://www.yelp.com/biz/bar-360-jamaica?adjust_creative=yhLoLzsNXKw40xZ5RCWPpA&utm_campaign=yelp_api_v3&utm_medium=api_v3_business_search&utm_source=yhLoLzsNXKw40xZ5RCWPpA", "price": "$$", "distance": 976.412128028636, "coordinates": {"latitude": 40.6780235154712, "longitude": -73.8308597157787}, "alias": "bar-360-jamaica", "image_url": "https://s3-media1.fl.yelpcdn.com/bphoto/bQu4x48jRNlysiTUtr39Lg/o.jpg", "categories": [{"alias": "cocktailbars", "title": "Cocktail Bars"}, {"alias": "lounges", "title": "Lounges"}, {"alias": "sportsbars", "title": "Sports Bars"}], "display_phone": "", "phone": "", "id": "FxkEZpMyVthRtbNBWz504w", "is_closed": false, "location": {"city": "Jamaica", "display_address": ["110-00 Rockaway Blvd", "Jamaica, NY 11436"], "country": "US", "address2": "", "address3": "", "state": "NY", "address1": "110-00 Rockaway Blvd", "zip_code": "11436"}}, {"rating": 3.5, "review_count": 10, "name": "The Rail Bar & Gril", "transactions": [], "url": "https://www.yelp.com/biz/the-rail-bar-and-gril-howard-beach?adjust_creative=yhLoLzsNXKw40xZ5RCWPpA&utm_campaign=yelp_api_v3&utm_medium=api_v3_business_search&utm_source=yhLoLzsNXKw40xZ5RCWPpA", "price": "$", "distance": 1022.5134957971379, "coordinates": {"latitude": 40.66033, "longitude": -73.83064}, "alias": "the-rail-bar-and-gril-howard-beach", "image_url": "https://s3-media3.fl.yelpcdn.com/bphoto/JsSjho6PPdjIu7G1SlTBlQ/o.jpg", "categories": [{"alias": "bars", "title": "Bars"}, {"alias": "tradamerican", "title": "American (Traditional)"}], "display_phone": "(718) 843-9877", "phone": "+17188439877", "id": "nQX7SiCWsiK7fOFuOoc1NQ", "is_closed": false, "location": {"city": "Howard Beach", "display_address": ["2 Coleman Sq", "Howard Beach, NY 11414"], "country": "US", "address2": "", "address3": "", "state": "NY", "address1": "2 Coleman Sq", "zip_code": "11414"}}, {"rating": 1.5, "review_count": 3, "name": "Naresa Lounge", "transactions": [], "url": "https://www.yelp.com/biz/naresa-lounge-south-ozone-park?adjust_creative=yhLoLzsNXKw40xZ5RCWPpA&utm_campaign=yelp_api_v3&utm_medium=api_v3_business_search&utm_source=yhLoLzsNXKw40xZ5RCWPpA", "distance": 1248.1059181835603, "coordinates": {"latitude": 40.6763537323893, "longitude": -73.8213824889209}, "alias": "naresa-lounge-south-ozone-park", "image_url": "https://s3-media2.fl.yelpcdn.com/bphoto/ZE7eDpuc-VtWOA4deXFbrg/o.jpg", "categories": [{"alias": "musicvenues", "title": "Music Venues"}, {"alias": "champagne_bars", "title": "Champagne Bars"}, {"alias": "lounges", "title": "Lounges"}], "display_phone": "(718) 323-9500", "phone": "+17183239500", "id": "6jIgodBmdL47cKPid3zEFg", "is_closed": false, "location": {"city": "South Ozone Park", "display_address": ["116-14 Rockaway Blvd", "South Ozone Park, NY 11420"], "country": "US", "address2": "", "address3": "", "state": "NY", "address1": "116-14 Rockaway Blvd", "zip_code": "11420"}}, {"rating": 2.5, "review_count": 40, "name": "Flamingo Restaurant & Mantra Lounge", "transactions": [], "url": "https://www.yelp.com/biz/flamingo-restaurant-and-mantra-lounge-south-ozone-park-3?adjust_creative=yhLoLzsNXKw40xZ5RCWPpA&utm_campaign=yelp_api_v3&utm_medium=api_v3_business_search&utm_source=yhLoLzsNXKw40xZ5RCWPpA", "price": "$$", "distance": 1452.000226020575, "coordinates": {"latitude": 40.67573, "longitude": -73.81664}, "alias": "flamingo-restaurant-and-mantra-lounge-south-ozone-park-3", "image_url": "https://s3-media1.fl.yelpcdn.com/bphoto/jwzY4C1GoUWXR5v3agnXWw/o.jpg", "categories": [{"alias": "caribbean", "title": "Caribbean"}, {"alias": "tradamerican", "title": "American (Traditional)"}, {"alias": "lounges", "title": "Lounges"}], "display_phone": "(718) 835-1000", "phone": "+17188351000", "id": "rKsCMH949UhfnqLpAIM6JA", "is_closed": false, "location": {"city": "South Ozone Park", "display_address": ["120-04 /06 Rockaway Blvd", "South Ozone Park, NY 11420"], "country": "US", "address2": "", "address3": "", "state": "NY", "address1": "120-04 /06 Rockaway Blvd", "zip_code": "11420"}}, {"rating": 3.0, "review_count": 1, "name": "Lynx Lounge", "transactions": [], "url": "https://www.yelp.com/biz/lynx-lounge-queens?adjust_creative=yhLoLzsNXKw40xZ5RCWPpA&utm_campaign=yelp_api_v3&utm_medium=api_v3_business_search&utm_source=yhLoLzsNXKw40xZ5RCWPpA", "distance": 1459.7269058537295, "coordinates": {"latitude": 40.6822192382808, "longitude": -73.8366778939962}, "alias": "lynx-lounge-queens", "image_url": "https://s3-media3.fl.yelpcdn.com/bphoto/arIIu1VfYmiBSazppkMAqA/o.jpg", "categories": [{"alias": "lounges", "title": "Lounges"}], "display_phone": "", "phone": "", "id": "PMi2ofpcFajw0oxn6VDfrg", "is_closed": false, "location": {"city": "Queens", "display_address": ["10407 Liberty Ave", "Ozone Park", "Queens, NY 11417"], "country": "US", "address2": null, "address3": "Ozone Park", "state": "NY", "address1": "10407 Liberty Ave", "zip_code": "11417"}}, {"rating": 3.0, "review_count": 2, "name": "Wild Orchid Bar And Lounge", "transactions": [], "url": "https://www.yelp.com/biz/wild-orchid-bar-and-lounge-queens?adjust_creative=yhLoLzsNXKw40xZ5RCWPpA&utm_campaign=yelp_api_v3&utm_medium=api_v3_business_search&utm_source=yhLoLzsNXKw40xZ5RCWPpA", "price": "$$", "distance": 1489.5412171184012, "coordinates": {"latitude": 40.679144, "longitude": -73.820882}, "alias": "wild-orchid-bar-and-lounge-queens", "image_url": "https://s3-media3.fl.yelpcdn.com/bphoto/KCHz19OFRrp_mgQ4DelQZQ/o.jpg", "categories": [{"alias": "lounges", "title": "Lounges"}], "display_phone": "(917) 971-8275", "phone": "+19179718275", "id": "syRqnPokDt81D-YKj8YRrg", "is_closed": false, "location": {"city": "Queens", "display_address": ["111-48 Lefferts Blvd", "Queens, NY 11420"], "country": "US", "address2": "", "address3": "", "state": "NY", "address1": "111-48 Lefferts Blvd", "zip_code": "11420"}}, {"rating": 3.5, "review_count": 3, "name": "On The Rox", "transactions": [], "url": "https://www.yelp.com/biz/on-the-rox-ozone-park?adjust_creative=yhLoLzsNXKw40xZ5RCWPpA&utm_campaign=yelp_api_v3&utm_medium=api_v3_business_search&utm_source=yhLoLzsNXKw40xZ5RCWPpA", "price": "$$", "distance": 1493.4912452565695, "coordinates": {"latitude": 40.68276, "longitude": -73.8361}, "alias": "on-the-rox-ozone-park", "image_url": "", "categories": [{"alias": "bars", "title": "Bars"}], "display_phone": "(917) 783-7075", "phone": "+19177837075", "id": "kTWRv6AUyhdF48njM3MP5w", "is_closed": false, "location": {"city": "Ozone Park", "display_address": ["105-03 Liberty Ave", "Ozone Park, NY 11417"], "country": "US", "address2": null, "address3": null, "state": "NY", "address1": "105-03 Liberty Ave", "zip_code": "11417"}}, {"rating": 3.5, "review_count": 11, "name": "New Thriving Restaurant", "transactions": [], "url": "https://www.yelp.com/biz/new-thriving-restaurant-ozone-park?adjust_creative=yhLoLzsNXKw40xZ5RCWPpA&utm_campaign=yelp_api_v3&utm_medium=api_v3_business_search&utm_source=yhLoLzsNXKw40xZ5RCWPpA", "distance": 1544.107758634554, "coordinates": {"latitude": 40.6832345235979, "longitude": -73.834458950236}, "alias": "new-thriving-restaurant-ozone-park", "image_url": "https://s3-media3.fl.yelpcdn.com/bphoto/Y_MnPtDVqukud9Yomr-MOg/o.jpg", "categories": [{"alias": "bars", "title": "Bars"}, {"alias": "chinese", "title": "Chinese"}, {"alias": "caribbean", "title": "Caribbean"}], "display_phone": "(718) 835-0890", "phone": "+17188350890", "id": "g10Gvfrp2iz_7RnnlTVy5w", "is_closed": false, "location": {"city": "Ozone Park", "display_address": ["107-02 Liberty Ave", "Ozone Park, NY 11417"], "country": "US", "address2": "", "address3": "", "state": "NY", "address1": "107-02 Liberty Ave", "zip_code": "11417"}}, {"rating": 4.0, "review_count": 4, "name": "Gemini's Lounge & Rest", "transactions": [], "url": "https://www.yelp.com/biz/geminis-lounge-and-rest-ozone-park?adjust_creative=yhLoLzsNXKw40xZ5RCWPpA&utm_campaign=yelp_api_v3&utm_medium=api_v3_business_search&utm_source=yhLoLzsNXKw40xZ5RCWPpA", "price": "$$", "distance": 1604.2112931122847, "coordinates": {"latitude": 40.683864, "longitude": -73.833992}, "alias": "geminis-lounge-and-rest-ozone-park", "image_url": "https://s3-media2.fl.yelpcdn.com/bphoto/uHSNiTdM5Wnbzgudoj0_Hw/o.jpg", "categories": [{"alias": "lounges", "title": "Lounges"}], "display_phone": "(718) 323-0502", "phone": "+17183230502", "id": "Ww2U94HQHp2Gd7pwYGzKRA", "is_closed": false, "location": {"city": "Ozone Park", "display_address": ["10723 Liberty Ave", "Ozone Park, NY 11417"], "country": "US", "address2": "", "address3": "", "state": "NY", "address1": "10723 Liberty Ave", "zip_code": "11417"}}, {"rating": 4.0, "review_count": 28, "name": "Hookah On the Bay", "transactions": [], "url": "https://www.yelp.com/biz/hookah-on-the-bay-howard-beach?adjust_creative=yhLoLzsNXKw40xZ5RCWPpA&utm_campaign=yelp_api_v3&utm_medium=api_v3_business_search&utm_source=yhLoLzsNXKw40xZ5RCWPpA", "price": "$$", "distance": 1670.5921507609826, "coordinates": {"latitude": 40.6551364957032, "longitude": -73.8392429660078}, "alias": "hookah-on-the-bay-howard-beach", "image_url": "https://s3-media1.fl.yelpcdn.com/bphoto/erCjT0WwM9geMFo3XM5NYw/o.jpg", "categories": [{"alias": "hookah_bars", "title": "Hookah Bars"}, {"alias": "lounges", "title": "Lounges"}], "display_phone": "(347) 248-3810", "phone": "+13472483810", "id": "ikr6bPVtbbuXeky86dsIVw", "is_closed": false, "location": {"city": "Howard Beach", "display_address": ["161-08 Cross Bay Blvd", "Howard Beach, NY 11414"], "country": "US", "address2": "", "address3": "", "state": "NY", "address1": "161-08 Cross Bay Blvd", "zip_code": "11414"}}, {"rating": 3.0, "review_count": 1, "name": "Lituation lounge", "transactions": [], "url": "https://www.yelp.com/biz/lituation-lounge-queens?adjust_creative=yhLoLzsNXKw40xZ5RCWPpA&utm_campaign=yelp_api_v3&utm_medium=api_v3_business_search&utm_source=yhLoLzsNXKw40xZ5RCWPpA", "price": "$$", "distance": 1752.4938863599111, "coordinates": {"latitude": 40.68492, "longitude": -73.82992}, "alias": "lituation-lounge-queens", "image_url": "https://s3-media4.fl.yelpcdn.com/bphoto/6A4Q52m8XzkvRVw_CJGDfw/o.jpg", "categories": [{"alias": "cocktailbars", "title": "Cocktail Bars"}], "display_phone": "(917) 826-0047", "phone": "+19178260047", "id": "hoIACoRb-o5fnR6iunjPZQ", "is_closed": false, "location": {"city": "Queens", "display_address": ["112-06 Liberty Ave", "Queens, NY 11419"], "country": "US", "address2": null, "address3": "", "state": "NY", "address1": "112-06 Liberty Ave", "zip_code": "11419"}}, {"rating": 3.0, "review_count": 10, "name": "Trini Gyul", "transactions": [], "url": "https://www.yelp.com/biz/trini-gyul-jamaica?adjust_creative=yhLoLzsNXKw40xZ5RCWPpA&utm_campaign=yelp_api_v3&utm_medium=api_v3_business_search&utm_source=yhLoLzsNXKw40xZ5RCWPpA", "price": "$", "distance": 1773.0849250208184, "coordinates": {"latitude": 40.68504, "longitude": -73.82958}, "alias": "trini-gyul-jamaica", "image_url": "", "categories": [{"alias": "indpak", "title": "Indian"}, {"alias": "sportsbars", "title": "Sports Bars"}], "display_phone": "(718) 659-1020", "phone": "+17186591020", "id": "ExOHOMrBuPSFmDaLDvtSJw", "is_closed": false, "location": {"city": "Jamaica", "display_address": ["112-16 Liberty Ave Queens", "Jamaica, NY 11419"], "country": "US", "address2": "", "address3": "", "state": "NY", "address1": "112-16 Liberty Ave Queens", "zip_code": "11419"}}, {"rating": 5.0, "review_count": 2, "name": "Hydra Lounge", "transactions": [], "url": "https://www.yelp.com/biz/hydra-lounge-ozone-park?adjust_creative=yhLoLzsNXKw40xZ5RCWPpA&utm_campaign=yelp_api_v3&utm_medium=api_v3_business_search&utm_source=yhLoLzsNXKw40xZ5RCWPpA", "price": "$", "distance": 1825.9889521886744, "coordinates": {"latitude": 40.67972, "longitude": -73.8498199}, "alias": "hydra-lounge-ozone-park", "image_url": "https://s3-media2.fl.yelpcdn.com/bphoto/lrKTvhDK9bdKqdB89rhI3A/o.jpg", "categories": [{"alias": "hookah_bars", "title": "Hookah Bars"}, {"alias": "lounges", "title": "Lounges"}], "display_phone": "(347) 441-6426", "phone": "+13474416426", "id": "txF1G1hrwZaM9LGM_PS-ZQ", "is_closed": false, "location": {"city": "Ozone Park", "display_address": ["88-18 Liberty Ave", "Ozone Park, NY 11417"], "country": "US", "address2": null, "address3": "", "state": "NY", "address1": "88-18 Liberty Ave", "zip_code": "11417"}}, {"rating": 3.5, "review_count": 6, "name": "Mike's Tavern", "transactions": [], "url": "https://www.yelp.com/biz/mikes-tavern-jamaica?adjust_creative=yhLoLzsNXKw40xZ5RCWPpA&utm_campaign=yelp_api_v3&utm_medium=api_v3_business_search&utm_source=yhLoLzsNXKw40xZ5RCWPpA", "price": "$", "distance": 1829.383690680424, "coordinates": {"latitude": 40.6796531677246, "longitude": -73.8499450683594}, "alias": "mikes-tavern-jamaica", "image_url": "https://s3-media1.fl.yelpcdn.com/bphoto/-apr4JYF__VlxIITEqRiQw/o.jpg", "categories": [{"alias": "pubs", "title": "Pubs"}], "display_phone": "(718) 845-9322", "phone": "+17188459322", "id": "o-xxl9iFJczUbJeZe3-pQw", "is_closed": false, "location": {"city": "Jamaica", "display_address": ["8814 Liberty Ave", "Jamaica, NY 11417"], "country": "US", "address2": "", "address3": "", "state": "NY", "address1": "8814 Liberty Ave", "zip_code": "11417"}}, {"rating": 3.0, "review_count": 1, "name": "RRR Lounge & Bar", "transactions": [], "url": "https://www.yelp.com/biz/rrr-lounge-and-bar-queens?adjust_creative=yhLoLzsNXKw40xZ5RCWPpA&utm_campaign=yelp_api_v3&utm_medium=api_v3_business_search&utm_source=yhLoLzsNXKw40xZ5RCWPpA", "distance": 1873.1523061632051, "coordinates": {"latitude": 40.6795854051432, "longitude": -73.8506763083788}, "alias": "rrr-lounge-and-bar-queens", "image_url": "", "categories": [{"alias": "lounges", "title": "Lounges"}], "display_phone": "(347) 408-6935", "phone": "+13474086935", "id": "HsubhE-U4nkIwJUcdZVO4A", "is_closed": false, "location": {"city": "Queens", "display_address": ["87-18 Liberty Ave", "Queens, NY 11417"], "country": "US", "address2": "", "address3": null, "state": "NY", "address1": "87-18 Liberty Ave", "zip_code": "11417"}}, {"rating": 4.0, "review_count": 1, "name": "Sugaz Lounge & Restaurant", "transactions": [], "url": "https://www.yelp.com/biz/sugaz-lounge-and-restaurant-queens?adjust_creative=yhLoLzsNXKw40xZ5RCWPpA&utm_campaign=yelp_api_v3&utm_medium=api_v3_business_search&utm_source=yhLoLzsNXKw40xZ5RCWPpA", "price": "$", "distance": 1881.8932274030683, "coordinates": {"latitude": 40.6856945207341, "longitude": -73.8269957900047}, "alias": "sugaz-lounge-and-restaurant-queens", "image_url": "https://s3-media4.fl.yelpcdn.com/bphoto/e7zchqlvlnF_307U0uf8NQ/o.jpg", "categories": [{"alias": "sportsbars", "title": "Sports Bars"}, {"alias": "lounges", "title": "Lounges"}, {"alias": "caribbean", "title": "Caribbean"}], "display_phone": "(718) 323-2453", "phone": "+17183232453", "id": "kxvdLTErVW543j5Om_SPBw", "is_closed": false, "location": {"city": "Queens", "display_address": ["115-22 Liberty Ave", "Queens, NY 11419"], "country": "US", "address2": "", "address3": null, "state": "NY", "address1": "115-22 Liberty Ave", "zip_code": "11419"}}, {"rating": 3.0, "review_count": 3, "name": "TicTavern Barlounge", "transactions": [], "url": "https://www.yelp.com/biz/tictavern-barlounge-south-ozone-park?adjust_creative=yhLoLzsNXKw40xZ5RCWPpA&utm_campaign=yelp_api_v3&utm_medium=api_v3_business_search&utm_source=yhLoLzsNXKw40xZ5RCWPpA", "price": "$", "distance": 1883.8962532085961, "coordinates": {"latitude": 40.675584, "longitude": -73.812199}, "alias": "tictavern-barlounge-south-ozone-park", "image_url": "https://s3-media2.fl.yelpcdn.com/bphoto/0IWwmk5g3BhhtVDm9YlWRg/o.jpg", "categories": [{"alias": "lounges", "title": "Lounges"}], "display_phone": "(718) 848-4297", "phone": "+17188484297", "id": "eYCgf5RfmsiTBRY3JHMD-g", "is_closed": false, "location": {"city": "South Ozone Park", "display_address": ["125-17 Rockaway Blvd", "South Ozone Park, NY 11420"], "country": "US", "address2": "", "address3": "", "state": "NY", "address1": "125-17 Rockaway Blvd", "zip_code": "11420"}}, {"rating": 5.0, "review_count": 2, "name": "88 Liquor and Wine Store", "transactions": [], "url": "https://www.yelp.com/biz/88-liquor-and-wine-store-ozone-park?adjust_creative=yhLoLzsNXKw40xZ5RCWPpA&utm_campaign=yelp_api_v3&utm_medium=api_v3_business_search&utm_source=yhLoLzsNXKw40xZ5RCWPpA", "price": "$$", "distance": 1884.2820651698776, "coordinates": {"latitude": 40.6798741047023, "longitude": -73.8505487551745}, "alias": "88-liquor-and-wine-store-ozone-park", "image_url": "", "categories": [{"alias": "wine_bars", "title": "Wine Bars"}], "display_phone": "", "phone": "", "id": "DQ0HELIhvfNE7tEydXYW0A", "is_closed": false, "location": {"city": "Ozone Park", "display_address": ["88-17 Liberty Ave", "Ozone Park, NY 11417"], "country": "US", "address2": "", "address3": "", "state": "NY", "address1": "88-17 Liberty Ave", "zip_code": "11417"}}, {"rating": 3.0, "review_count": 1, "name": "Exotic Zone Bar & Lounge", "transactions": [], "url": "https://www.yelp.com/biz/exotic-zone-bar-and-lounge-ozone-park?adjust_creative=yhLoLzsNXKw40xZ5RCWPpA&utm_campaign=yelp_api_v3&utm_medium=api_v3_business_search&utm_source=yhLoLzsNXKw40xZ5RCWPpA", "distance": 1885.8870857418694, "coordinates": {"latitude": 40.679668, "longitude": -73.850776}, "alias": "exotic-zone-bar-and-lounge-ozone-park", "image_url": "https://s3-media2.fl.yelpcdn.com/bphoto/MUPHkwxS6xxCKJUe_j-ccQ/o.jpg", "categories": [{"alias": "bars", "title": "Bars"}], "display_phone": "(718) 843-1853", "phone": "+17188431853", "id": "E7x3qAZZdO2Ch5ibi5igOg", "is_closed": false, "location": {"city": "Ozone Park", "display_address": ["8718 Liberty Ave", "Ozone Park, NY 11417"], "country": "US", "address2": "", "address3": "", "state": "NY", "address1": "8718 Liberty Ave", "zip_code": "11417"}}, {"rating": 1.0, "review_count": 1, "name": "Juicy Bar and Lounge", "transactions": [], "url": "https://www.yelp.com/biz/juicy-bar-and-lounge-ozone-park?adjust_creative=yhLoLzsNXKw40xZ5RCWPpA&utm_campaign=yelp_api_v3&utm_medium=api_v3_business_search&utm_source=yhLoLzsNXKw40xZ5RCWPpA", "distance": 1886.3023334040295, "coordinates": {"latitude": 40.6796684, "longitude": -73.8507767}, "alias": "juicy-bar-and-lounge-ozone-park", "image_url": "https://s3-media1.fl.yelpcdn.com/bphoto/HF8u7gTvykflxcedPvA9QQ/o.jpg", "categories": [{"alias": "lounges", "title": "Lounges"}], "display_phone": "", "phone": "", "id": "ZojtGnA16D8z2xYc86XLog", "is_closed": false, "location": {"city": "Ozone Park", "display_address": ["87-18 Liberty Ave", "Ozone Park, NY 11417"], "country": "US", "address2": null, "address3": "", "state": "NY", "address1": "87-18 Liberty Ave", "zip_code": "11417"}}, {"rating": 4.5, "review_count": 3, "name": "The Quiet Man", "transactions": [], "url": "https://www.yelp.com/biz/the-quiet-man-ozone-park?adjust_creative=yhLoLzsNXKw40xZ5RCWPpA&utm_campaign=yelp_api_v3&utm_medium=api_v3_business_search&utm_source=yhLoLzsNXKw40xZ5RCWPpA", "price": "$", "distance": 1984.7476812780817, "coordinates": {"latitude": 40.68483, "longitude": -73.84479}, "alias": "the-quiet-man-ozone-park", "image_url": "https://s3-media2.fl.yelpcdn.com/bphoto/ZbeLAvp6e25RJeeMpuIbXw/o.jpg", "categories": [{"alias": "bars", "title": "Bars"}], "display_phone": "(917) 834-2687", "phone": "+19178342687", "id": "gUYh5p3pU17S8kuXYD0CBg", "is_closed": false, "location": {"city": "Ozone Park", "display_address": ["9603 101st Ave", "Ozone Park, NY 11416"], "country": "US", "address2": "", "address3": "", "state": "NY", "address1": "9603 101st Ave", "zip_code": "11416"}}, {"rating": 3.0, "review_count": 2, "name": "East Indian Music Academy", "transactions": [], "url": "https://www.yelp.com/biz/east-indian-music-academy-south-ozone-park?adjust_creative=yhLoLzsNXKw40xZ5RCWPpA&utm_campaign=yelp_api_v3&utm_medium=api_v3_business_search&utm_source=yhLoLzsNXKw40xZ5RCWPpA", "price": "$$", "distance": 2103.72318215577, "coordinates": {"latitude": 40.6821399, "longitude": -73.81457}, "alias": "east-indian-music-academy-south-ozone-park", "image_url": "https://s3-media2.fl.yelpcdn.com/bphoto/SZ8Cg7LuyHcMshBN0seIWA/o.jpg", "categories": [{"alias": "musicvenues", "title": "Music Venues"}], "display_phone": "(718) 738-7836", "phone": "+17187387836", "id": "8Fj1ZqGX4mK7Fgy7UUuRXg", "is_closed": false, "location": {"city": "South Ozone Park", "display_address": ["126-10 111th Ave", "South Ozone Park, NY 11420"], "country": "US", "address2": "", "address3": "", "state": "NY", "address1": "126-10 111th Ave", "zip_code": "11420"}}, {"rating": 1.0, "review_count": 2, "name": "Insomnia Bar & Lounge", "transactions": [], "url": "https://www.yelp.com/biz/insomnia-bar-and-lounge-south-ozone-park-2?adjust_creative=yhLoLzsNXKw40xZ5RCWPpA&utm_campaign=yelp_api_v3&utm_medium=api_v3_business_search&utm_source=yhLoLzsNXKw40xZ5RCWPpA", "price": "$", "distance": 2174.5442790777656, "coordinates": {"latitude": 40.6826878234026, "longitude": -73.8140819594264}, "alias": "insomnia-bar-and-lounge-south-ozone-park-2", "image_url": "https://s3-media2.fl.yelpcdn.com/bphoto/OlgvtOms4_GhqHR6qEYCNA/o.jpg", "categories": [{"alias": "beer_and_wine", "title": "Beer, Wine & Spirits"}, {"alias": "lounges", "title": "Lounges"}], "display_phone": "", "phone": "", "id": "Ma8XdGL2Npx0KijSZNPltw", "is_closed": false, "location": {"city": "South Ozone Park", "display_address": ["127-05 111th Ave", "South Ozone Park, NY 11420"], "country": "US", "address2": "", "address3": "", "state": "NY", "address1": "127-05 111th Ave", "zip_code": "11420"}}, {"rating": 2.5, "review_count": 14, "name": "Tropical Jade 2", "transactions": [], "url": "https://www.yelp.com/biz/tropical-jade-2-queens-2?adjust_creative=yhLoLzsNXKw40xZ5RCWPpA&utm_campaign=yelp_api_v3&utm_medium=api_v3_business_search&utm_source=yhLoLzsNXKw40xZ5RCWPpA", "distance": 2176.823215874113, "coordinates": {"latitude": 40.6870923, "longitude": -73.8219625}, "alias": "tropical-jade-2-queens-2", "image_url": "https://s3-media1.fl.yelpcdn.com/bphoto/2o8sPMRSFdKA_TxpS-P-oA/o.jpg", "categories": [{"alias": "caribbean", "title": "Caribbean"}, {"alias": "chinese", "title": "Chinese"}, {"alias": "bars", "title": "Bars"}], "display_phone": "(718) 480-1115", "phone": "+17184801115", "id": "rU5xSttgVrW33MIOvM9Xuw", "is_closed": false, "location": {"city": "Queens", "display_address": ["121-14 Liberty Ave", "Queens, NY 11419"], "country": "US", "address2": "", "address3": null, "state": "NY", "address1": "121-14 Liberty Ave", "zip_code": "11419"}}, {"rating": 4.0, "review_count": 230, "name": "Vetro Restaurant & Wine Bar", "transactions": [], "url": "https://www.yelp.com/biz/vetro-restaurant-and-wine-bar-howard-beach-2?adjust_creative=yhLoLzsNXKw40xZ5RCWPpA&utm_campaign=yelp_api_v3&utm_medium=api_v3_business_search&utm_source=yhLoLzsNXKw40xZ5RCWPpA", "price": "$$$", "distance": 2248.38506719168, "coordinates": {"latitude": 40.6494053, "longitude": -73.837026}, "alias": "vetro-restaurant-and-wine-bar-howard-beach-2", "image_url": "https://s3-media3.fl.yelpcdn.com/bphoto/CPNvCBVYr3poXtjQMGY5XA/o.jpg", "categories": [{"alias": "italian", "title": "Italian"}, {"alias": "lounges", "title": "Lounges"}], "display_phone": "(718) 843-8387", "phone": "+17188438387", "id": "L1gs262Sz476G9tOzuoJxg", "is_closed": false, "location": {"city": "Howard Beach", "display_address": ["164-49 Crossbay Blvd", "Howard Beach, NY 11414"], "country": "US", "address2": null, "address3": "", "state": "NY", "address1": "164-49 Crossbay Blvd", "zip_code": "11414"}}, {"rating": 3.0, "review_count": 12, "name": "Underground", "transactions": [], "url": "https://www.yelp.com/biz/underground-richmond-hill?adjust_creative=yhLoLzsNXKw40xZ5RCWPpA&utm_campaign=yelp_api_v3&utm_medium=api_v3_business_search&utm_source=yhLoLzsNXKw40xZ5RCWPpA", "price": "$$", "distance": 2250.7437869084833, "coordinates": {"latitude": 40.68722, "longitude": -73.82041}, "alias": "underground-richmond-hill", "image_url": "https://s3-media2.fl.yelpcdn.com/bphoto/3brjsF3ZpnXVlQHinZuFAQ/o.jpg", "categories": [{"alias": "lounges", "title": "Lounges"}, {"alias": "asianfusion", "title": "Asian Fusion"}], "display_phone": "(718) 322-4144", "phone": "+17183224144", "id": "6aebr2J_NjAfaOqSmfwx-A", "is_closed": false, "location": {"city": "Richmond Hill", "display_address": ["104-09 123rd St", "Richmond Hill, NY 11419"], "country": "US", "address2": "", "address3": "", "state": "NY", "address1": "104-09 123rd St", "zip_code": "11419"}}, {"rating": 3.5, "review_count": 4, "name": "Rosemary's", "transactions": [], "url": "https://www.yelp.com/biz/rosemarys-jamaica?adjust_creative=yhLoLzsNXKw40xZ5RCWPpA&utm_campaign=yelp_api_v3&utm_medium=api_v3_business_search&utm_source=yhLoLzsNXKw40xZ5RCWPpA", "price": "$$", "distance": 2258.0887098589765, "coordinates": {"latitude": 40.6658, "longitude": -73.80682}, "alias": "rosemarys-jamaica", "image_url": "https://s3-media2.fl.yelpcdn.com/bphoto/7IkaLJ8SfzEfUECUd6XjEA/o.jpg", "categories": [{"alias": "bars", "title": "Bars"}, {"alias": "tradamerican", "title": "American (Traditional)"}], "display_phone": "(718) 322-7190", "phone": "+17183227190", "id": "YmhYmk6C2KqJc6JzqHBp4Q", "is_closed": false, "location": {"city": "Jamaica", "display_address": ["13226 S Conduit Ave", "Sheraton Jfk Airport Hotel", "Jamaica, NY 11430"], "country": "US", "address2": "", "address3": "Sheraton Jfk Airport Hotel", "state": "NY", "address1": "13226 S Conduit Ave", "zip_code": "11430"}}, {"rating": 4.5, "review_count": 9, "name": "Elevate Sky Lounge", "transactions": [], "url": "https://www.yelp.com/biz/elevate-sky-lounge-queens-2?adjust_creative=yhLoLzsNXKw40xZ5RCWPpA&utm_campaign=yelp_api_v3&utm_medium=api_v3_business_search&utm_source=yhLoLzsNXKw40xZ5RCWPpA", "price": "$$$", "distance": 2265.8214836536667, "coordinates": {"latitude": 40.6876080600462, "longitude": -73.8209485671971}, "alias": "elevate-sky-lounge-queens-2", "image_url": "https://s3-media4.fl.yelpcdn.com/bphoto/5TVPV0ibuCkg78Z_tw_34Q/o.jpg", "categories": [{"alias": "lounges", "title": "Lounges"}], "display_phone": "(718) 323-2026", "phone": "+17183232026", "id": "2xAoZEaIwqNe_bECq-1DNA", "is_closed": false, "location": {"city": "Queens", "display_address": ["123-07 Liberty Ave", "Queens, NY 11419"], "country": "US", "address2": "", "address3": null, "state": "NY", "address1": "123-07 Liberty Ave", "zip_code": "11419"}}, {"rating": 1.5, "review_count": 3, "name": "Jim Byrne's Wee Pub", "transactions": [], "url": "https://www.yelp.com/biz/jim-byrnes-wee-pub-new-york?adjust_creative=yhLoLzsNXKw40xZ5RCWPpA&utm_campaign=yelp_api_v3&utm_medium=api_v3_business_search&utm_source=yhLoLzsNXKw40xZ5RCWPpA", "distance": 2355.707441948231, "coordinates": {"latitude": 40.686779, "longitude": -73.848954}, "alias": "jim-byrnes-wee-pub-new-york", "image_url": "https://s3-media2.fl.yelpcdn.com/bphoto/Djc_gApFvEwM2rCLypFofw/o.jpg", "categories": [{"alias": "divebars", "title": "Dive Bars"}], "display_phone": "(718) 845-9892", "phone": "+17188459892", "id": "3_U0trUDiIz2bkhNwi6-MQ", "is_closed": false, "location": {"city": "New York", "display_address": ["9301 95th Ave", "New York, NY 11416"], "country": "US", "address2": "", "address3": "", "state": "NY", "address1": "9301 95th Ave", "zip_code": "11416"}}, {"rating": 4.5, "review_count": 75, "name": "Heat Caribbean Kitchen & Lounge", "transactions": ["delivery", "pickup"], "url": "https://www.yelp.com/biz/heat-caribbean-kitchen-and-lounge-ozone-park?adjust_creative=yhLoLzsNXKw40xZ5RCWPpA&utm_campaign=yelp_api_v3&utm_medium=api_v3_business_search&utm_source=yhLoLzsNXKw40xZ5RCWPpA", "price": "$$", "distance": 2450.5538379057534, "coordinates": {"latitude": 40.68976, "longitude": -73.84408}, "alias": "heat-caribbean-kitchen-and-lounge-ozone-park", "image_url": "https://s3-media2.fl.yelpcdn.com/bphoto/MDXhYE1Ze7CWlXVoGP9M5w/o.jpg", "categories": [{"alias": "caribbean", "title": "Caribbean"}, {"alias": "lounges", "title": "Lounges"}, {"alias": "cocktailbars", "title": "Cocktail Bars"}], "display_phone": "(718) 847-7300", "phone": "+17188477300", "id": "fy3Ljo2DxiLJOdOY7vqvRA", "is_closed": false, "location": {"city": "Ozone Park", "display_address": ["100-05 Atlantic Ave", "Ozone Park, NY 11418"], "country": "US", "address2": null, "address3": "", "state": "NY", "address1": "100-05 Atlantic Ave", "zip_code": "11418"}}, {"rating": 3.0, "review_count": 2, "name": "Port O'call", "transactions": [], "url": "https://www.yelp.com/biz/port-o-call-woodhaven?adjust_creative=yhLoLzsNXKw40xZ5RCWPpA&utm_campaign=yelp_api_v3&utm_medium=api_v3_business_search&utm_source=yhLoLzsNXKw40xZ5RCWPpA", "price": "$$$$", "distance": 2511.1057069525173, "coordinates": {"latitude": 40.688182, "longitude": -73.849464}, "alias": "port-o-call-woodhaven", "image_url": "https://s3-media1.fl.yelpcdn.com/bphoto/O6civqpg4D-IiJL-XjjHkA/o.jpg", "categories": [{"alias": "bars", "title": "Bars"}, {"alias": "danceclubs", "title": "Dance Clubs"}], "display_phone": "(718) 846-9717", "phone": "+17188469717", "id": "q9mLtTEPh-frBkdwbr_NiQ", "is_closed": false, "location": {"city": "Woodhaven", "display_address": ["9310 Woodhaven Blvd", "Woodhaven, NY 11421"], "country": "US", "address2": "", "address3": "", "state": "NY", "address1": "9310 Woodhaven Blvd", "zip_code": "11421"}}, {"rating": 3.0, "review_count": 49, "name": "Richi Rich Palace", "transactions": ["delivery", "pickup"], "url": "https://www.yelp.com/biz/richi-rich-palace-richmond-hill?adjust_creative=yhLoLzsNXKw40xZ5RCWPpA&utm_campaign=yelp_api_v3&utm_medium=api_v3_business_search&utm_source=yhLoLzsNXKw40xZ5RCWPpA", "price": "$$", "distance": 2546.4707843002507, "coordinates": {"latitude": 40.692231, "longitude": -73.835224}, "alias": "richi-rich-palace-richmond-hill", "image_url": "https://s3-media3.fl.yelpcdn.com/bphoto/hEKUCYF3NFL1HTJjd1hlkQ/o.jpg", "categories": [{"alias": "venues", "title": "Venues & Event Spaces"}, {"alias": "indpak", "title": "Indian"}, {"alias": "bars", "title": "Bars"}], "display_phone": "(718) 805-7100", "phone": "+17188057100", "id": "jNYhFfAXN3qyy9JbKla9AA", "is_closed": false, "location": {"city": "Richmond Hill", "display_address": ["11019 Atlantic Ave", "Richmond Hill, NY 11418"], "country": "US", "address2": "", "address3": "", "state": "NY", "address1": "11019 Atlantic Ave", "zip_code": "11418"}}, {"rating": 5.0, "review_count": 12, "name": "Majnoon Cafe", "transactions": [], "url": "https://www.yelp.com/biz/majnoon-cafe-queens?adjust_creative=yhLoLzsNXKw40xZ5RCWPpA&utm_campaign=yelp_api_v3&utm_medium=api_v3_business_search&utm_source=yhLoLzsNXKw40xZ5RCWPpA", "distance": 2580.237311687904, "coordinates": {"latitude": 40.68893, "longitude": -73.81653}, "alias": "majnoon-cafe-queens", "image_url": "https://s3-media2.fl.yelpcdn.com/bphoto/LM4tZT5z9bYn0gb3erMLBQ/o.jpg", "categories": [{"alias": "cafes", "title": "Cafes"}, {"alias": "hookah_bars", "title": "Hookah Bars"}], "display_phone": "", "phone": "", "id": "DhDjZXjypbqLYmr7gvu_BQ", "is_closed": false, "location": {"city": "Queens", "display_address": ["128-12 Liberty Ave", "Queens, NY 11419"], "country": "US", "address2": null, "address3": "", "state": "NY", "address1": "128-12 Liberty Ave", "zip_code": "11419"}}, {"rating": 4.0, "review_count": 4, "name": "The Food Hut & Bar", "transactions": ["delivery", "pickup"], "url": "https://www.yelp.com/biz/the-food-hut-and-bar-south-ozone-park?adjust_creative=yhLoLzsNXKw40xZ5RCWPpA&utm_campaign=yelp_api_v3&utm_medium=api_v3_business_search&utm_source=yhLoLzsNXKw40xZ5RCWPpA", "price": "$$", "distance": 2633.9522892804644, "coordinates": {"latitude": 40.674176, "longitude": -73.802404}, "alias": "the-food-hut-and-bar-south-ozone-park", "image_url": "https://s3-media4.fl.yelpcdn.com/bphoto/9kk_sQibZf5hDxbLwkxmig/o.jpg", "categories": [{"alias": "caribbean", "title": "Caribbean"}, {"alias": "cocktailbars", "title": "Cocktail Bars"}], "display_phone": "(718) 529-7743", "phone": "+17185297743", "id": "fUzmfJoh8uklk1cxpsaJxQ", "is_closed": false, "location": {"city": "South Ozone Park", "display_address": ["13532 Rockaway Blvd", "South Ozone Park, NY 11420"], "country": "US", "address2": "", "address3": "", "state": "NY", "address1": "13532 Rockaway Blvd", "zip_code": "11420"}}, {"rating": 2.5, "review_count": 34, "name": "Alaska Lounge", "transactions": [], "url": "https://www.yelp.com/biz/alaska-lounge-queens?adjust_creative=yhLoLzsNXKw40xZ5RCWPpA&utm_campaign=yelp_api_v3&utm_medium=api_v3_business_search&utm_source=yhLoLzsNXKw40xZ5RCWPpA", "price": "$$", "distance": 2713.4077991720624, "coordinates": {"latitude": 40.645105, "longitude": -73.786895}, "alias": "alaska-lounge-queens", "image_url": "https://s3-media4.fl.yelpcdn.com/bphoto/0L4MWjZzh2gVvmKDTH4Hfg/o.jpg", "categories": [{"alias": "airportlounges", "title": "Airport Lounges"}], "display_phone": "", "phone": "", "id": "bfvscYeSmDhIQAjbpaVhXA", "is_closed": false, "location": {"city": "Queens", "display_address": ["Van Wyck & JFK Expressway", "Terminal 7", "Queens, NY 11430"], "country": "US", "address2": "", "address3": "Terminal 7", "state": "NY", "address1": "Van Wyck & JFK Expressway", "zip_code": "11430"}}, {"rating": 2.5, "review_count": 10, "name": "Lenihan's", "transactions": [], "url": "https://www.yelp.com/biz/lenihans-jamaica?adjust_creative=yhLoLzsNXKw40xZ5RCWPpA&utm_campaign=yelp_api_v3&utm_medium=api_v3_business_search&utm_source=yhLoLzsNXKw40xZ5RCWPpA", "price": "$", "distance": 2820.940675101727, "coordinates": {"latitude": 40.69445, "longitude": -73.82768}, "alias": "lenihans-jamaica", "image_url": "https://s3-media4.fl.yelpcdn.com/bphoto/9zjqiyMYSB3KdT86drixBQ/o.jpg", "categories": [{"alias": "bars", "title": "Bars"}], "display_phone": "(718) 846-9770", "phone": "+17188469770", "id": "r-mehmR6KyH9BcpCwG2Ozg", "is_closed": false, "location": {"city": "Jamaica", "display_address": ["11909 Atlantic Ave", "Jamaica, NY 11418"], "country": "US", "address2": "", "address3": "", "state": "NY", "address1": "11909 Atlantic Ave", "zip_code": "11418"}}, {"rating": 3.5, "review_count": 196, "name": "Singh's Roti Shop & Bar", "transactions": [], "url": "https://www.yelp.com/biz/singhs-roti-shop-and-bar-south-richmond-hill?adjust_creative=yhLoLzsNXKw40xZ5RCWPpA&utm_campaign=yelp_api_v3&utm_medium=api_v3_business_search&utm_source=yhLoLzsNXKw40xZ5RCWPpA", "price": "$", "distance": 2823.0903284459982, "coordinates": {"latitude": 40.6901083, "longitude": -73.8144673}, "alias": "singhs-roti-shop-and-bar-south-richmond-hill", "image_url": "https://s3-media2.fl.yelpcdn.com/bphoto/G2aZ_-AGJGLyMcS_R_nY-Q/o.jpg", "categories": [{"alias": "chinese", "title": "Chinese"}, {"alias": "bars", "title": "Bars"}, {"alias": "indpak", "title": "Indian"}], "display_phone": "(718) 323-5990", "phone": "+17183235990", "id": "5g7Kz9ffnv7t47oaomIlqA", "is_closed": false, "location": {"city": "South Richmond Hill", "display_address": ["13118 Liberty Ave", "South Richmond Hill, NY 11419"], "country": "US", "address2": "", "address3": "", "state": "NY", "address1": "13118 Liberty Ave", "zip_code": "11419"}}, {"rating": 3.0, "review_count": 21, "name": "Shisha Cafe & Hookah Lounge", "transactions": [], "url": "https://www.yelp.com/biz/shisha-cafe-and-hookah-lounge-new-york?adjust_creative=yhLoLzsNXKw40xZ5RCWPpA&utm_campaign=yelp_api_v3&utm_medium=api_v3_business_search&utm_source=yhLoLzsNXKw40xZ5RCWPpA", "price": "$$", "distance": 2823.942105428806, "coordinates": {"latitude": 40.690577, "longitude": -73.814522}, "alias": "shisha-cafe-and-hookah-lounge-new-york", "image_url": "https://s3-media3.fl.yelpcdn.com/bphoto/k_funkumXXdPx2mMU_BVDA/o.jpg", "categories": [{"alias": "hookah_bars", "title": "Hookah Bars"}, {"alias": "lounges", "title": "Lounges"}, {"alias": "wine_bars", "title": "Wine Bars"}], "display_phone": "(718) 845-1285", "phone": "+17188451285", "id": "ZirjSKKF381tV7VJpAGfeA", "is_closed": false, "location": {"city": "New York", "display_address": ["131-17 Liberty Ave", "New York, NY 11419"], "country": "US", "address2": "", "address3": "", "state": "NY", "address1": "131-17 Liberty Ave", "zip_code": "11419"}}, {"rating": 4.0, "review_count": 8, "name": "La Selva Bar & Restaurant", "transactions": [], "url": "https://www.yelp.com/biz/la-selva-bar-and-restaurant-queens-2?adjust_creative=yhLoLzsNXKw40xZ5RCWPpA&utm_campaign=yelp_api_v3&utm_medium=api_v3_business_search&utm_source=yhLoLzsNXKw40xZ5RCWPpA", "price": "$$", "distance": 2894.537537512318, "coordinates": {"latitude": 40.68449, "longitude": -73.86097}, "alias": "la-selva-bar-and-restaurant-queens-2", "image_url": "https://s3-media2.fl.yelpcdn.com/bphoto/uamXiDQ7uEwApFdNgZ4Yxg/o.jpg", "categories": [{"alias": "latin", "title": "Latin American"}, {"alias": "bars", "title": "Bars"}], "display_phone": "(718) 296-2785", "phone": "+17182962785", "id": "mzum2_jxCud4vNLLgOGRBg", "is_closed": false, "location": {"city": "Queens", "display_address": ["94-02 80th St", "Queens, NY 11416"], "country": "US", "address2": "", "address3": null, "state": "NY", "address1": "94-02 80th St", "zip_code": "11416"}}, {"rating": 2.0, "review_count": 8, "name": "Mingle 1", "transactions": [], "url": "https://www.yelp.com/biz/mingle-1-south-richmond-hill-2?adjust_creative=yhLoLzsNXKw40xZ5RCWPpA&utm_campaign=yelp_api_v3&utm_medium=api_v3_business_search&utm_source=yhLoLzsNXKw40xZ5RCWPpA", "price": "$$", "distance": 2913.8288158891496, "coordinates": {"latitude": 40.692405, "longitude": -73.816429}, "alias": "mingle-1-south-richmond-hill-2", "image_url": "https://s3-media3.fl.yelpcdn.com/bphoto/sClSKQtNfWDbM65KJVjJDQ/o.jpg", "categories": [{"alias": "danceclubs", "title": "Dance Clubs"}, {"alias": "lounges", "title": "Lounges"}], "display_phone": "(718) 805-6507", "phone": "+17188056507", "id": "clgzANJG6q1aIMzOMqdq9w", "is_closed": false, "location": {"city": "South Richmond Hill", "display_address": ["13018 101st Ave", "South Richmond Hill, NY 11419"], "country": "US", "address2": "", "address3": "", "state": "NY", "address1": "13018 101st Ave", "zip_code": "11419"}}, {"rating": 3.5, "review_count": 2, "name": "Elixir Lounge & Restaurant", "transactions": [], "url": "https://www.yelp.com/biz/elixir-lounge-and-restaurant-richmond-hill?adjust_creative=yhLoLzsNXKw40xZ5RCWPpA&utm_campaign=yelp_api_v3&utm_medium=api_v3_business_search&utm_source=yhLoLzsNXKw40xZ5RCWPpA", "price": "$$", "distance": 2941.4843242665124, "coordinates": {"latitude": 40.695017, "longitude": -73.841657}, "alias": "elixir-lounge-and-restaurant-richmond-hill", "image_url": "https://s3-media3.fl.yelpcdn.com/bphoto/ByYrg4cAmdfeOaJPM-nFtQ/o.jpg", "categories": [{"alias": "lounges", "title": "Lounges"}, {"alias": "hookah_bars", "title": "Hookah Bars"}, {"alias": "tradamerican", "title": "American (Traditional)"}], "display_phone": "(718) 487-3179", "phone": "+17184873179", "id": "bPfPjxdLpxM6b8-W4v5pHQ", "is_closed": false, "location": {"city": "Richmond Hill", "display_address": ["105-06 Jamaica Ave", "Richmond Hill, NY 11418"], "country": "US", "address2": "", "address3": "", "state": "NY", "address1": "105-06 Jamaica Ave", "zip_code": "11418"}}, {"rating": 1.0, "review_count": 1, "name": "Bicheiro's Cafe Sport Bar", "transactions": [], "url": "https://www.yelp.com/biz/bicheiros-cafe-sport-bar-queens?adjust_creative=yhLoLzsNXKw40xZ5RCWPpA&utm_campaign=yelp_api_v3&utm_medium=api_v3_business_search&utm_source=yhLoLzsNXKw40xZ5RCWPpA", "distance": 2989.41736564132, "coordinates": {"latitude": 40.6954498, "longitude": -73.8418427}, "alias": "bicheiros-cafe-sport-bar-queens", "image_url": "", "categories": [{"alias": "sportsbars", "title": "Sports Bars"}, {"alias": "poolhalls", "title": "Pool Halls"}], "display_phone": "(718) 805-4708", "phone": "+17188054708", "id": "utQAF8-ctk_q8LRB6H2GLg", "is_closed": false, "location": {"city": "Queens", "display_address": ["105-05 Jamaica Ave", "Queens, NY 11418"], "country": "US", "address2": null, "address3": "", "state": "NY", "address1": "105-05 Jamaica Ave", "zip_code": "11418"}}, {"rating": 3.5, "review_count": 8, "name": "102 Billiards", "transactions": [], "url": "https://www.yelp.com/biz/102-billiards-richmond-hill?adjust_creative=yhLoLzsNXKw40xZ5RCWPpA&utm_campaign=yelp_api_v3&utm_medium=api_v3_business_search&utm_source=yhLoLzsNXKw40xZ5RCWPpA", "price": "$", "distance": 3032.232919787318, "coordinates": {"latitude": 40.6951970399144, "longitude": -73.8446205854416}, "alias": "102-billiards-richmond-hill", "image_url": "https://s3-media3.fl.yelpcdn.com/bphoto/wTIWNa_klYeZMe4Iw3BzbQ/o.jpg", "categories": [{"alias": "poolhalls", "title": "Pool Halls"}], "display_phone": "", "phone": "", "id": "BnUVZYb9K9T9poPFTBRpDA", "is_closed": false, "location": {"city": "Richmond Hill", "display_address": ["10214 Jamaica Ave", "Richmond Hill, NY 11418"], "country": "US", "address2": "", "address3": "", "state": "NY", "address1": "10214 Jamaica Ave", "zip_code": "11418"}}, {"rating": 3.5, "review_count": 8, "name": "Blend Lounge NY", "transactions": [], "url": "https://www.yelp.com/biz/blend-lounge-ny-richmond-hill?adjust_creative=yhLoLzsNXKw40xZ5RCWPpA&utm_campaign=yelp_api_v3&utm_medium=api_v3_business_search&utm_source=yhLoLzsNXKw40xZ5RCWPpA", "distance": 3101.626348394021, "coordinates": {"latitude": 40.695684, "longitude": -73.8207051}, "alias": "blend-lounge-ny-richmond-hill", "image_url": "https://s3-media3.fl.yelpcdn.com/bphoto/VBedjfdXuwzalg73suEPPA/o.jpg", "categories": [{"alias": "lounges", "title": "Lounges"}], "display_phone": "(718) 850-1600", "phone": "+17188501600", "id": "Vb-i45uFQIQNo7bVln8IDw", "is_closed": false, "location": {"city": "Richmond Hill", "display_address": ["127-07 Atlantic Ave", "Richmond Hill, NY 11419"], "country": "US", "address2": null, "address3": "", "state": "NY", "address1": "127-07 Atlantic Ave", "zip_code": "11419"}}, {"rating": 4.0, "review_count": 26, "name": "Tavern Lounge", "transactions": [], "url": "https://www.yelp.com/biz/tavern-lounge-woodhaven?adjust_creative=yhLoLzsNXKw40xZ5RCWPpA&utm_campaign=yelp_api_v3&utm_medium=api_v3_business_search&utm_source=yhLoLzsNXKw40xZ5RCWPpA", "price": "$", "distance": 3115.5331581337095, "coordinates": {"latitude": 40.694873, "longitude": -73.848359}, "alias": "tavern-lounge-woodhaven", "image_url": "https://s3-media4.fl.yelpcdn.com/bphoto/ubpiP8XOz28ReqEaAmGrdw/o.jpg", "categories": [{"alias": "danceclubs", "title": "Dance Clubs"}, {"alias": "sportsbars", "title": "Sports Bars"}, {"alias": "lounges", "title": "Lounges"}], "display_phone": "(646) 470-2244", "phone": "+16464702244", "id": "f5ejkHHiOHzJgB-43yr3mQ", "is_closed": false, "location": {"city": "Woodhaven", "display_address": ["9707 Jamaica Ave", "Woodhaven, NY 11421"], "country": "US", "address2": "", "address3": "", "state": "NY", "address1": "9707 Jamaica Ave", "zip_code": "11421"}}, {"rating": 2.5, "review_count": 37, "name": "El Gran Canario 2", "transactions": ["delivery", "pickup"], "url": "https://www.yelp.com/biz/el-gran-canario-2-richmond-hill?adjust_creative=yhLoLzsNXKw40xZ5RCWPpA&utm_campaign=yelp_api_v3&utm_medium=api_v3_business_search&utm_source=yhLoLzsNXKw40xZ5RCWPpA", "price": "$$", "distance": 3135.1362480807156, "coordinates": {"latitude": 40.697436, "longitude": -73.836843}, "alias": "el-gran-canario-2-richmond-hill", "image_url": "https://s3-media1.fl.yelpcdn.com/bphoto/7k88InylzrkKdOmSCFqz6g/o.jpg", "categories": [{"alias": "latin", "title": "Latin American"}, {"alias": "bars", "title": "Bars"}, {"alias": "breakfast_brunch", "title": "Breakfast & Brunch"}], "display_phone": "(718) 441-1113", "phone": "+17184411113", "id": "cnXZiXFsk7lmlKD2JT3Pdg", "is_closed": false, "location": {"city": "Richmond Hill", "display_address": ["111-17 Jamaica Ave", "Richmond Hill, NY 11418"], "country": "US", "address2": "", "address3": "", "state": "NY", "address1": "111-17 Jamaica Ave", "zip_code": "11418"}}]}